$GNGGA,205624.00,5025.4447609,N,01411.3818143,E,4,11,1.23,217.790,M,44.078,M,1.0,0084*69
$GNGSA,A,3,87,88,69,79,77,78,68,,,,,,2.27,1.23,1.91,2*03
$GNGSA,A,3,24,26,35,12,,,,,,,,,2.27,1.23,1.91,4*0D
$GLGSV,3,1,10,68,16,250,41,69,26,302,48,70,06,358,,77,43,095,32,1*73
$GLGSV,3,2,10,78,68,334,51,79,20,298,47,81,01,182,21,86,11,021,19,1*70
$GLGSV,3,3,10,87,57,080,49,88,42,151,42,1*74
$GLGSV,3,1,10,68,16,250,43,69,26,302,40,70,06,358,,77,43,095,09,3*73
$GLGSV,3,2,10,78,68,334,44,79,20,298,44,81,01,182,16,86,11,021,,3*79
$GLGSV,3,3,10,87,57,080,,88,42,151,37,3*79
$GBGSV,2,1,06,12,17,189,40,24,64,294,47,25,08,296,46,26,63,118,47,1*70
$GBGSV,2,2,06,33,09,267,45,35,56,090,44,1*77
$GBGSV,2,1,08,08,,,18,12,17,189,49,13,,,27,24,64,294,,3*7A
$GBGSV,2,2,08,25,08,296,,26,63,118,,33,09,267,,35,56,090,,3*71
$GNGLL,5025.4447609,N,01411.3818143,E,205624.00,A,D*7A
$GNTXT,01,01,02,Starting GNSS*5A
$GNRMC,205624.12,V,,,,,,,241021,,,N,V*19
$GNVTG,,,,,,,,,N*2E
$GNGGA,205624.12,,,,,0,00,99.99,,,,,,*7C
$GNGSA,A,1,,,,,,,,,,,,,99.99,99.99,99.99,3*31
$GNGSA,A,1,,,,,,,,,,,,,99.99,99.99,99.99,4*36
$GAGSV,1,1,00,7*73
$GAGSV,1,1,00,2*76
$GBGSV,1,1,00,1*76
$GBGSV,1,1,00,3*74
$GNGLL,,,,,205624.12,V,N*50
$GNRMC,205624.18,V,,,,,,,241021,,,N,V*13
$GNVTG,,,,,,,,,N*2E
$GNGGA,205624.18,,,,,0,00,99.99,,,,,,*76
$GNGSA,A,1,,,,,,,,,,,,,99.99,99.99,99.99,3*31
$GNGSA,A,1,,,,,,,,,,,,,99.99,99.99,99.99,4*36
$GAGSV,3,1,10,01,61,080,,04,16,213,,05,18,321,,09,32,267,,7*7A
$GAGSV,3,2,10,13,22,039,,21,13,090,,24,10,275,,26,39,100,,7*7B
$GAGSV,3,3,10,31,58,285,,33,20,153,,7*77
$GAGSV,3,1,10,01,61,080,,04,16,213,,05,18,321,,09,32,267,,2*7F
$GAGSV,3,2,10,13,22,039,,21,13,090,,24,10,275,,26,39,100,,2*7E
$GAGSV,3,3,10,31,58,285,,33,20,153,,2*72
$GBGSV,2,1,06,12,17,189,,24,64,294,,25,08,296,,26,63,118,,1*76
$GBGSV,2,2,06,33,09,267,,35,56,090,,1*76
$GBGSV,2,1,06,12,17,189,,24,64,294,,25,08,296,,26,63,118,,3*74
$GBGSV,2,2,06,33,09,267,,35,56,090,,3*74
$GNGLL,,,,,205624.18,V,N*5A
$GNRMC,205625.00,A,5025.4437007,N,01411.3799590,E,0.163,,241021,,,A,V*1E
$GNVTG,,T,,M,0.163,N,0.302,K,A*38
$GNGGA,205625.00,5025.4437007,N,01411.3799590,E,1,11,0.84,229.502,M,44.078,M,,*45
$GNGSA,A,3,33,31,01,24,05,09,13,,,,,,1.43,0.84,1.16,3*04
$GNGSA,A,3,35,26,24,12,,,,,,,,,1.43,0.84,1.16,4*0F
$GAGSV,3,1,10,01,61,080,49,04,16,213,26,05,18,321,43,09,32,267,47,7*77
$GAGSV,3,2,10,13,22,039,32,21,13,090,29,24,10,275,42,26,39,100,32,7*76
$GAGSV,3,3,10,31,58,285,50,33,20,153,46,7*70
$GAGSV,3,1,10,01,61,080,47,04,16,213,48,05,18,321,35,09,32,267,48,2*7A
$GAGSV,3,2,10,13,22,039,31,21,13,090,28,24,10,275,38,26,39,100,,2*7D
$GAGSV,3,3,10,31,58,285,48,33,20,153,51,2*7A
$GBGSV,2,1,06,12,17,189,40,24,64,294,47,25,08,296,46,26,63,118,46,1*71
$GBGSV,2,2,06,33,09,267,45,35,56,090,44,1*77
$GBGSV,2,1,06,12,17,189,48,24,64,294,,25,08,296,,26,63,118,,3*78
$GBGSV,2,2,06,33,09,267,,35,56,090,,3*74
$GNGLL,5025.4437007,N,01411.3799590,E,205625.00,A,A*7D
$GNRMC,205626.00,A,5025.4448588,N,01411.3809840,E,0.084,,241021,,,A,V*19
$GNVTG,,T,,M,0.084,N,0.156,K,A*33
$GNGGA,205626.00,5025.4448588,N,01411.3809840,E,1,12,0.72,226.665,M,44.078,M,,*4D
$GNGSA,A,3,33,04,31,01,24,05,09,21,13,,,,1.25,0.72,1.02,3*0F
$GNGSA,A,3,35,26,24,12,,,,,,,,,1.25,0.72,1.02,4*03
$GAGSV,3,1,10,01,61,080,48,04,16,213,25,05,18,321,42,09,32,267,46,7*75
$GAGSV,3,2,10,13,22,039,30,21,13,090,30,24,10,275,42,26,39,100,30,7*7E
$GAGSV,3,3,10,31,58,285,49,33,20,153,45,7*7B
$GAGSV,3,1,10,01,61,080,46,04,16,213,47,05,18,321,34,09,32,267,47,2*7A
$GAGSV,3,2,10,13,22,039,30,21,13,090,28,24,10,275,37,26,39,100,,2*73
$GAGSV,3,3,10,31,58,285,47,33,20,153,50,2*74
$GBGSV,2,1,06,12,17,189,40,24,64,294,47,25,08,296,46,26,63,118,47,1*70
$GBGSV,2,2,06,33,09,267,45,35,56,090,44,1*77
$GBGSV,2,1,06,12,17,189,49,24,64,294,,25,08,296,,26,63,118,,3*79
$GBGSV,2,2,06,33,09,267,,35,56,090,,3*74
$GNGLL,5025.4448588,N,01411.3809840,E,205626.00,A,A*72
$GNRMC,205627.00,A,5025.4451021,N,01411.3812770,E,0.007,,241021,,,A,V*1B
$GNVTG,,T,,M,0.007,N,0.012,K,A*39
$GNGGA,205627.00,5025.4451021,N,01411.3812770,E,1,12,0.72,223.758,M,44.078,M,,*4E
$GNGSA,A,3,33,04,31,01,24,05,09,21,13,,,,1.25,0.72,1.02,3*0F
$GNGSA,A,3,35,26,24,12,,,,,,,,,1.25,0.72,1.02,4*03
$GAGSV,3,1,10,01,61,080,48,04,16,213,25,05,18,321,42,09,32,267,46,7*75
$GAGSV,3,2,10,13,22,039,29,21,13,090,30,24,10,275,42,26,39,100,30,7*76
$GAGSV,3,3,10,31,58,285,49,33,20,153,45,7*7B
$GAGSV,3,1,10,01,61,080,45,04,16,213,46,05,18,321,33,09,32,267,46,2*7E
$GAGSV,3,2,10,13,22,039,28,21,13,090,27,24,10,275,36,26,39,100,,2*74
$GAGSV,3,3,10,31,58,285,46,33,20,153,49,2*7D
$GBGSV,2,1,06,12,17,189,40,24,64,294,47,25,08,296,46,26,63,118,47,1*70
$GBGSV,2,2,06,33,09,267,45,35,56,090,44,1*77
$GBGSV,2,1,06,12,17,189,49,24,64,294,,25,08,296,,26,63,118,,3*79
$GBGSV,2,2,06,33,09,267,,35,56,090,,3*74
$GNGLL,5025.4451021,N,01411.3812770,E,205627.00,A,A*7B
$GNRMC,205628.00,A,5025.4455438,N,01411.3813355,E,0.001,,241021,,,A,V*18
$GNVTG,,T,,M,0.001,N,0.001,K,A*3D
$GNGGA,205628.00,5025.4455438,N,01411.3813355,E,1,12,0.72,222.478,M,44.078,M,,*4B
$GNGSA,A,3,33,04,31,01,24,05,09,21,13,,,,1.25,0.72,1.02,3*0F
$GNGSA,A,3,35,26,24,12,,,,,,,,,1.25,0.72,1.02,4*03
$GAGSV,3,1,10,01,61,080,47,04,16,213,25,05,18,321,42,09,32,267,46,7*7A
$GAGSV,3,2,10,13,22,039,29,21,13,090,31,24,10,275,41,26,39,100,30,7*74
$GAGSV,3,3,10,31,58,285,49,33,20,153,45,7*7B
$GAGSV,3,1,10,01,61,080,45,04,16,213,46,05,18,321,33,09,32,267,46,2*7E
$GAGSV,3,2,10,13,22,039,28,21,13,090,26,24,10,275,36,26,39,100,,2*75
$GAGSV,3,3,10,31,58,285,46,33,20,153,49,2*7D
$GBGSV,2,1,06,12,17,189,40,24,64,294,47,25,08,296,46,26,63,118,47,1*70
$GBGSV,2,2,06,33,09,267,44,35,56,090,44,1*76
$GBGSV,2,1,06,12,17,189,49,24,64,294,,25,08,296,,26,63,118,,3*79
$GBGSV,2,2,06,33,09,267,,35,56,090,,3*74
$GNGLL,5025.4455438,N,01411.3813355,E,205628.00,A,A*7E
$GNRMC,205629.00,A,5025.4456322,N,01411.3814006,E,0.002,,241021,,,A,V*17
$GNVTG,,T,,M,0.002,N,0.004,K,A*3B
$GNGGA,205629.00,5025.4456322,N,01411.3814006,E,1,12,0.72,222.179,M,44.078,M,,*43
$GNGSA,A,3,33,04,31,01,24,05,09,21,13,,,,1.25,0.72,1.02,3*0F
$GNGSA,A,3,35,26,24,12,,,,,,,,,1.25,0.72,1.02,4*03
$GAGSV,3,1,10,01,61,080,47,04,16,213,25,05,18,321,42,09,32,267,46,7*7A
$GAGSV,3,2,10,13,22,039,29,21,13,090,30,24,10,275,42,26,39,100,30,7*76
$GAGSV,3,3,10,31,58,285,49,33,20,153,45,7*7B
$GAGSV,3,1,10,01,61,080,45,04,16,213,46,05,18,321,33,09,32,267,46,2*7E
$GAGSV,3,2,10,13,22,039,28,21,13,090,26,24,10,275,36,26,39,100,,2*75
$GAGSV,3,3,10,31,58,285,46,33,20,153,49,2*7D
$GBGSV,2,1,06,12,17,189,40,24,64,294,47,25,08,296,46,26,63,118,47,1*70
$GBGSV,2,2,06,33,09,267,45,35,56,090,44,1*77
$GBGSV,2,1,06,12,17,189,49,24,64,294,,25,08,296,,26,63,118,,3*79
$GBGSV,2,2,06,33,09,267,,35,56,090,,3*74
$GNGLL,5025.4456322,N,01411.3814006,E,205629.00,A,A*72
$GNRMC,205630.00,A,5025.4455509,N,01411.3813484,E,0.003,,241021,,,A,V*1B
$GNVTG,,T,,M,0.003,N,0.006,K,A*38
$GNGGA,205630.00,5025.4455509,N,01411.3813484,E,1,12,0.72,222.317,M,44.078,M,,*44
$GNGSA,A,3,33,04,31,01,24,05,09,21,13,,,,1.25,0.72,1.02,3*0F
$GNGSA,A,3,35,26,24,12,,,,,,,,,1.25,0.72,1.02,4*03
$GAGSV,3,1,10,01,61,080,47,04,16,213,25,05,18,321,42,09,32,267,46,7*7A
$GAGSV,3,2,10,13,22,039,29,21,13,090,30,24,10,275,42,26,39,100,30,7*76
$GAGSV,3,3,10,31,58,285,49,33,20,153,45,7*7B
$GAGSV,3,1,10,01,61,080,45,04,16,213,46,05,18,321,33,09,32,267,46,2*7E
$GAGSV,3,2,10,13,22,039,28,21,13,090,26,24,10,275,36,26,39,100,,2*75
$GAGSV,3,3,10,31,58,285,46,33,20,153,49,2*7D
$GBGSV,2,1,06,12,17,189,40,24,64,294,47,25,08,296,47,26,63,118,47,1*71
$GBGSV,2,2,06,33,09,267,45,35,56,090,44,1*77
$GBGSV,2,1,06,12,17,189,49,24,64,294,,25,08,296,,26,63,118,,3*79
$GBGSV,2,2,06,33,09,267,,35,56,090,,3*74
$GNGLL,5025.4455509,N,01411.3813484,E,205630.00,A,A*7F
$GNRMC,205631.00,A,5025.4454268,N,01411.3812026,E,0.007,,241021,,,A,V*12
$GNVTG,,T,,M,0.007,N,0.012,K,A*39
$GNGGA,205631.00,5025.4454268,N,01411.3812026,E,1,12,0.72,222.497,M,44.078,M,,*46
$GNGSA,A,3,33,04,31,01,24,05,09,21,13,,,,1.25,0.72,1.02,3*0F
$GNGSA,A,3,35,26,24,12,,,,,,,,,1.25,0.72,1.02,4*03
$GAGSV,3,1,10,01,61,080,47,04,16,213,25,05,18,321,42,09,32,267,46,7*7A
$GAGSV,3,2,10,13,22,039,29,21,13,090,30,24,10,275,42,26,39,100,30,7*76
$GAGSV,3,3,10,31,58,285,49,33,20,153,45,7*7B
$GAGSV,3,1,10,01,61,080,45,04,16,213,46,05,18,321,33,09,32,267,46,2*7E
$GAGSV,3,2,10,13,22,039,28,21,13,090,26,24,10,275,37,26,39,100,29,2*7F
$GAGSV,3,3,10,31,58,285,46,33,20,153,49,2*7D
$GBGSV,2,1,06,12,17,189,40,24,64,294,47,25,08,296,47,26,63,118,47,1*71
$GBGSV,2,2,06,33,09,267,45,35,56,090,44,1*77
$GBGSV,2,1,06,12,17,189,49,24,64,294,,25,08,296,,26,63,118,,3*79
$GBGSV,2,2,06,33,09,267,,35,56,090,,3*74
$GNGLL,5025.4454268,N,01411.3812026,E,205631.00,A,A*72
$GNRMC,205632.00,A,5025.4453493,N,01411.3811538,E,0.013,,241021,,,A,V*18
$GNVTG,,T,,M,0.013,N,0.023,K,A*3E
$GNGGA,205632.00,5025.4453493,N,01411.3811538,E,1,12,0.72,222.521,M,44.078,M,,*45
$GNGSA,A,3,33,04,31,01,24,05,09,21,13,,,,1.25,0.72,1.02,3*0F
$GNGSA,A,3,35,26,24,12,,,,,,,,,1.25,0.72,1.02,4*03
$GAGSV,3,1,10,01,61,080,47,04,16,213,25,05,18,321,42,09,32,267,46,7*7A
$GAGSV,3,2,10,13,22,039,29,21,13,090,30,24,10,275,42,26,39,100,30,7*76
$GAGSV,3,3,10,31,58,285,49,33,20,153,45,7*7B
$GAGSV,3,1,10,01,61,080,45,04,16,213,46,05,18,321,33,09,32,267,46,2*7E
$GAGSV,3,2,10,13,22,039,28,21,13,090,26,24,10,275,37,26,39,100,30,2*77
$GAGSV,3,3,10,31,58,285,46,33,20,153,49,2*7D
$GBGSV,2,1,06,12,17,189,40,24,64,294,47,25,08,296,47,26,63,118,47,1*71
$GBGSV,2,2,06,33,09,267,45,35,56,090,44,1*77
$GBGSV,2,1,06,12,17,189,49,24,64,294,,25,08,296,,26,63,118,,3*79
$GBGSV,2,2,06,33,09,267,,35,56,090,,3*74
$GNGLL,5025.4453493,N,01411.3811538,E,205632.00,A,A*7D
$GNRMC,205633.00,A,5025.4452959,N,01411.3811275,E,0.009,,241021,,,A,V*16
$GNVTG,,T,,M,0.009,N,0.016,K,A*33
$GNGGA,205633.00,5025.4452959,N,01411.3811275,E,1,12,0.72,222.506,M,44.078,M,,*45
$GNGSA,A,3,33,04,31,01,24,05,09,21,13,,,,1.25,0.72,1.02,3*0F
$GNGSA,A,3,35,26,24,12,,,,,,,,,1.25,0.72,1.02,4*03
$GAGSV,3,1,10,01,61,080,47,04,16,213,26,05,18,321,42,09,32,267,46,7*79
$GAGSV,3,2,10,13,22,039,29,21,13,090,30,24,10,275,42,26,39,100,30,7*76
$GAGSV,3,3,10,31,58,285,49,33,20,153,45,7*7B
$GAGSV,3,1,10,01,61,080,45,04,16,213,46,05,18,321,33,09,32,267,46,2*7E
$GAGSV,3,2,10,13,22,039,28,21,13,090,26,24,10,275,37,26,39,100,30,2*77
$GAGSV,3,3,10,31,58,285,46,33,20,153,49,2*7D
$GBGSV,2,1,06,12,17,189,40,24,64,294,47,25,08,296,47,26,63,118,47,1*71
$GBGSV,2,2,06,33,09,267,45,35,56,090,44,1*77
$GBGSV,2,1,06,12,17,189,49,24,64,294,,25,08,296,,26,63,118,,3*79
$GBGSV,2,2,06,33,09,267,,35,56,090,,3*74
$GNGLL,5025.4452959,N,01411.3811275,E,205633.00,A,A*78
$GNRMC,205634.00,A,5025.4452602,N,01411.3811198,E,0.006,,241021,,,A,V*1F
$GNVTG,,T,,M,0.006,N,0.011,K,A*3B
$GNGGA,205634.00,5025.4452602,N,01411.3811198,E,1,12,0.72,222.496,M,44.078,M,,*4B
$GNGSA,A,3,33,04,31,01,24,05,09,21,13,,,,1.25,0.72,1.02,3*0F
$GNGSA,A,3,35,26,24,12,,,,,,,,,1.25,0.72,1.02,4*03
$GAGSV,3,1,10,01,61,080,47,04,16,213,26,05,18,321,42,09,32,267,46,7*79
$GAGSV,3,2,10,13,22,039,29,21,13,090,30,24,10,275,42,26,39,100,30,7*76
$GAGSV,3,3,10,31,58,285,49,33,20,153,45,7*7B
$GAGSV,3,1,10,01,61,080,45,04,16,213,46,05,18,321,33,09,32,267,46,2*7E
$GAGSV,3,2,10,13,22,039,28,21,13,090,26,24,10,275,37,26,39,100,31,2*76
$GAGSV,3,3,10,31,58,285,46,33,20,153,49,2*7D
$GBGSV,2,1,06,12,17,189,40,24,64,294,47,25,08,296,47,26,63,118,47,1*71
$GBGSV,2,2,06,33,09,267,45,35,56,090,43,1*70
$GBGSV,2,1,06,12,17,189,49,24,64,294,,25,08,296,,26,63,118,,3*79
$GBGSV,2,2,06,33,09,267,,35,56,090,,3*74
$GNGLL,5025.4452602,N,01411.3811198,E,205634.00,A,A*7E
$GNRMC,205635.00,A,5025.4452357,N,01411.3811399,E,0.004,,241021,,,A,V*1A
$GNVTG,,T,,M,0.004,N,0.007,K,A*3E
$GNGGA,205635.00,5025.4452357,N,01411.3811399,E,1,12,0.72,222.449,M,44.078,M,,*4E
$GNGSA,A,3,33,04,31,01,24,05,09,21,13,,,,1.25,0.72,1.02,3*0F
$GNGSA,A,3,35,26,24,12,,,,,,,,,1.25,0.72,1.02,4*03
$GAGSV,3,1,10,01,61,080,47,04,16,213,26,05,18,321,42,09,32,267,46,7*79
$GAGSV,3,2,10,13,22,039,30,21,13,090,30,24,10,275,42,26,39,100,30,7*7E
$GAGSV,3,3,10,31,58,285,49,33,20,153,45,7*7B
$GAGSV,3,1,10,01,61,080,45,04,16,213,46,05,18,321,33,09,32,267,46,2*7E
$GAGSV,3,2,10,13,22,039,28,21,13,090,26,24,10,275,37,26,39,100,31,2*76
$GAGSV,3,3,10,31,58,285,46,33,20,153,49,2*7D
$GBGSV,2,1,06,12,17,189,40,24,64,294,47,25,08,296,47,26,63,118,47,1*71
$GBGSV,2,2,06,33,09,267,45,35,56,090,44,1*77
$GBGSV,2,1,06,12,17,189,49,24,64,294,,25,08,296,,26,63,118,,3*79
$GBGSV,2,2,06,33,09,267,,35,56,090,,3*74
$GNGLL,5025.4452357,N,01411.3811399,E,205635.00,A,A*79
$GNRMC,205636.00,A,5025.4452140,N,01411.3811564,E,0.010,,241021,,,A,V*1C
$GNVTG,,T,,M,0.010,N,0.019,K,A*34
$GNGGA,205636.00,5025.4452140,N,01411.3811564,E,1,12,0.72,222.391,M,44.078,M,,*4F
$GNGSA,A,3,33,04,31,01,24,05,09,21,13,,,,1.25,0.72,1.02,3*0F
$GNGSA,A,3,35,26,24,12,,,,,,,,,1.25,0.72,1.02,4*03
$GAGSV,3,1,10,01,61,080,47,04,16,213,26,05,18,321,42,09,32,267,46,7*79
$GAGSV,3,2,10,13,22,039,30,21,13,090,30,24,10,275,42,26,39,100,31,7*7F
$GAGSV,3,3,10,31,58,285,49,33,20,153,45,7*7B
$GAGSV,3,1,10,01,61,080,45,04,16,213,46,05,18,321,33,09,32,267,46,2*7E
$GAGSV,3,2,10,13,22,039,28,21,13,090,27,24,10,275,38,26,39,100,30,2*79
$GAGSV,3,3,10,31,58,285,46,33,20,153,49,2*7D
$GBGSV,2,1,06,12,17,189,40,24,64,294,47,25,08,296,47,26,63,118,47,1*71
$GBGSV,2,2,06,33,09,267,45,35,56,090,44,1*77
$GBGSV,2,1,06,12,17,189,49,24,64,294,,25,08,296,,26,63,118,,3*79
$GBGSV,2,2,06,33,09,267,,35,56,090,,3*74
$GNGLL,5025.4452140,N,01411.3811564,E,205636.00,A,A*7A
$GNRMC,205637.00,A,5025.4451914,N,01411.3811984,E,0.004,,241021,,,A,V*10
$GNVTG,,T,,M,0.004,N,0.007,K,A*3E
$GNGGA,205637.00,5025.4451914,N,01411.3811984,E,1,12,0.72,222.317,M,44.078,M,,*48
$GNGSA,A,3,33,04,31,01,24,05,09,21,13,,,,1.25,0.72,1.02,3*0F
$GNGSA,A,3,35,26,24,12,,,,,,,,,1.25,0.72,1.02,4*03
$GAGSV,3,1,10,01,61,080,47,04,16,213,26,05,18,321,42,09,32,267,46,7*79
$GAGSV,3,2,10,13,22,039,29,21,13,090,29,24,10,275,42,26,39,100,31,7*7F
$GAGSV,3,3,10,31,58,285,49,33,20,153,45,7*7B
$GAGSV,3,1,10,01,61,080,45,04,16,213,46,05,18,321,33,09,32,267,46,2*7E
$GAGSV,3,2,10,13,22,039,28,21,13,090,27,24,10,275,38,26,39,100,31,2*78
$GAGSV,3,3,10,31,58,285,46,33,20,153,49,2*7D
$GBGSV,2,1,06,12,17,189,40,24,64,294,47,25,08,296,47,26,63,118,47,1*71
$GBGSV,2,2,06,33,09,267,45,35,56,090,44,1*77
$GBGSV,2,1,06,12,17,189,49,24,64,294,,25,08,296,,26,63,118,,3*79
$GBGSV,2,2,06,33,09,267,,35,56,090,,3*74
$GNGLL,5025.4451914,N,01411.3811984,E,205637.00,A,A*73
$GNRMC,205638.00,A,5025.4451650,N,01411.3812240,E,0.009,,241021,,,A,V*1D
$GNVTG,,T,,M,0.009,N,0.017,K,A*32
$GNGGA,205638.00,5025.4451650,N,01411.3812240,E,1,12,0.72,222.275,M,44.078,M,,*4D
$GNGSA,A,3,33,04,31,01,24,05,09,21,13,,,,1.25,0.72,1.02,3*0F
$GNGSA,A,3,35,26,24,12,,,,,,,,,1.25,0.72,1.02,4*03
$GAGSV,3,1,10,01,61,080,47,04,16,213,26,05,18,321,42,09,32,267,46,7*79
$GAGSV,3,2,10,13,22,039,30,21,13,090,29,24,10,275,42,26,39,100,31,7*77
$GAGSV,3,3,10,31,58,285,49,33,20,153,45,7*7B
$GAGSV,3,1,10,01,61,080,45,04,16,213,46,05,18,321,33,09,32,267,46,2*7E
$GAGSV,3,2,10,13,22,039,28,21,13,090,27,24,10,275,38,26,39,100,31,2*78
$GAGSV,3,3,10,31,58,285,46,33,20,153,49,2*7D
$GBGSV,2,1,06,12,17,189,40,24,64,294,47,25,08,296,47,26,63,118,47,1*71
$GBGSV,2,2,06,33,09,267,45,35,56,090,44,1*77
$GBGSV,2,1,06,12,17,189,49,24,64,294,,25,08,296,,26,63,118,,3*79
$GBGSV,2,2,06,33,09,267,,35,56,090,,3*74
$GNGLL,5025.4451650,N,01411.3812240,E,205638.00,A,A*73
$GNRMC,205639.00,A,5025.4451405,N,01411.3812299,E,0.012,,241021,,,A,V*10
$GNVTG,,T,,M,0.012,N,0.022,K,A*3E
$GNGGA,205639.00,5025.4451405,N,01411.3812299,E,1,12,0.72,222.253,M,44.078,M,,*4E
$GNGSA,A,3,33,04,31,01,24,05,09,21,13,,,,1.25,0.72,1.02,3*0F
$GNGSA,A,3,35,26,24,12,,,,,,,,,1.25,0.72,1.02,4*03
$GAGSV,3,1,10,01,61,080,47,04,16,213,26,05,18,321,42,09,32,267,46,7*79
$GAGSV,3,2,10,13,22,039,30,21,13,090,29,24,10,275,42,26,39,100,31,7*77
$GAGSV,3,3,10,31,58,285,49,33,20,153,45,7*7B
$GAGSV,3,1,10,01,61,080,45,04,16,213,46,05,18,321,33,09,32,267,46,2*7E
$GAGSV,3,2,10,13,22,039,28,21,13,090,27,24,10,275,38,26,39,100,31,2*78
$GAGSV,3,3,10,31,58,285,46,33,20,153,49,2*7D
$GBGSV,2,1,06,12,17,189,40,24,64,294,47,25,08,296,47,26,63,118,47,1*71
$GBGSV,2,2,06,33,09,267,45,35,56,090,44,1*77
$GBGSV,2,1,06,12,17,189,49,24,64,294,,25,08,296,,26,63,118,,3*79
$GBGSV,2,2,06,33,09,267,,35,56,090,,3*74
$GNGLL,5025.4451405,N,01411.3812299,E,205639.00,A,A*74
$GNRMC,205640.00,A,5025.4451270,N,01411.3812567,E,0.023,,241021,,,A,V*1E
$GNVTG,,T,,M,0.023,N,0.043,K,A*3B
$GNGGA,205640.00,5025.4451270,N,01411.3812567,E,1,12,0.72,222.229,M,44.078,M,,*4F
$GNGSA,A,3,33,04,31,01,24,05,09,21,13,,,,1.25,0.72,1.02,3*0F
$GNGSA,A,3,35,26,24,12,,,,,,,,,1.25,0.72,1.02,4*03
$GAGSV,3,1,10,01,61,080,47,04,16,213,27,05,18,321,42,09,32,267,46,7*78
$GAGSV,3,2,10,13,22,039,30,21,13,090,29,24,10,275,42,26,39,100,31,7*77
$GAGSV,3,3,10,31,58,285,49,33,20,153,45,7*7B
$GAGSV,3,1,10,01,61,080,45,04,16,213,46,05,18,321,33,09,32,267,46,2*7E
$GAGSV,3,2,10,13,22,039,28,21,13,090,27,24,10,275,38,26,39,100,31,2*78
$GAGSV,3,3,10,31,58,285,46,33,20,153,49,2*7D
$GBGSV,2,1,06,12,17,189,40,24,64,294,47,25,08,296,47,26,63,118,47,1*71
$GBGSV,2,2,06,33,09,267,45,35,56,090,44,1*77
$GBGSV,2,1,06,12,17,189,49,24,64,294,,25,08,296,,26,63,118,,3*79
$GBGSV,2,2,06,33,09,267,,35,56,090,,3*74
$GNGLL,5025.4451270,N,01411.3812567,E,205640.00,A,A*78
$GNRMC,205641.00,A,5025.4451165,N,01411.3812757,E,0.007,,241021,,,A,V*1F
$GNVTG,,T,,M,0.007,N,0.013,K,A*38
$GNGGA,205641.00,5025.4451165,N,01411.3812757,E,1,12,0.72,222.206,M,44.078,M,,*45
$GNGSA,A,3,33,04,31,01,24,05,09,21,13,,,,1.25,0.72,1.02,3*0F
$GNGSA,A,3,35,26,24,12,,,,,,,,,1.25,0.72,1.02,4*03
$GAGSV,3,1,10,01,61,080,47,04,16,213,26,05,18,321,42,09,32,267,46,7*79
$GAGSV,3,2,10,13,22,039,30,21,13,090,28,24,11,275,42,26,39,100,31,7*77
$GAGSV,3,3,10,31,58,285,49,33,20,153,45,7*7B
$GAGSV,3,1,10,01,61,080,45,04,16,213,46,05,18,321,33,09,32,267,46,2*7E
$GAGSV,3,2,10,13,22,039,28,21,13,090,27,24,11,275,38,26,39,100,31,2*79
$GAGSV,3,3,10,31,58,285,46,33,20,153,49,2*7D
$GBGSV,2,1,06,12,17,189,40,24,64,294,47,25,08,296,47,26,63,118,47,1*71
$GBGSV,2,2,06,33,09,267,45,35,56,090,44,1*77
$GBGSV,2,1,06,12,17,189,49,24,64,294,,25,08,296,,26,63,118,,3*79
$GBGSV,2,2,06,33,09,267,,35,56,090,,3*74
$GNGLL,5025.4451165,N,01411.3812757,E,205641.00,A,A*7F
$GNRMC,205642.00,A,5025.4451223,N,01411.3812997,E,0.018,,241021,,,A,V*11
$GNVTG,,T,,M,0.018,N,0.033,K,A*34
$GNGGA,205642.00,5025.4451223,N,01411.3812997,E,1,12,0.72,222.136,M,44.078,M,,*45
$GNGSA,A,3,33,04,31,01,24,05,09,21,13,,,,1.25,0.72,1.02,3*0F
$GNGSA,A,3,35,26,24,12,,,,,,,,,1.25,0.72,1.02,4*03
$GAGSV,3,1,10,01,61,080,47,04,16,213,26,05,18,321,42,09,32,267,46,7*79
$GAGSV,3,2,10,13,22,039,30,21,13,090,28,24,11,275,42,26,39,100,31,7*77
$GAGSV,3,3,10,31,58,285,49,33,20,153,45,7*7B
$GAGSV,3,1,10,01,61,080,45,04,16,213,46,05,18,321,33,09,32,267,46,2*7E
$GAGSV,3,2,10,13,22,039,27,21,13,090,27,24,11,275,39,26,39,100,31,2*77
$GAGSV,3,3,10,31,58,285,46,33,20,153,49,2*7D
$GBGSV,2,1,06,12,17,189,40,24,64,294,47,25,08,296,47,26,63,118,47,1*71
$GBGSV,2,2,06,33,09,267,45,35,56,090,43,1*70
$GBGSV,2,1,06,12,17,189,49,24,64,294,,25,08,296,,26,63,118,,3*79
$GBGSV,2,2,06,33,09,267,,35,56,090,,3*74
$GNGLL,5025.4451223,N,01411.3812997,E,205642.00,A,A*7F
$GNRMC,205643.00,A,5025.4451332,N,01411.3813213,E,0.010,,241021,,,A,V*1F
$GNVTG,,T,,M,0.010,N,0.019,K,A*34
$GNGGA,205643.00,5025.4451332,N,01411.3813213,E,1,12,0.72,222.077,M,44.078,M,,*47
$GNGSA,A,3,33,04,31,01,24,05,09,21,13,,,,1.25,0.72,1.02,3*0F
$GNGSA,A,3,35,26,24,12,,,,,,,,,1.25,0.72,1.02,4*03
$GAGSV,3,1,10,01,61,080,47,04,16,213,26,05,18,321,42,09,32,267,46,7*79
$GAGSV,3,2,10,13,22,039,30,21,13,090,28,24,11,275,42,26,39,100,31,7*77
$GAGSV,3,3,10,31,58,285,49,33,20,153,45,7*7B
$GAGSV,3,1,10,01,61,080,45,04,16,213,46,05,18,321,33,09,32,267,46,2*7E
$GAGSV,3,2,10,13,22,039,27,21,13,090,27,24,11,275,39,26,39,100,31,2*77
$GAGSV,3,3,10,31,58,285,46,33,20,153,49,2*7D
$GBGSV,2,1,06,12,17,189,40,24,64,294,47,25,08,296,47,26,63,118,47,1*71
$GBGSV,2,2,06,33,09,267,45,35,56,090,43,1*70
$GBGSV,2,1,06,12,17,189,49,24,64,294,,25,08,296,,26,63,118,,3*79
$GBGSV,2,2,06,33,09,267,,35,56,090,,3*74
$GNGLL,5025.4451332,N,01411.3813213,E,205643.00,A,A*79
$GNRMC,205644.00,A,5025.4451362,N,01411.3813372,E,0.003,,241021,,,A,V*19
$GNVTG,,T,,M,0.003,N,0.006,K,A*38
$GNGGA,205644.00,5025.4451362,N,01411.3813372,E,1,12,0.72,222.030,M,44.078,M,,*40
$GNGSA,A,3,33,04,31,01,24,05,09,21,13,,,,1.25,0.72,1.02,3*0F
$GNGSA,A,3,35,26,24,12,,,,,,,,,1.25,0.72,1.02,4*03
$GAGSV,3,1,10,01,61,080,47,04,16,213,26,05,18,321,42,09,32,267,46,7*79
$GAGSV,3,2,10,13,22,039,30,21,13,090,28,24,11,275,43,26,39,100,32,7*75
$GAGSV,3,3,10,31,58,285,49,33,20,153,45,7*7B
$GAGSV,3,1,10,01,61,080,45,04,16,213,46,05,18,321,33,09,32,267,46,2*7E
$GAGSV,3,2,10,13,22,039,27,21,13,090,27,24,11,275,39,26,39,100,31,2*77
$GAGSV,3,3,10,31,58,285,46,33,20,153,49,2*7D
$GBGSV,2,1,06,12,17,189,40,24,64,294,47,25,08,296,47,26,63,118,47,1*71
$GBGSV,2,2,06,33,09,267,45,35,56,090,43,1*70
$GBGSV,2,1,06,12,17,189,49,24,64,294,,25,08,296,,26,63,118,,3*79
$GBGSV,2,2,06,33,09,267,,35,56,090,,3*74
$GNGLL,5025.4451362,N,01411.3813372,E,205644.00,A,A*7D
$GNRMC,205645.00,A,5025.4451748,N,01411.3813968,E,0.005,,241021,,,A,V*13
$GNVTG,,T,,M,0.005,N,0.009,K,A*31
$GNGGA,205645.00,5025.4451748,N,01411.3813968,E,1,12,0.72,221.889,M,44.078,M,,*45
$GNGSA,A,3,33,04,31,01,24,05,09,21,13,,,,1.25,0.72,1.02,3*0F
$GNGSA,A,3,35,26,24,12,,,,,,,,,1.25,0.72,1.02,4*03
$GAGSV,3,1,10,01,61,080,47,04,16,213,26,05,18,321,42,09,32,267,46,7*79
$GAGSV,3,2,10,13,22,039,30,21,13,090,28,24,11,275,43,26,39,100,32,7*75
$GAGSV,3,3,10,31,58,285,49,33,20,153,45,7*7B
$GAGSV,3,1,10,01,61,080,45,04,16,213,46,05,18,321,33,09,32,267,46,2*7E
$GAGSV,3,2,10,13,22,039,26,21,13,090,27,24,11,275,39,26,39,100,31,2*76
$GAGSV,3,3,10,31,58,285,46,33,20,153,49,2*7D
$GBGSV,2,1,06,12,17,189,40,24,64,294,47,25,08,296,47,26,63,118,47,1*71
$GBGSV,2,2,06,33,09,267,45,35,56,090,43,1*70
$GBGSV,2,1,06,12,17,189,49,24,64,294,,25,08,296,,26,63,118,,3*79
$GBGSV,2,2,06,33,09,267,,35,56,090,,3*74
$GNGLL,5025.4451748,N,01411.3813968,E,205645.00,A,A*71
$GNRMC,205646.00,A,5025.4452079,N,01411.3814540,E,0.010,,241021,,,A,V*13
$GNVTG,,T,,M,0.010,N,0.019,K,A*34
$GNGGA,205646.00,5025.4452079,N,01411.3814540,E,1,12,0.72,221.742,M,44.078,M,,*49
$GNGSA,A,3,33,04,31,01,24,05,09,21,13,,,,1.25,0.72,1.02,3*0F
$GNGSA,A,3,35,26,24,12,,,,,,,,,1.25,0.72,1.02,4*03
$GAGSV,3,1,10,01,61,080,47,04,16,213,26,05,18,321,42,09,32,267,46,7*79
$GAGSV,3,2,10,13,22,039,30,21,13,090,28,24,11,275,43,26,39,100,32,7*75
$GAGSV,3,3,10,31,58,285,49,33,20,153,45,7*7B
$GAGSV,3,1,10,01,61,080,45,04,16,213,46,05,18,321,33,09,32,267,46,2*7E
$GAGSV,3,2,10,13,22,039,26,21,13,090,27,24,11,275,39,26,39,100,31,2*76
$GAGSV,3,3,10,31,58,285,46,33,20,153,49,2*7D
$GBGSV,2,1,06,12,17,189,40,24,64,294,47,25,08,296,47,26,63,118,47,1*71
$GBGSV,2,2,06,33,09,267,46,35,56,090,43,1*73
$GBGSV,2,1,06,12,17,189,49,24,64,294,,25,08,296,,26,63,118,,3*79
$GBGSV,2,2,06,33,09,267,,35,56,090,,3*74
$GNGLL,5025.4452079,N,01411.3814540,E,205646.00,A,A*75
$GNRMC,205647.00,A,5025.4452414,N,01411.3814995,E,0.008,,241021,,,A,V*10
$GNVTG,,T,,M,0.008,N,0.015,K,A*31
$GNGGA,205647.00,5025.4452414,N,01411.3814995,E,1,12,0.72,221.599,M,44.078,M,,*47
$GNGSA,A,3,33,04,31,01,24,05,09,21,13,,,,1.25,0.72,1.02,3*0F
$GNGSA,A,3,35,26,24,12,,,,,,,,,1.25,0.72,1.02,4*03
$GAGSV,3,1,10,01,61,080,47,04,16,213,26,05,18,321,42,09,32,267,46,7*79
$GAGSV,3,2,10,13,22,039,30,21,13,090,28,24,11,275,43,26,39,100,32,7*75
$GAGSV,3,3,10,31,58,285,49,33,20,153,45,7*7B
$GAGSV,3,1,10,01,61,080,45,04,16,213,46,05,18,321,33,09,32,267,46,2*7E
$GAGSV,3,2,10,13,22,039,26,21,13,090,27,24,11,275,39,26,39,100,31,2*76
$GAGSV,3,3,10,31,58,285,46,33,20,153,49,2*7D
$GBGSV,2,1,06,12,17,189,40,24,64,294,47,25,08,296,47,26,63,118,47,1*71
$GBGSV,2,2,06,33,09,267,45,35,56,090,43,1*70
$GBGSV,2,1,06,12,17,189,49,24,64,294,,25,08,296,,26,63,118,,3*79
$GBGSV,2,2,06,33,09,267,,35,56,090,,3*74
$GNGLL,5025.4452414,N,01411.3814995,E,205647.00,A,A*7F
$GNRMC,205648.00,A,5025.4452818,N,01411.3815522,E,0.017,,241021,,,A,V*10
$GNVTG,,T,,M,0.017,N,0.032,K,A*3A
$GNGGA,205648.00,5025.4452818,N,01411.3815522,E,1,12,0.71,221.458,M,44.078,M,,*46
$GNGSA,A,3,33,04,31,01,24,05,09,21,26,13,,,1.24,0.71,1.02,3*09
$GNGSA,A,3,35,26,24,12,,,,,,,,,1.24,0.71,1.02,4*01
$GAGSV,3,1,10,01,61,080,47,04,16,213,26,05,18,321,42,09,32,267,46,7*79
$GAGSV,3,2,10,13,22,039,30,21,13,090,28,24,11,275,43,26,39,100,32,7*75
$GAGSV,3,3,10,31,58,285,49,33,20,153,45,7*7B
$GAGSV,3,1,10,01,61,080,44,04,16,213,46,05,18,321,33,09,32,267,46,2*7F
$GAGSV,3,2,10,13,22,039,26,21,13,090,27,24,11,275,39,26,39,100,32,2*75
$GAGSV,3,3,10,31,58,285,46,33,20,153,49,2*7D
$GBGSV,2,1,06,12,17,189,40,24,64,294,47,25,08,296,47,26,63,118,47,1*71
$GBGSV,2,2,06,33,09,267,46,35,56,090,43,1*73
$GBGSV,2,1,06,12,17,189,49,24,64,294,,25,08,296,,26,63,118,,3*79
$GBGSV,2,2,06,33,09,267,,35,56,090,,3*74
$GNGLL,5025.4452818,N,01411.3815522,E,205648.00,A,A*71
$GNRMC,205649.00,A,5025.4453182,N,01411.3816097,E,0.007,,241021,,,A,V*13
$GNVTG,,T,,M,0.007,N,0.013,K,A*38
$GNGGA,205649.00,5025.4453182,N,01411.3816097,E,1,12,0.71,221.327,M,44.078,M,,*4B
$GNGSA,A,3,33,04,31,01,24,05,09,21,26,13,,,1.24,0.71,1.02,3*09
$GNGSA,A,3,35,26,24,12,,,,,,,,,1.24,0.71,1.02,4*01
$GAGSV,3,1,10,01,61,080,47,04,16,213,26,05,18,321,42,09,32,267,46,7*79
$GAGSV,3,2,10,13,22,039,30,21,13,090,28,24,11,275,43,26,39,100,32,7*75
$GAGSV,3,3,10,31,58,285,49,33,20,153,45,7*7B
$GAGSV,3,1,10,01,61,080,44,04,16,213,46,05,18,321,33,09,32,267,46,2*7F
$GAGSV,3,2,10,13,22,039,26,21,13,090,27,24,11,275,40,26,39,100,32,2*7B
$GAGSV,3,3,10,31,58,285,46,33,20,153,49,2*7D
$GBGSV,2,1,06,12,17,189,40,24,64,294,47,25,08,296,47,26,63,118,47,1*71
$GBGSV,2,2,06,33,09,267,46,35,56,090,43,1*73
$GBGSV,2,1,06,12,17,189,49,24,64,294,,25,08,296,,26,63,118,,3*79
$GBGSV,2,2,06,33,09,267,,35,56,090,,3*74
$GNGLL,5025.4453182,N,01411.3816097,E,205649.00,A,A*73
$GNRMC,205650.00,A,5025.4453484,N,01411.3816493,E,0.007,,241021,,,A,V*18
$GNVTG,,T,,M,0.007,N,0.013,K,A*38
$GNGGA,205650.00,5025.4453484,N,01411.3816493,E,1,12,0.71,221.209,M,44.078,M,,*4D
$GNGSA,A,3,33,04,31,01,24,05,09,21,26,13,,,1.24,0.71,1.02,3*09
$GNGSA,A,3,35,26,24,12,,,,,,,,,1.24,0.71,1.02,4*01
$GAGSV,3,1,10,01,61,080,47,04,16,213,26,05,18,321,42,09,32,267,45,7*7A
$GAGSV,3,2,10,13,22,039,30,21,13,090,27,24,11,275,43,26,39,100,32,7*7A
$GAGSV,3,3,10,31,58,285,49,33,20,153,45,7*7B
$GAGSV,3,1,10,01,61,080,45,04,16,213,46,05,18,321,33,09,32,267,46,2*7E
$GAGSV,3,2,10,13,22,039,26,21,13,090,27,24,11,275,40,26,39,100,32,2*7B
$GAGSV,3,3,10,31,58,285,46,33,20,153,49,2*7D
$GBGSV,2,1,06,12,17,189,40,24,64,294,47,25,08,296,47,26,63,118,47,1*71
$GBGSV,2,2,06,33,09,267,46,35,56,090,43,1*73
$GBGSV,2,1,06,12,17,189,49,24,64,294,,25,08,296,,26,63,118,,3*79
$GBGSV,2,2,06,33,09,267,,35,56,090,,3*74
$GNGLL,5025.4453484,N,01411.3816493,E,205650.00,A,A*78
$GNRMC,205651.00,A,5025.4453811,N,01411.3817032,E,0.016,,241021,,,A,V*17
$GNVTG,,T,,M,0.016,N,0.029,K,A*31
$GNGGA,205651.00,5025.4453811,N,01411.3817032,E,1,12,0.71,221.095,M,44.078,M,,*45
$GNGSA,A,3,33,04,31,01,24,05,09,21,26,13,,,1.24,0.71,1.02,3*09
$GNGSA,A,3,35,26,24,12,,,,,,,,,1.24,0.71,1.02,4*01
$GAGSV,3,1,10,01,61,080,47,04,16,213,26,05,18,321,42,09,32,267,45,7*7A
$GAGSV,3,2,10,13,22,039,30,21,13,090,27,24,11,275,44,26,39,100,33,7*7C
$GAGSV,3,3,10,31,58,285,49,33,20,153,45,7*7B
$GAGSV,3,1,10,01,61,080,44,04,16,213,46,05,18,321,32,09,32,267,46,2*7E
$GAGSV,3,2,10,13,22,039,26,21,13,090,27,24,11,275,40,26,39,100,32,2*7B
$GAGSV,3,3,10,31,58,285,46,33,20,153,49,2*7D
$GBGSV,2,1,06,12,17,189,40,24,64,294,47,25,08,296,47,26,63,118,47,1*71
$GBGSV,2,2,06,33,09,267,46,35,56,090,43,1*73
$GBGSV,2,1,06,12,17,189,49,24,64,294,,25,08,296,,26,63,118,,3*79
$GBGSV,2,2,06,33,09,267,,35,56,090,,3*74
$GNGLL,5025.4453811,N,01411.3817032,E,205651.00,A,A*77
$GNRMC,205652.00,A,5025.4454283,N,01411.3817759,E,0.003,,241021,,,A,V*1C
$GNVTG,,T,,M,0.003,N,0.006,K,A*38
$GNGGA,205652.00,5025.4454283,N,01411.3817759,E,1,12,0.71,220.959,M,44.078,M,,*42
$GNGSA,A,3,33,04,31,01,24,05,09,21,26,13,,,1.24,0.71,1.02,3*09
$GNGSA,A,3,35,26,24,12,,,,,,,,,1.24,0.71,1.02,4*01
$GAGSV,3,1,10,01,61,080,48,04,16,213,26,05,18,321,42,09,32,267,45,7*75
$GAGSV,3,2,10,13,22,039,30,21,13,090,27,24,11,275,44,26,39,100,33,7*7C
$GAGSV,3,3,10,31,58,285,49,33,20,153,45,7*7B
$GAGSV,3,1,10,01,61,080,44,04,16,213,46,05,18,321,32,09,32,267,46,2*7E
$GAGSV,3,2,10,13,22,039,26,21,13,090,28,24,11,275,40,26,39,100,32,2*74
$GAGSV,3,3,10,31,58,285,46,33,20,153,49,2*7D
$GBGSV,2,1,06,12,17,189,40,24,64,294,47,25,08,296,47,26,63,118,47,1*71
$GBGSV,2,2,06,33,09,267,46,35,56,090,43,1*73
$GBGSV,2,1,06,12,17,189,49,24,64,294,,25,08,296,,26,63,118,,3*79
$GBGSV,2,2,06,33,09,267,,35,56,090,,3*74
$GNGLL,5025.4454283,N,01411.3817759,E,205652.00,A,A*78
$GNRMC,205653.00,A,5025.4454711,N,01411.3818418,E,0.004,,241021,,,A,V*1D
$GNVTG,,T,,M,0.004,N,0.007,K,A*3E
$GNGGA,205653.00,5025.4454711,N,01411.3818418,E,1,12,0.71,220.844,M,44.078,M,,*49
$GNGSA,A,3,33,04,31,01,24,05,09,21,26,13,,,1.24,0.71,1.02,3*09
$GNGSA,A,3,35,26,24,12,,,,,,,,,1.24,0.71,1.02,4*01
$GAGSV,3,1,10,01,61,080,48,04,16,213,25,05,18,321,42,09,32,267,45,7*76
$GAGSV,3,2,10,13,22,039,30,21,13,090,27,24,11,275,44,26,39,100,33,7*7C
$GAGSV,3,3,10,31,58,285,49,33,20,153,45,7*7B
$GAGSV,3,1,10,01,61,080,45,04,16,213,46,05,18,321,32,09,32,267,46,2*7F
$GAGSV,3,2,10,13,22,039,26,21,13,090,28,24,11,275,40,26,39,100,32,2*74
$GAGSV,3,3,10,31,58,285,46,33,20,153,49,2*7D
$GBGSV,2,1,06,12,17,189,40,24,64,294,47,25,08,296,47,26,63,118,47,1*71
$GBGSV,2,2,06,33,09,267,46,35,56,090,43,1*73
$GBGSV,2,1,06,12,17,189,49,24,64,294,,25,08,296,,26,63,118,,3*79
$GBGSV,2,2,06,33,09,267,,35,56,090,,3*74
$GNGLL,5025.4454711,N,01411.3818418,E,205653.00,A,A*7E
$GNRMC,205654.00,A,5025.4453845,N,01411.3818443,E,0.053,,241021,,,D,V*1A
$GNVTG,,T,,M,0.053,N,0.098,K,D*3F
$GNGGA,205654.00,5025.4453845,N,01411.3818443,E,2,12,0.71,220.782,M,44.078,M,1.0,0084*6C
$GNGSA,A,3,33,04,31,01,24,05,09,21,26,13,,,1.24,0.71,1.02,3*09
$GNGSA,A,3,35,26,24,12,,,,,,,,,1.24,0.71,1.02,4*01
$GAGSV,3,1,10,01,61,080,47,04,16,213,26,05,18,321,42,09,32,267,45,7*7A
$GAGSV,3,2,10,13,22,039,30,21,13,090,27,24,11,275,44,26,39,100,33,7*7C
$GAGSV,3,3,10,31,58,285,48,33,20,153,45,7*7A
$GAGSV,3,1,10,01,61,080,44,04,16,213,46,05,18,321,32,09,32,267,46,2*7E
$GAGSV,3,2,10,13,22,039,26,21,13,090,28,24,11,275,40,26,39,100,32,2*74
$GAGSV,3,3,10,31,58,285,46,33,20,153,49,2*7D
$GBGSV,2,1,06,12,17,189,40,24,64,294,47,25,08,296,47,26,63,118,47,1*71
$GBGSV,2,2,06,33,09,267,46,35,56,090,44,1*74
$GBGSV,2,1,06,12,17,189,49,24,64,294,,25,08,296,,26,63,118,,3*79
$GBGSV,2,2,06,33,09,267,,35,56,090,,3*74
$GNGLL,5025.4453845,N,01411.3818443,E,205654.00,A,D*7B
$GNRMC,205655.00,A,5025.4453859,N,01411.3818244,E,0.011,,241021,,,F,V*13
$GNVTG,,T,,M,0.011,N,0.021,K,D*3B
$GNGGA,205655.00,5025.4453859,N,01411.3818244,E,5,12,0.71,220.717,M,44.078,M,1.0,0084*6A
$GNGSA,A,3,33,04,31,01,24,05,09,21,26,13,,,1.24,0.71,1.02,3*09
$GNGSA,A,3,35,26,24,12,,,,,,,,,1.24,0.71,1.02,4*01
$GAGSV,3,1,10,01,61,080,47,04,16,213,26,05,18,321,41,09,32,267,45,7*79
$GAGSV,3,2,10,13,22,039,30,21,13,090,27,24,11,275,44,26,39,100,33,7*7C
$GAGSV,3,3,10,31,58,285,48,33,20,153,45,7*7A
$GAGSV,3,1,10,01,61,080,44,04,16,213,46,05,18,321,32,09,32,267,46,2*7E
$GAGSV,3,2,10,13,22,039,26,21,13,090,28,24,11,275,40,26,39,100,32,2*74
$GAGSV,3,3,10,31,58,285,46,33,20,153,49,2*7D
$GBGSV,2,1,06,12,17,189,40,24,64,294,47,25,08,296,47,26,63,118,47,1*71
$GBGSV,2,2,06,33,09,267,46,35,56,090,43,1*73
$GBGSV,2,1,06,12,17,189,49,24,64,294,,25,08,296,,26,63,118,,3*79
$GBGSV,2,2,06,33,09,267,,35,56,090,,3*74
$GNGLL,5025.4453859,N,01411.3818244,E,205655.00,A,D*76
$GNRMC,205656.00,A,5025.4453711,N,01411.3818136,E,0.018,,241021,,,F,V*1C
$GNVTG,,T,,M,0.018,N,0.033,K,D*31
$GNGGA,205656.00,5025.4453711,N,01411.3818136,E,5,12,0.71,220.640,M,44.078,M,1.0,0084*6F
$GNGSA,A,3,33,04,31,01,24,05,09,21,26,13,,,1.24,0.71,1.02,3*09
$GNGSA,A,3,35,26,24,12,,,,,,,,,1.24,0.71,1.02,4*01
$GAGSV,3,1,10,01,61,080,47,04,16,213,26,05,18,321,41,09,32,267,45,7*79
$GAGSV,3,2,10,13,22,039,30,21,13,090,26,24,11,275,44,26,39,100,34,7*7A
$GAGSV,3,3,10,31,58,285,48,33,20,153,45,7*7A
$GAGSV,3,1,10,01,61,080,44,04,16,213,46,05,18,321,32,09,32,267,46,2*7E
$GAGSV,3,2,10,13,22,039,26,21,13,090,28,24,11,275,40,26,39,100,32,2*74
$GAGSV,3,3,10,31,58,285,46,33,20,153,49,2*7D
$GBGSV,2,1,06,12,17,189,40,24,64,294,47,25,08,296,47,26,63,118,47,1*71
$GBGSV,2,2,06,33,09,267,46,35,56,090,43,1*73
$GBGSV,2,1,06,12,17,189,49,24,64,294,,25,08,296,,26,63,118,,3*79
$GBGSV,2,2,06,33,09,267,,35,56,090,,3*74
$GNGLL,5025.4453711,N,01411.3818136,E,205656.00,A,D*70
$GNRMC,205657.00,A,5025.4453534,N,01411.3818063,E,0.012,,241021,,,F,V*13
$GNVTG,,T,,M,0.012,N,0.023,K,D*3A
$GNGGA,205657.00,5025.4453534,N,01411.3818063,E,5,12,0.71,220.557,M,44.078,M,1.0,0084*6F
$GNGSA,A,3,33,04,31,01,24,05,09,21,26,13,,,1.24,0.71,1.02,3*09
$GNGSA,A,3,35,26,24,12,,,,,,,,,1.24,0.71,1.02,4*01
$GAGSV,3,1,10,01,61,080,47,04,16,213,26,05,18,321,41,09,32,267,45,7*79
$GAGSV,3,2,10,13,22,039,30,21,13,090,26,24,11,275,44,26,39,100,34,7*7A
$GAGSV,3,3,10,31,58,285,48,33,20,153,45,7*7A
$GAGSV,3,1,10,01,61,080,44,04,16,213,46,05,18,321,32,09,32,267,46,2*7E
$GAGSV,3,2,10,13,22,039,26,21,13,090,28,24,11,275,40,26,39,100,32,2*74
$GAGSV,3,3,10,31,58,285,46,33,20,153,49,2*7D
$GBGSV,2,1,06,12,17,189,40,24,64,294,47,25,08,296,46,26,63,118,47,1*70
$GBGSV,2,2,06,33,09,267,46,35,56,090,43,1*73
$GBGSV,2,1,06,12,17,189,49,24,64,294,,25,08,296,,26,63,118,,3*79
$GBGSV,2,2,06,33,09,267,,35,56,090,,3*74
$GNGLL,5025.4453534,N,01411.3818063,E,205657.00,A,D*75
$GNRMC,205658.00,A,5025.4453404,N,01411.3818063,E,0.007,,241021,,,F,V*1A
$GNVTG,,T,,M,0.007,N,0.013,K,D*3D
$GNGGA,205658.00,5025.4453404,N,01411.3818063,E,5,12,0.71,220.439,M,44.078,M,1.0,0084*6B
$GNGSA,A,3,33,04,31,01,24,05,09,21,26,13,,,1.24,0.71,1.02,3*09
$GNGSA,A,3,35,26,24,12,,,,,,,,,1.24,0.71,1.02,4*01
$GAGSV,3,1,10,01,61,080,47,04,16,213,26,05,18,321,41,09,32,267,46,7*7A
$GAGSV,3,2,10,13,22,039,29,21,13,090,26,24,11,275,44,26,39,100,34,7*72
$GAGSV,3,3,10,31,58,285,48,33,20,153,45,7*7A
$GAGSV,3,1,10,01,61,080,44,04,16,213,46,05,18,321,33,09,32,267,46,2*7F
$GAGSV,3,2,10,13,22,039,26,21,13,090,28,24,11,275,40,26,39,100,33,2*75
$GAGSV,3,3,10,31,58,285,46,33,20,153,49,2*7D
$GBGSV,2,1,06,12,17,189,40,24,64,294,47,25,08,296,46,26,63,118,47,1*70
$GBGSV,2,2,06,33,09,267,46,35,56,090,44,1*74
$GBGSV,2,1,06,12,17,189,49,24,64,294,,25,08,296,,26,63,118,,3*79
$GBGSV,2,2,06,33,09,267,,35,56,090,,3*74
$GNGLL,5025.4453404,N,01411.3818063,E,205658.00,A,D*78
$GNRMC,205659.00,A,5025.4453256,N,01411.3818037,E,0.012,,241021,,,F,V*1F
$GNVTG,,T,,M,0.012,N,0.022,K,D*3B
$GNGGA,205659.00,5025.4453256,N,01411.3818037,E,5,12,0.71,220.327,M,44.078,M,1.0,0084*62
$GNGSA,A,3,33,04,31,01,24,05,09,21,26,13,,,1.24,0.71,1.02,3*09
$GNGSA,A,3,35,26,24,12,,,,,,,,,1.24,0.71,1.02,4*01
$GAGSV,3,1,10,01,61,080,47,04,16,213,26,05,18,321,41,09,32,267,46,7*7A
$GAGSV,3,2,10,13,22,039,29,21,13,090,27,24,11,275,44,26,39,100,33,7*74
$GAGSV,3,3,10,31,58,285,48,33,20,153,45,7*7A
$GAGSV,3,1,10,01,61,080,44,04,16,213,46,05,18,321,33,09,32,267,46,2*7F
$GAGSV,3,2,10,13,22,039,26,21,13,090,28,24,11,275,40,26,39,100,33,2*75
$GAGSV,3,3,10,31,58,285,46,33,20,153,49,2*7D
$GBGSV,2,1,06,12,17,189,40,24,64,294,47,25,08,296,46,26,63,118,47,1*70
$GBGSV,2,2,06,33,09,267,46,35,56,090,44,1*74
$GBGSV,2,1,06,12,17,189,49,24,64,294,,25,08,296,,26,63,118,,3*79
$GBGSV,2,2,06,33,09,267,,35,56,090,,3*74
$GNGLL,5025.4453256,N,01411.3818037,E,205659.00,A,D*79
$GNRMC,205700.00,A,5025.4453135,N,01411.3818036,E,0.005,,241021,,,F,V*13
$GNVTG,,T,,M,0.005,N,0.010,K,D*3C
$GNGGA,205700.00,5025.4453135,N,01411.3818036,E,5,12,0.71,220.187,M,44.078,M,1.0,0084*60
$GNGSA,A,3,33,04,31,01,24,05,09,21,26,13,,,1.24,0.71,1.02,3*09
$GNGSA,A,3,35,26,24,12,,,,,,,,,1.24,0.71,1.02,4*01
$GAGSV,3,1,10,01,61,080,47,04,16,213,26,05,18,321,41,09,32,267,46,7*7A
$GAGSV,3,2,10,13,22,039,29,21,13,090,27,24,11,275,44,26,39,100,33,7*74
$GAGSV,3,3,10,31,58,285,48,33,20,153,45,7*7A
$GAGSV,3,1,10,01,61,080,44,04,16,213,45,05,18,321,32,09,32,267,46,2*7D
$GAGSV,3,2,10,13,22,039,26,21,13,090,28,24,11,275,40,26,39,100,33,2*75
$GAGSV,3,3,10,31,58,285,46,33,20,153,49,2*7D
$GBGSV,2,1,06,12,17,189,40,24,64,294,47,25,08,296,46,26,63,118,47,1*70
$GBGSV,2,2,06,33,09,267,46,35,56,090,44,1*74
$GBGSV,2,1,06,12,17,189,49,24,64,294,,25,08,296,,26,63,118,,3*79
$GBGSV,2,2,06,33,09,267,,35,56,090,,3*74
$GNGLL,5025.4453135,N,01411.3818036,E,205700.00,A,D*73
$GNRMC,205701.00,A,5025.4453099,N,01411.3818107,E,0.002,,241021,,,F,V*11
$GNVTG,,T,,M,0.002,N,0.005,K,D*3F
$GNGGA,205701.00,5025.4453099,N,01411.3818107,E,5,12,0.71,220.005,M,44.078,M,1.0,0084*6E
$GNGSA,A,3,33,04,31,01,24,05,09,21,26,13,,,1.24,0.71,1.02,3*09
$GNGSA,A,3,35,26,24,12,,,,,,,,,1.24,0.71,1.02,4*01
$GAGSV,3,1,10,01,61,080,47,04,16,213,26,05,18,321,41,09,32,267,46,7*7A
$GAGSV,3,2,10,13,22,039,30,21,13,090,27,24,11,275,44,26,39,100,33,7*7C
$GAGSV,3,3,10,31,58,285,48,33,20,153,45,7*7A
$GAGSV,3,1,10,01,61,080,44,04,16,213,45,05,18,321,32,09,32,267,46,2*7D
$GAGSV,3,2,10,13,22,039,26,21,13,090,28,24,11,275,41,26,39,100,33,2*74
$GAGSV,3,3,10,31,58,285,46,33,20,153,48,2*7C
$GBGSV,2,1,06,12,17,189,40,24,64,294,47,25,08,296,46,26,63,118,47,1*70
$GBGSV,2,2,06,33,09,267,46,35,56,090,44,1*74
$GBGSV,2,1,06,12,17,189,49,24,64,294,,25,08,296,,26,63,118,,3*79
$GBGSV,2,2,06,33,09,267,,35,56,090,,3*74
$GNGLL,5025.4453099,N,01411.3818107,E,205701.00,A,D*76
$GNRMC,205702.00,A,5025.4453042,N,01411.3818154,E,0.009,,241021,,,F,V*19
$GNVTG,,T,,M,0.009,N,0.017,K,D*37
$GNGGA,205702.00,5025.4453042,N,01411.3818154,E,5,12,0.71,219.865,M,44.078,M,1.0,0084*69
$GNGSA,A,3,33,04,31,01,24,05,09,21,26,13,,,1.24,0.71,1.02,3*09
$GNGSA,A,3,35,26,24,12,,,,,,,,,1.24,0.71,1.02,4*01
$GAGSV,3,1,10,01,61,080,47,04,16,213,26,05,18,321,41,09,32,267,45,7*79
$GAGSV,3,2,10,13,22,039,30,21,13,090,27,24,11,275,44,26,39,100,33,7*7C
$GAGSV,3,3,10,31,58,285,48,33,20,153,45,7*7A
$GAGSV,3,1,10,01,61,080,44,04,16,213,45,05,18,321,32,09,32,267,46,2*7D
$GAGSV,3,2,10,13,22,039,26,21,13,090,28,24,11,275,41,26,39,100,33,2*74
$GAGSV,3,3,10,31,58,285,46,33,20,153,48,2*7C
$GBGSV,2,1,06,12,17,189,39,24,64,294,47,25,08,296,46,26,63,118,47,1*7E
$GBGSV,2,2,06,33,09,267,46,35,56,090,44,1*74
$GBGSV,2,1,06,12,17,189,49,24,64,294,,25,08,296,,26,63,118,,3*79
$GBGSV,2,2,06,33,09,267,,35,56,090,,3*74
$GNGLL,5025.4453042,N,01411.3818154,E,205702.00,A,D*75
$GNRMC,205703.00,A,5025.4453089,N,01411.3818310,E,0.009,,241021,,,F,V*1D
$GNVTG,,T,,M,0.009,N,0.017,K,D*37
$GNGGA,205703.00,5025.4453089,N,01411.3818310,E,5,12,0.71,219.652,M,44.078,M,1.0,0084*67
$GNGSA,A,3,33,04,31,01,24,05,09,21,26,13,,,1.24,0.71,1.02,3*09
$GNGSA,A,3,35,26,24,12,,,,,,,,,1.24,0.71,1.02,4*01
$GAGSV,3,1,10,01,61,080,47,04,16,213,26,05,18,321,41,09,32,267,46,7*7A
$GAGSV,3,2,10,13,22,039,30,21,13,090,27,24,11,275,44,26,39,100,33,7*7C
$GAGSV,3,3,10,31,58,285,48,33,20,153,45,7*7A
$GAGSV,3,1,10,01,61,080,44,04,16,213,45,05,18,321,32,09,32,267,46,2*7D
$GAGSV,3,2,10,13,22,039,25,21,13,090,28,24,11,275,41,26,39,100,33,2*77
$GAGSV,3,3,10,31,58,285,46,33,20,153,48,2*7C
$GBGSV,2,1,06,12,17,189,39,24,64,294,47,25,08,296,46,26,63,118,47,1*7E
$GBGSV,2,2,06,33,09,267,46,35,56,090,44,1*74
$GBGSV,2,1,06,12,17,189,49,24,64,294,,25,08,296,,26,63,118,,3*79
$GBGSV,2,2,06,33,09,267,,35,56,090,,3*74
$GNGLL,5025.4453089,N,01411.3818310,E,205703.00,A,D*71
$GNRMC,205704.00,A,5025.4453097,N,01411.3818450,E,0.006,,241021,,,F,V*19
$GNVTG,,T,,M,0.006,N,0.012,K,D*3D
$GNGGA,205704.00,5025.4453097,N,01411.3818450,E,5,12,0.71,219.464,M,44.078,M,1.0,0084*6B
$GNGSA,A,3,33,04,31,01,24,05,09,21,26,13,,,1.24,0.71,1.02,3*09
$GNGSA,A,3,35,26,24,12,,,,,,,,,1.24,0.71,1.02,4*01
$GAGSV,3,1,10,01,61,080,47,04,16,213,27,05,18,320,41,09,32,267,45,7*79
$GAGSV,3,2,10,13,22,039,29,21,13,090,27,24,11,275,44,26,39,100,33,7*74
$GAGSV,3,3,10,31,58,285,48,33,20,153,45,7*7A
$GAGSV,3,1,10,01,61,080,44,04,16,213,45,05,18,320,33,09,32,267,46,2*7D
$GAGSV,3,2,10,13,22,039,25,21,13,090,29,24,11,275,41,26,39,100,33,2*76
$GAGSV,3,3,10,31,58,285,46,33,20,153,48,2*7C
$GBGSV,2,1,06,12,17,189,39,24,64,294,47,25,08,296,46,26,63,118,47,1*7E
$GBGSV,2,2,06,33,09,267,46,35,56,090,44,1*74
$GBGSV,2,1,06,12,17,189,49,24,64,294,,25,08,296,,26,63,118,,3*79
$GBGSV,2,2,06,33,09,267,,35,56,090,,3*74
$GNGLL,5025.4453097,N,01411.3818450,E,205704.00,A,D*7A
$GNRMC,205705.00,A,5025.4453164,N,01411.3818641,E,0.004,,241021,,,F,V*15
$GNVTG,,T,,M,0.004,N,0.007,K,D*3B
$GNGGA,205705.00,5025.4453164,N,01411.3818641,E,5,12,0.71,219.254,M,44.078,M,1.0,0084*60
$GNGSA,A,3,33,04,31,01,24,05,09,21,26,13,,,1.24,0.71,1.02,3*09
$GNGSA,A,3,35,26,24,12,,,,,,,,,1.24,0.71,1.02,4*01
$GAGSV,3,1,10,01,61,080,47,04,16,213,27,05,18,320,41,09,32,267,45,7*79
$GAGSV,3,2,10,13,22,039,29,21,13,090,27,24,11,275,44,26,39,100,33,7*74
$GAGSV,3,3,10,31,58,285,48,33,20,153,45,7*7A
$GAGSV,3,1,10,01,61,080,44,04,16,213,45,05,18,320,33,09,32,267,46,2*7D
$GAGSV,3,2,10,13,22,039,24,21,13,090,29,24,11,275,41,26,39,100,34,2*70
$GAGSV,3,3,10,31,58,285,46,33,20,153,48,2*7C
$GBGSV,2,1,06,12,17,189,39,24,64,294,47,25,08,296,46,26,63,118,46,1*7F
$GBGSV,2,2,06,33,09,267,46,35,56,090,44,1*74
$GBGSV,2,1,06,12,17,189,49,24,64,294,,25,08,296,,26,63,118,,3*79
$GBGSV,2,2,06,33,09,267,,35,56,090,,3*74
$GNGLL,5025.4453164,N,01411.3818641,E,205705.00,A,D*74
$GNRMC,205706.00,A,5025.4453194,N,01411.3818775,E,0.026,,241021,,,F,V*1F
$GNVTG,,T,,M,0.026,N,0.048,K,D*30
$GNGGA,205706.00,5025.4453194,N,01411.3818775,E,5,12,0.71,219.059,M,44.078,M,1.0,0084*65
$GNGSA,A,3,33,04,31,01,24,05,09,21,26,13,,,1.24,0.71,1.02,3*09
$GNGSA,A,3,35,26,24,12,,,,,,,,,1.24,0.71,1.02,4*01
$GAGSV,3,1,10,01,61,080,47,04,16,213,28,05,18,320,41,09,32,267,45,7*76
$GAGSV,3,2,10,13,22,039,29,21,13,090,27,24,11,275,44,26,39,100,33,7*74
$GAGSV,3,3,10,31,58,285,48,33,20,153,45,7*7A
$GAGSV,3,1,10,01,61,080,44,04,16,213,45,05,18,320,32,09,32,267,46,2*7C
$GAGSV,3,2,10,13,22,039,24,21,13,090,29,24,11,275,41,26,39,100,34,2*70
$GAGSV,3,3,10,31,58,285,46,33,20,153,48,2*7C
$GBGSV,2,1,06,12,17,189,39,24,64,294,47,25,08,296,46,26,63,118,46,1*7F
$GBGSV,2,2,06,33,09,267,46,35,56,090,44,1*74
$GBGSV,2,1,06,12,17,189,49,24,64,294,,25,08,296,,26,63,118,,3*79
$GBGSV,2,2,06,33,09,267,,35,56,090,,3*74
$GNGLL,5025.4453194,N,01411.3818775,E,205706.00,A,D*7E
$GNRMC,205707.00,A,5025.4453326,N,01411.3819095,E,0.012,,241021,,,F,V*1A
$GNVTG,,T,,M,0.012,N,0.022,K,D*3B
$GNGGA,205707.00,5025.4453326,N,01411.3819095,E,5,12,0.71,218.780,M,44.078,M,1.0,0084*65
$GNGSA,A,3,33,04,31,01,24,05,09,21,26,13,,,1.24,0.71,1.02,3*09
$GNGSA,A,3,35,26,24,12,,,,,,,,,1.24,0.71,1.02,4*01
$GAGSV,3,1,10,01,61,080,47,04,16,213,28,05,18,320,41,09,32,267,46,7*75
$GAGSV,3,2,10,13,22,039,29,21,13,090,27,24,11,275,44,26,39,100,33,7*74
$GAGSV,3,3,10,31,58,285,48,33,20,153,45,7*7A
$GAGSV,3,1,10,01,61,080,44,04,16,213,45,05,18,320,32,09,32,267,46,2*7C
$GAGSV,3,2,10,13,22,039,24,21,13,090,29,24,11,275,41,26,39,100,34,2*70
$GAGSV,3,3,10,31,58,285,46,33,20,153,48,2*7C
$GBGSV,2,1,06,12,17,189,39,24,64,294,47,25,08,296,46,26,63,118,46,1*7F
$GBGSV,2,2,06,33,09,267,46,35,56,090,44,1*74
$GBGSV,2,1,06,12,17,189,49,24,64,294,,25,08,296,,26,63,118,,3*79
$GBGSV,2,2,06,33,09,267,,35,56,090,,3*74
$GNGLL,5025.4453326,N,01411.3819095,E,205707.00,A,D*7C
$GNRMC,205708.00,A,5025.4453267,N,01411.3819323,E,0.004,,241021,,,F,V*18
$GNVTG,,T,,M,0.004,N,0.007,K,D*3B
$GNGGA,205708.00,5025.4453267,N,01411.3819323,E,5,12,0.71,218.544,M,44.078,M,1.0,0084*6A
$GNGSA,A,3,33,04,31,01,24,05,09,21,26,13,,,1.24,0.71,1.02,3*09
$GNGSA,A,3,35,26,24,12,,,,,,,,,1.24,0.71,1.02,4*01
$GAGSV,3,1,10,01,61,080,47,04,16,213,28,05,18,320,41,09,32,267,45,7*76
$GAGSV,3,2,10,13,22,039,29,21,13,090,28,24,11,275,44,26,39,100,33,7*7B
$GAGSV,3,3,10,31,58,285,48,33,20,153,45,7*7A
$GAGSV,3,1,10,01,61,080,44,04,16,213,45,05,18,320,32,09,32,267,46,2*7C
$GAGSV,3,2,10,13,22,039,23,21,13,090,29,24,11,275,41,26,39,100,34,2*77
$GAGSV,3,3,10,31,58,285,46,33,20,153,48,2*7C
$GBGSV,2,1,06,12,17,189,39,24,64,294,47,25,08,296,46,26,63,118,46,1*7F
$GBGSV,2,2,06,33,09,267,46,35,56,090,44,1*74
$GBGSV,2,1,06,12,17,189,49,24,64,294,,25,08,296,,26,63,118,,3*79
$GBGSV,2,2,06,33,09,267,,35,56,090,,3*74
$GNGLL,5025.4453267,N,01411.3819323,E,205708.00,A,D*79
$GNRMC,205709.00,A,5025.4453178,N,01411.3819520,E,0.015,,241021,,,F,V*11
$GNVTG,,T,,M,0.015,N,0.027,K,D*39
$GNGGA,205709.00,5025.4453178,N,01411.3819520,E,5,12,0.71,218.325,M,44.078,M,1.0,0084*62
$GNGSA,A,3,33,04,31,01,24,05,09,21,26,13,,,1.24,0.71,1.02,3*09
$GNGSA,A,3,35,26,24,12,,,,,,,,,1.24,0.71,1.02,4*01
$GAGSV,3,1,10,01,61,080,47,04,16,213,28,05,18,320,41,09,32,267,46,7*75
$GAGSV,3,2,10,13,22,039,29,21,13,090,28,24,11,275,44,26,39,100,33,7*7B
$GAGSV,3,3,10,31,58,285,48,33,20,153,45,7*7A
$GAGSV,3,1,10,01,61,080,44,04,16,213,45,05,18,320,32,09,32,267,46,2*7C
$GAGSV,3,2,10,13,22,039,22,21,13,090,29,24,11,275,41,26,39,100,34,2*76
$GAGSV,3,3,10,31,58,285,46,33,20,153,48,2*7C
$GBGSV,2,1,06,12,17,189,39,24,64,294,47,25,08,296,46,26,63,118,46,1*7F
$GBGSV,2,2,06,33,09,267,46,35,56,090,44,1*74
$GBGSV,2,1,06,12,17,189,49,24,64,294,,25,08,296,,26,63,118,,3*79
$GBGSV,2,2,06,33,09,267,,35,56,090,,3*74
$GNGLL,5025.4453178,N,01411.3819520,E,205709.00,A,D*70
$GNRMC,205710.00,A,5025.4453096,N,01411.3819696,E,0.006,,241021,,,F,V*14
$GNVTG,,T,,M,0.006,N,0.011,K,D*3E
$GNGGA,205710.00,5025.4453096,N,01411.3819696,E,5,12,0.71,218.128,M,44.078,M,1.0,0084*6A
$GNGSA,A,3,33,04,31,01,24,05,09,21,26,13,,,1.24,0.71,1.02,3*09
$GNGSA,A,3,35,26,24,12,,,,,,,,,1.24,0.71,1.02,4*01
$GAGSV,3,1,10,01,61,080,47,04,16,213,28,05,18,320,41,09,32,267,45,7*76
$GAGSV,3,2,10,13,22,039,29,21,13,090,28,24,11,275,44,26,39,100,33,7*7B
$GAGSV,3,3,10,31,58,285,48,33,20,153,45,7*7A
$GAGSV,3,1,10,01,61,080,44,04,16,213,45,05,18,320,32,09,32,267,46,2*7C
$GAGSV,3,2,10,13,22,039,22,21,13,090,29,24,11,275,41,26,39,100,34,2*76
$GAGSV,3,3,10,31,58,285,46,33,20,153,48,2*7C
$GBGSV,2,1,06,12,17,189,39,24,64,294,47,25,08,296,46,26,63,118,46,1*7F
$GBGSV,2,2,06,33,09,267,46,35,56,090,44,1*74
$GBGSV,2,1,06,12,17,189,49,24,64,294,,25,08,296,,26,63,118,,3*79
$GBGSV,2,2,06,33,09,267,,35,56,090,,3*74
$GNGLL,5025.4453096,N,01411.3819696,E,205710.00,A,D*77
$GNRMC,205711.00,A,5025.4452837,N,01411.3819732,E,0.010,,241021,,,F,V*1F
$GNVTG,,T,,M,0.010,N,0.019,K,D*31
$GNGGA,205711.00,5025.4452837,N,01411.3819732,E,5,12,0.71,218.003,M,44.078,M,1.0,0084*6E
$GNGSA,A,3,33,04,31,01,24,05,09,21,26,13,,,1.24,0.71,1.02,3*09
$GNGSA,A,3,35,26,24,12,,,,,,,,,1.24,0.71,1.02,4*01
$GAGSV,3,1,10,01,61,080,47,04,16,213,28,05,18,320,42,09,32,267,45,7*75
$GAGSV,3,2,10,13,22,039,29,21,13,090,28,24,11,275,44,26,39,100,33,7*7B
$GAGSV,3,3,10,31,58,285,48,33,20,153,45,7*7A
$GAGSV,3,1,10,01,61,080,44,04,16,213,45,05,18,320,32,09,32,267,46,2*7C
$GAGSV,3,2,10,13,22,039,22,21,13,090,29,24,11,275,41,26,39,100,34,2*76
$GAGSV,3,3,10,31,58,285,46,33,20,153,48,2*7C
$GBGSV,2,1,06,12,17,189,39,24,64,294,47,25,08,296,46,26,63,118,46,1*7F
$GBGSV,2,2,06,33,09,267,46,35,56,090,44,1*74
$GBGSV,2,1,06,12,17,189,49,24,64,294,,25,08,296,,26,63,118,,3*79
$GBGSV,2,2,06,33,09,267,,35,56,090,,3*74
$GNGLL,5025.4452837,N,01411.3819732,E,205711.00,A,D*7B
$GNRMC,205712.00,A,5025.4452665,N,01411.3819829,E,0.006,,241021,,,F,V*17
$GNVTG,,T,,M,0.006,N,0.012,K,D*3D
$GNGGA,205712.00,5025.4452665,N,01411.3819829,E,5,12,0.71,217.848,M,44.078,M,1.0,0084*69
$GNGSA,A,3,33,04,31,01,24,05,09,21,26,13,,,1.24,0.71,1.02,3*09
$GNGSA,A,3,35,26,24,12,,,,,,,,,1.24,0.71,1.02,4*01
$GAGSV,3,1,10,01,61,080,47,04,16,213,28,05,18,320,42,09,32,267,45,7*75
$GAGSV,3,2,10,13,22,039,28,21,13,091,28,24,11,275,44,26,39,100,33,7*7B
$GAGSV,3,3,10,31,58,285,48,33,20,153,45,7*7A
$GAGSV,3,1,10,01,61,080,44,04,16,213,45,05,18,320,32,09,32,267,46,2*7C
$GAGSV,3,2,10,13,22,039,22,21,13,091,29,24,11,275,42,26,39,100,34,2*74
$GAGSV,3,3,10,31,58,285,46,33,20,153,48,2*7C
$GBGSV,2,1,06,12,17,189,39,24,64,294,46,25,08,296,46,26,63,118,46,1*7E
$GBGSV,2,2,06,33,09,267,46,35,56,090,44,1*74
$GBGSV,2,1,06,12,17,189,49,24,64,294,,25,08,296,,26,63,118,,3*79
$GBGSV,2,2,06,33,09,267,,35,56,090,,3*74
$GNGLL,5025.4452665,N,01411.3819829,E,205712.00,A,D*74
$GNRMC,205713.00,A,5025.4452321,N,01411.3819844,E,0.008,,241021,,,F,V*16
$GNVTG,,T,,M,0.008,N,0.015,K,D*34
$GNGGA,205713.00,5025.4452321,N,01411.3819844,E,5,12,0.71,217.778,M,44.078,M,1.0,0084*6A
$GNGSA,A,3,33,04,31,01,24,05,09,21,26,13,,,1.24,0.71,1.02,3*09
$GNGSA,A,3,35,26,24,12,,,,,,,,,1.24,0.71,1.02,4*01
$GAGSV,3,1,10,01,61,080,47,04,16,213,29,05,18,320,42,09,32,267,45,7*74
$GAGSV,3,2,10,13,22,039,28,21,13,091,28,24,11,275,43,26,39,100,32,7*7D
$GAGSV,3,3,10,31,58,285,48,33,20,153,45,7*7A
$GAGSV,3,1,10,01,61,080,44,04,16,213,45,05,18,320,32,09,32,267,46,2*7C
$GAGSV,3,2,10,13,22,039,21,21,13,091,29,24,11,275,42,26,39,100,34,2*77
$GAGSV,3,3,10,31,58,285,46,33,20,153,48,2*7C
$GBGSV,2,1,06,12,17,189,39,24,64,294,47,25,08,296,46,26,63,118,46,1*7F
$GBGSV,2,2,06,33,09,267,46,35,56,090,45,1*75
$GBGSV,2,1,06,12,17,189,49,24,64,294,,25,08,296,,26,63,118,,3*79
$GBGSV,2,2,06,33,09,267,,35,56,090,,3*74
$GNGLL,5025.4452321,N,01411.3819844,E,205713.00,A,D*7B
$GNRMC,205714.00,A,5025.4451956,N,01411.3819817,E,0.008,,241021,,,F,V*1E
$GNVTG,,T,,M,0.008,N,0.015,K,D*34
$GNGGA,205714.00,5025.4451956,N,01411.3819817,E,5,12,0.71,217.701,M,44.078,M,1.0,0084*6C
$GNGSA,A,3,33,04,31,01,24,05,09,21,26,13,,,1.24,0.71,1.02,3*09
$GNGSA,A,3,35,26,24,12,,,,,,,,,1.24,0.71,1.02,4*01
$GAGSV,3,1,10,01,61,080,47,04,16,213,29,05,18,320,42,09,32,267,45,7*74
$GAGSV,3,2,10,13,22,039,28,21,13,091,28,24,11,275,43,26,39,100,32,7*7D
$GAGSV,3,3,10,31,58,285,48,33,20,153,45,7*7A
$GAGSV,3,1,10,01,61,080,44,04,16,213,45,05,18,320,32,09,32,267,46,2*7C
$GAGSV,3,2,10,13,22,039,21,21,13,091,29,24,11,275,42,26,39,100,34,2*77
$GAGSV,3,3,10,31,58,285,46,33,20,153,48,2*7C
$GBGSV,2,1,06,12,17,189,39,24,64,294,47,25,08,296,46,26,63,118,46,1*7F
$GBGSV,2,2,06,33,09,267,46,35,56,090,45,1*75
$GBGSV,2,1,06,12,17,189,49,24,64,294,,25,08,296,,26,63,118,,3*79
$GBGSV,2,2,06,33,09,267,,35,56,090,,3*74
$GNGLL,5025.4451956,N,01411.3819817,E,205714.00,A,D*73
$GNRMC,205715.00,A,5025.4451552,N,01411.3819802,E,0.016,,241021,,,F,V*1C
$GNVTG,,T,,M,0.016,N,0.031,K,D*3D
$GNGGA,205715.00,5025.4451552,N,01411.3819802,E,5,12,0.71,217.624,M,44.078,M,1.0,0084*67
$GNGSA,A,3,33,04,31,01,24,05,09,21,26,13,,,1.24,0.71,1.02,3*09
$GNGSA,A,3,35,26,24,12,,,,,,,,,1.24,0.71,1.02,4*01
$GAGSV,3,1,10,01,61,080,47,04,16,213,29,05,18,320,42,09,32,267,45,7*74
$GAGSV,3,2,10,13,22,039,28,21,13,091,28,24,11,275,43,26,39,100,32,7*7D
$GAGSV,3,3,10,31,58,285,48,33,20,153,45,7*7A
$GAGSV,3,1,10,01,61,080,44,04,16,213,45,05,18,320,32,09,32,267,46,2*7C
$GAGSV,3,2,10,13,22,039,21,21,13,091,29,24,11,275,42,26,39,100,34,2*77
$GAGSV,3,3,10,31,58,285,46,33,20,153,48,2*7C
$GBGSV,2,1,06,12,17,189,39,24,64,294,47,25,08,296,46,26,63,118,46,1*7F
$GBGSV,2,2,06,33,09,267,46,35,56,090,45,1*75
$GBGSV,2,1,06,12,17,189,49,24,64,294,,25,08,296,,26,63,118,,3*79
$GBGSV,2,2,06,33,09,267,,35,56,090,,3*74
$GNGLL,5025.4451552,N,01411.3819802,E,205715.00,A,D*7E
$GNRMC,205716.00,A,5025.4451129,N,01411.3819774,E,0.008,,241021,,,F,V*16
$GNVTG,,T,,M,0.008,N,0.015,K,D*34
$GNGGA,205716.00,5025.4451129,N,01411.3819774,E,5,12,0.71,217.572,M,44.078,M,1.0,0084*62
$GNGSA,A,3,33,04,31,01,24,05,09,21,26,13,,,1.24,0.71,1.02,3*09
$GNGSA,A,3,35,26,24,12,,,,,,,,,1.24,0.71,1.02,4*01
$GAGSV,3,1,10,01,61,080,47,04,16,213,29,05,18,320,42,09,32,267,45,7*74
$GAGSV,3,2,10,13,22,039,29,21,13,091,28,24,11,275,43,26,39,100,32,7*7C
$GAGSV,3,3,10,31,58,285,48,33,20,153,45,7*7A
$GAGSV,3,1,10,01,61,080,44,04,16,213,45,05,18,320,32,09,32,267,46,2*7C
$GAGSV,3,2,10,13,22,039,21,21,13,091,29,24,11,275,42,26,39,100,34,2*77
$GAGSV,3,3,10,31,58,285,46,33,20,153,48,2*7C
$GBGSV,2,1,06,12,17,189,39,24,64,294,47,25,08,296,46,26,63,118,46,1*7F
$GBGSV,2,2,06,33,09,267,47,35,56,090,45,1*74
$GBGSV,2,1,06,12,17,189,49,24,64,294,,25,08,296,,26,63,118,,3*79
$GBGSV,2,2,06,33,09,267,,35,56,090,,3*74
$GNGLL,5025.4451129,N,01411.3819774,E,205716.00,A,D*7B
$GNRMC,205717.00,A,5025.4450890,N,01411.3819882,E,0.006,,241021,,,F,V*15
$GNVTG,,T,,M,0.006,N,0.011,K,D*3E
$GNGGA,205717.00,5025.4450890,N,01411.3819882,E,5,12,0.71,217.493,M,44.078,M,1.0,0084*61
$GNGSA,A,3,33,04,31,01,24,05,09,21,26,13,,,1.24,0.71,1.02,3*09
$GNGSA,A,3,35,26,24,12,,,,,,,,,1.24,0.71,1.02,4*01
$GAGSV,3,1,10,01,61,080,47,04,16,213,29,05,18,320,42,09,32,267,45,7*74
$GAGSV,3,2,10,13,22,039,28,21,13,091,27,24,11,275,43,26,39,100,33,7*73
$GAGSV,3,3,10,31,58,285,48,33,20,153,45,7*7A
$GAGSV,3,1,10,01,61,080,44,04,16,213,45,05,18,320,32,09,32,267,46,2*7C
$GAGSV,3,2,10,13,22,039,21,21,13,091,30,24,11,275,42,26,39,100,34,2*7F
$GAGSV,3,3,10,31,58,285,46,33,20,153,48,2*7C
$GBGSV,2,1,06,12,17,189,39,24,64,294,47,25,08,296,46,26,63,118,46,1*7F
$GBGSV,2,2,06,33,09,267,47,35,56,090,45,1*74
$GBGSV,2,1,06,12,17,189,49,24,64,294,,25,08,296,,26,63,118,,3*79
$GBGSV,2,2,06,33,09,267,,35,56,090,,3*74
$GNGLL,5025.4450890,N,01411.3819882,E,205717.00,A,D*76
$GNRMC,205718.00,A,5025.4450704,N,01411.3820085,E,0.006,,241021,,,F,V*1D
$GNVTG,,T,,M,0.006,N,0.011,K,D*3E
$GNGGA,205718.00,5025.4450704,N,01411.3820085,E,5,12,0.71,217.378,M,44.078,M,1.0,0084*6B
$GNGSA,A,3,33,04,31,01,24,05,09,21,26,13,,,1.24,0.71,1.02,3*09
$GNGSA,A,3,35,26,24,12,,,,,,,,,1.24,0.71,1.02,4*01
$GAGSV,3,1,10,01,61,080,47,04,16,213,29,05,18,320,42,09,32,267,45,7*74
$GAGSV,3,2,10,13,22,039,28,21,13,091,27,24,11,275,43,26,39,100,33,7*73
$GAGSV,3,3,10,31,58,285,48,33,20,153,45,7*7A
$GAGSV,3,1,10,01,61,080,44,04,16,213,45,05,18,320,32,09,32,267,46,2*7C
$GAGSV,3,2,10,13,22,039,,21,13,091,29,24,11,275,42,26,39,100,34,2*74
$GAGSV,3,3,10,31,58,285,46,33,20,153,48,2*7C
$GBGSV,2,1,06,12,17,189,39,24,64,294,47,25,08,296,46,26,63,118,46,1*7F
$GBGSV,2,2,06,33,09,267,47,35,56,090,45,1*74
$GBGSV,2,1,06,12,17,189,49,24,64,294,,25,08,296,,26,63,118,,3*79
$GBGSV,2,2,06,33,09,267,,35,56,090,,3*74
$GNGLL,5025.4450704,N,01411.3820085,E,205718.00,A,D*7E
$GNRMC,205719.00,A,5025.4450443,N,01411.3820330,E,0.023,,241021,,,F,V*16
$GNVTG,,T,,M,0.023,N,0.043,K,D*3E
$GNGGA,205719.00,5025.4450443,N,01411.3820330,E,5,12,0.71,217.276,M,44.078,M,1.0,0084*68
$GNGSA,A,3,33,04,31,01,24,05,09,21,26,13,,,1.24,0.71,1.02,3*09
$GNGSA,A,3,35,26,24,12,,,,,,,,,1.24,0.71,1.02,4*01
$GAGSV,3,1,10,01,61,080,47,04,16,213,29,05,18,320,42,09,32,267,45,7*74
$GAGSV,3,2,10,13,22,039,28,21,13,091,27,24,11,275,43,26,39,100,33,7*73
$GAGSV,3,3,10,31,58,285,48,33,20,153,45,7*7A
$GAGSV,3,1,10,01,61,080,44,04,16,213,45,05,18,320,32,09,32,267,46,2*7C
$GAGSV,3,2,10,13,22,039,,21,13,091,29,24,11,275,42,26,39,100,34,2*74
$GAGSV,3,3,10,31,58,285,46,33,20,153,48,2*7C
$GBGSV,2,1,06,12,17,189,39,24,64,294,47,25,08,296,46,26,63,118,45,1*7C
$GBGSV,2,2,06,33,09,267,47,35,56,090,45,1*74
$GBGSV,2,1,06,12,17,189,49,24,64,294,,25,08,296,,26,63,118,,3*79
$GBGSV,2,2,06,33,09,267,,35,56,090,,3*74
$GNGLL,5025.4450443,N,01411.3820330,E,205719.00,A,D*72
$GNRMC,205720.00,A,5025.4450115,N,01411.3820562,E,0.009,,241021,,,F,V*13
$GNVTG,,T,,M,0.009,N,0.018,K,D*38
$GNGGA,205720.00,5025.4450115,N,01411.3820562,E,5,12,0.71,217.179,M,44.078,M,1.0,0084*69
$GNGSA,A,3,33,04,31,01,24,05,09,21,26,13,,,1.24,0.71,1.02,3*09
$GNGSA,A,3,35,26,24,12,,,,,,,,,1.24,0.71,1.02,4*01
$GAGSV,3,1,10,01,61,080,47,04,16,213,29,05,18,320,42,09,32,267,45,7*74
$GAGSV,3,2,10,13,22,039,28,21,13,091,27,24,11,275,43,26,39,100,33,7*73
$GAGSV,3,3,10,31,58,285,48,33,20,153,45,7*7A
$GAGSV,3,1,10,01,61,080,44,04,16,213,45,05,18,320,33,09,32,267,46,2*7D
$GAGSV,3,2,10,13,22,039,23,21,13,091,29,24,11,275,42,26,39,100,34,2*75
$GAGSV,3,3,10,31,58,285,46,33,20,153,48,2*7C
$GBGSV,2,1,06,12,17,189,39,24,64,294,47,25,08,296,46,26,63,118,45,1*7C
$GBGSV,2,2,06,33,09,267,47,35,56,090,45,1*74
$GBGSV,2,1,06,12,17,189,49,24,64,294,,25,08,296,,26,63,118,,3*79
$GBGSV,2,2,06,33,09,267,,35,56,090,,3*74
$GNGLL,5025.4450115,N,01411.3820562,E,205720.00,A,D*7F
$GNRMC,205721.00,A,5025.4449834,N,01411.3820767,E,0.005,,241021,,,F,V*1B
$GNVTG,,T,,M,0.005,N,0.009,K,D*34
$GNGGA,205721.00,5025.4449834,N,01411.3820767,E,5,12,0.71,217.123,M,44.078,M,1.0,0084*62
$GNGSA,A,3,33,04,31,01,24,05,09,21,26,13,,,1.24,0.71,1.02,3*09
$GNGSA,A,3,35,26,24,12,,,,,,,,,1.24,0.71,1.02,4*01
$GAGSV,3,1,10,01,61,080,47,04,16,213,29,05,18,320,42,09,32,267,45,7*74
$GAGSV,3,2,10,13,22,039,28,21,13,091,27,24,11,275,43,26,39,100,33,7*73
$GAGSV,3,3,10,31,58,285,48,33,20,153,45,7*7A
$GAGSV,3,1,10,01,61,080,44,04,16,213,45,05,18,320,32,09,32,267,46,2*7C
$GAGSV,3,2,10,13,22,039,23,21,13,091,30,24,11,275,42,26,39,100,34,2*7D
$GAGSV,3,3,10,31,58,285,46,33,20,153,48,2*7C
$GBGSV,2,1,06,12,17,189,39,24,64,294,47,25,08,296,46,26,63,118,45,1*7C
$GBGSV,2,2,06,33,09,267,46,35,56,090,45,1*75
$GBGSV,2,1,06,12,17,189,49,24,64,294,,25,08,296,,26,63,118,,3*79
$GBGSV,2,2,06,33,09,267,,35,56,090,,3*74
$GNGLL,5025.4449834,N,01411.3820767,E,205721.00,A,D*7B
$GNRMC,205722.00,A,5025.4449499,N,01411.3820896,E,0.007,,241021,,,F,V*10
$GNVTG,,T,,M,0.007,N,0.014,K,D*3A
$GNGGA,205722.00,5025.4449499,N,01411.3820896,E,5,12,0.71,217.112,M,44.078,M,1.0,0084*69
$GNGSA,A,3,33,04,31,01,24,05,09,21,26,13,,,1.24,0.71,1.02,3*09
$GNGSA,A,3,35,26,24,12,,,,,,,,,1.24,0.71,1.02,4*01
$GAGSV,3,1,10,01,61,080,47,04,16,213,29,05,18,320,42,09,32,267,46,7*77
$GAGSV,3,2,10,13,22,039,28,21,13,091,27,24,11,275,43,26,39,100,33,7*73
$GAGSV,3,3,10,31,58,285,48,33,20,153,45,7*7A
$GAGSV,3,1,10,01,61,080,44,04,16,213,45,05,18,320,32,09,32,267,46,2*7C
$GAGSV,3,2,10,13,22,039,24,21,13,091,30,24,11,275,42,26,39,100,34,2*7A
$GAGSV,3,3,10,31,58,285,46,33,20,153,48,2*7C
$GBGSV,2,1,06,12,17,189,39,24,64,294,47,25,08,296,46,26,63,118,45,1*7C
$GBGSV,2,2,06,33,09,267,47,35,56,090,45,1*74
$GBGSV,2,1,06,12,17,189,49,24,64,294,,25,08,296,,26,63,118,,3*79
$GBGSV,2,2,06,33,09,267,,35,56,090,,3*74
$GNGLL,5025.4449499,N,01411.3820896,E,205722.00,A,D*72
$GNRMC,205723.00,A,5025.4449326,N,01411.3821148,E,0.004,,241021,,,F,V*1A
$GNVTG,,T,,M,0.004,N,0.008,K,D*34
$GNGGA,205723.00,5025.4449326,N,01411.3821148,E,5,12,0.71,217.052,M,44.078,M,1.0,0084*65
$GNGSA,A,3,33,04,31,01,24,05,09,21,26,13,,,1.24,0.71,1.02,3*09
$GNGSA,A,3,35,26,24,12,,,,,,,,,1.24,0.71,1.02,4*01
$GAGSV,3,1,10,01,61,080,47,04,16,213,29,05,18,320,42,09,32,267,46,7*77
$GAGSV,3,2,10,13,22,039,27,21,13,091,27,24,11,275,43,26,39,100,33,7*7C
$GAGSV,3,3,10,31,58,285,48,33,20,153,45,7*7A
$GAGSV,3,1,10,01,61,080,44,04,16,213,45,05,18,320,32,09,32,267,46,2*7C
$GAGSV,3,2,10,13,22,039,24,21,13,091,30,24,11,275,42,26,39,100,34,2*7A
$GAGSV,3,3,10,31,58,285,46,33,20,153,48,2*7C
$GBGSV,2,1,06,12,17,189,39,24,64,294,47,25,08,296,46,26,63,118,45,1*7C
$GBGSV,2,2,06,33,09,267,47,35,56,090,45,1*74
$GBGSV,2,1,06,12,17,189,49,24,64,294,,25,08,296,,26,63,118,,3*79
$GBGSV,2,2,06,33,09,267,,35,56,090,,3*74
$GNGLL,5025.4449326,N,01411.3821148,E,205723.00,A,D*7B
$GNRMC,205724.00,A,5025.4449244,N,01411.3821425,E,0.002,,241021,,,F,V*10
$GNVTG,,T,,M,0.002,N,0.003,K,D*39
$GNGGA,205724.00,5025.4449244,N,01411.3821425,E,5,12,0.71,216.995,M,44.078,M,1.0,0084*6A
$GNGSA,A,3,33,04,31,01,24,05,09,21,26,13,,,1.24,0.71,1.02,3*09
$GNGSA,A,3,35,26,24,12,,,,,,,,,1.24,0.71,1.02,4*01
$GAGSV,3,1,10,01,61,080,47,04,16,213,29,05,18,320,42,09,32,267,46,7*77
$GAGSV,3,2,10,13,22,039,27,21,13,091,26,24,11,275,43,26,39,100,33,7*7D
$GAGSV,3,3,10,31,58,285,48,33,20,153,45,7*7A
$GAGSV,3,1,10,01,61,080,44,04,16,213,45,05,18,320,32,09,32,267,46,2*7C
$GAGSV,3,2,10,13,22,039,24,21,13,091,30,24,11,275,42,26,39,100,34,2*7A
$GAGSV,3,3,10,31,58,285,46,33,20,153,48,2*7C
$GBGSV,2,1,06,12,17,189,39,24,64,294,47,25,08,296,46,26,63,119,45,1*7D
$GBGSV,2,2,06,33,09,267,47,35,56,090,45,1*74
$GBGSV,2,1,06,12,17,189,49,24,64,294,,25,08,296,,26,63,119,,3*78
$GBGSV,2,2,06,33,09,267,,35,56,090,,3*74
$GNGLL,5025.4449244,N,01411.3821425,E,205724.00,A,D*77
$GNRMC,205725.00,A,5025.4449137,N,01411.3821676,E,0.003,,241021,,,F,V*13
$GNVTG,,T,,M,0.003,N,0.006,K,D*3D
$GNGGA,205725.00,5025.4449137,N,01411.3821676,E,5,12,0.71,216.957,M,44.078,M,1.0,0084*66
$GNGSA,A,3,33,04,31,01,24,05,09,21,26,13,,,1.24,0.71,1.02,3*09
$GNGSA,A,3,35,26,24,12,,,,,,,,,1.24,0.71,1.02,4*01
$GAGSV,3,1,10,01,61,080,47,04,16,213,28,05,18,320,42,09,32,267,46,7*76
$GAGSV,3,2,10,13,22,039,27,21,13,091,26,24,11,275,43,26,39,100,34,7*7A
$GAGSV,3,3,10,31,58,285,48,33,20,153,45,7*7A
$GAGSV,3,1,10,01,61,080,44,04,16,213,45,05,18,320,32,09,32,267,46,2*7C
$GAGSV,3,2,10,13,22,039,24,21,13,091,30,24,11,275,43,26,39,100,34,2*7B
