$GNGGA,212333.00,5025.4447561,N,01411.3818274,E,4,12,0.91,217.743,M,44.078,M,1.0,0084*63
$GNGSA,A,3,81,87,88,69,79,77,70,78,,,,,1.67,0.91,1.40,2*00
$GNGSA,A,3,12,35,25,24,13,26,,,,,,,1.67,0.91,1.40,4*0B
$GLGSV,3,1,09,68,04,242,28,69,21,288,48,70,12,348,22,77,31,107,09,1*73
$GLGSV,3,2,09,78,77,017,48,79,31,305,46,81,15,183,36,87,52,055,47,1*74
$GLGSV,3,3,09,88,57,141,47,1*44
$GLGSV,3,1,09,68,04,242,32,69,21,288,40,70,12,348,,77,31,107,19,3*73
$GLGSV,3,2,09,78,77,017,44,79,31,305,43,81,15,183,40,87,52,055,,3*7D
$GLGSV,3,3,09,88,57,141,44,3*45
$GBGSV,3,1,11,02,04,106,,05,18,128,,10,06,080,,12,28,190,42,1*7A
$GBGSV,3,2,11,13,28,088,22,24,75,289,38,25,17,300,49,26,53,126,40,1*7F
$GBGSV,3,3,11,29,10,039,28,33,02,260,27,35,53,072,43,1*4D
$GBGSV,3,1,11,02,04,106,,05,18,128,,10,06,080,32,12,28,190,49,3*72
$GBGSV,3,2,11,13,28,088,30,24,75,289,,25,17,300,,26,53,126,,3*7C
$GBGSV,3,3,11,29,10,039,,33,02,260,,35,53,072,,3*47
$GNGLL,5025.4447561,N,01411.3818274,E,212333.00,A,D*75
$GNTXT,01,01,02,Starting GNSS*5A
$GNRMC,212333.13,V,,,,,,,241021,,,N,V*1D
$GNVTG,,,,,,,,,N*2E
$GNGGA,212333.13,,,,,0,00,99.99,,,,,,*78
$GNGSA,A,1,,,,,,,,,,,,,99.99,99.99,99.99,3*31
$GNGSA,A,1,,,,,,,,,,,,,99.99,99.99,99.99,4*36
$GAGSV,1,1,00,7*73
$GAGSV,1,1,00,2*76
$GBGSV,1,1,00,1*76
$GBGSV,1,1,00,3*74
$GNGLL,,,,,212333.13,V,N*54
$GNRMC,212333.18,V,,,,,,,241021,,,N,V*16
$GNVTG,,,,,,,,,N*2E
$GNGGA,212333.18,,,,,0,00,99.99,,,,,,*73
$GNGSA,A,1,,,,,,,,,,,,,99.99,99.99,99.99,3*31
$GNGSA,A,1,,,,,,,,,,,,,99.99,99.99,99.99,4*36
$GAGSV,3,1,10,01,53,090,,04,07,209,,05,20,312,,09,26,258,,7*73
$GAGSV,3,2,10,13,16,033,,21,06,097,,24,18,281,,26,44,088,,7*7D
$GAGSV,3,3,10,31,67,294,,33,30,150,,7*79
$GAGSV,3,1,10,01,53,090,,04,07,209,,05,20,312,,09,26,258,,2*76
$GAGSV,3,2,10,13,16,033,,21,06,097,,24,18,281,,26,44,088,,2*78
$GAGSV,3,3,10,31,67,294,,33,30,150,,2*7C
$GBGSV,3,1,11,02,04,106,,05,18,128,,10,06,080,,12,28,190,,1*7C
$GBGSV,3,2,11,13,28,088,,24,75,289,,25,17,300,,26,52,126,,1*7C
$GBGSV,3,3,11,29,10,039,,33,01,259,,35,53,072,,1*4C
$GBGSV,3,1,11,02,04,106,,05,18,128,,10,06,080,,12,28,190,,3*7E
$GBGSV,3,2,11,13,28,088,,24,75,289,,25,17,300,,26,52,126,,3*7E
$GBGSV,3,3,11,29,10,039,,33,01,259,,35,53,072,,3*4E
$GNGLL,,,,,212333.18,V,N*5F
$GNRMC,212334.00,A,5025.4456097,N,01411.3799926,E,0.325,,241021,,,A,V*12
$GNVTG,,T,,M,0.325,N,0.602,K,A*3D
$GNGGA,212334.00,5025.4456097,N,01411.3799926,E,1,12,0.98,223.619,M,44.078,M,,*44
$GNGSA,A,3,33,05,24,26,31,01,09,,,,,,1.86,0.98,1.58,3*0C
$GNGSA,A,3,12,24,25,26,35,,,,,,,,1.86,0.98,1.58,4*06
$GAGSV,3,1,10,01,53,090,40,04,07,209,26,05,20,312,46,09,26,258,39,7*7B
$GAGSV,3,2,10,13,16,033,28,21,06,097,24,24,18,281,47,26,44,088,40,7*76
$GAGSV,3,3,10,31,67,294,44,33,30,150,46,7*7B
$GAGSV,3,1,10,01,53,090,43,04,07,209,31,05,20,312,45,09,26,258,46,2*70
$GAGSV,3,2,10,13,16,033,31,21,06,097,31,24,18,281,47,26,44,088,40,2*7F
$GAGSV,3,3,10,31,67,294,52,33,30,150,45,2*7A
$GBGSV,3,1,11,02,04,106,,05,18,128,,10,06,080,,12,28,190,42,1*7A
$GBGSV,3,2,11,13,28,088,21,24,75,289,38,25,17,300,49,26,52,126,40,1*7D
$GBGSV,3,3,11,29,10,039,29,33,01,259,26,35,53,072,42,1*45
$GBGSV,3,1,11,02,04,106,,05,18,128,,10,06,080,31,12,28,190,48,3*70
$GBGSV,3,2,11,13,28,088,28,24,75,289,,25,17,300,,26,52,126,,3*74
$GBGSV,3,3,11,29,10,039,,33,01,259,,35,53,072,,3*4E
$GNGLL,5025.4456097,N,01411.3799926,E,212334.00,A,A*71
$GNRMC,212335.00,A,5025.4459917,N,01411.3799178,E,0.050,,241021,,,A,V*1F
$GNVTG,,T,,M,0.050,N,0.092,K,A*33
$GNGGA,212335.00,5025.4459917,N,01411.3799178,E,1,12,0.76,224.146,M,44.078,M,,*42
$GNGSA,A,3,33,05,24,26,31,01,13,09,,,,,1.46,0.76,1.25,3*08
$GNGSA,A,3,12,13,24,25,26,35,,,,,,,1.46,0.76,1.25,4*02
$GAGSV,3,1,10,01,53,090,39,04,07,209,26,05,20,312,45,09,26,258,38,7*77
$GAGSV,3,2,10,13,16,033,27,21,06,097,23,24,18,281,47,26,44,088,39,7*70
$GAGSV,3,3,10,31,67,294,43,33,30,150,45,7*7F
$GAGSV,3,1,10,01,53,090,43,04,07,209,31,05,20,312,44,09,26,258,46,2*71
$GAGSV,3,2,10,13,16,033,30,21,06,097,31,24,18,281,47,26,44,088,40,2*7E
$GAGSV,3,3,10,31,67,294,51,33,30,150,44,2*78
$GBGSV,3,1,11,02,04,106,,05,18,128,,10,06,080,,12,28,190,41,1*79
$GBGSV,3,2,11,13,28,088,20,24,75,289,38,25,17,300,49,26,52,126,39,1*72
$GBGSV,3,3,11,29,10,039,28,33,01,259,26,35,53,072,42,1*44
$GBGSV,3,1,11,02,04,106,,05,18,128,,10,06,080,31,12,28,190,49,3*71
$GBGSV,3,2,11,13,28,088,29,24,75,289,,25,17,300,,26,52,126,,3*75
$GBGSV,3,3,11,29,10,039,,33,01,259,,35,53,072,,3*4E
$GNGLL,5025.4459917,N,01411.3799178,E,212335.00,A,A*7D
$GNRMC,212336.00,A,5025.4464869,N,01411.3798193,E,0.019,,241021,,,A,V*13
$GNVTG,,T,,M,0.019,N,0.036,K,A*30
$GNGGA,212336.00,5025.4464869,N,01411.3798193,E,1,12,0.76,223.868,M,44.078,M,,*41
$GNGSA,A,3,33,05,24,26,31,01,13,09,,,,,1.46,0.76,1.25,3*08
$GNGSA,A,3,12,13,24,25,26,35,,,,,,,1.46,0.76,1.25,4*02
$GAGSV,3,1,10,01,53,090,39,04,07,209,25,05,20,312,45,09,26,258,38,7*74
$GAGSV,3,2,10,13,16,033,27,21,06,097,22,24,18,281,47,26,44,088,39,7*71
$GAGSV,3,3,10,31,67,294,43,33,30,150,45,7*7F
$GAGSV,3,1,10,01,53,090,42,04,07,209,29,05,20,312,43,09,26,258,45,2*7D
$GAGSV,3,2,10,13,16,033,29,21,06,097,30,24,18,281,46,26,44,088,39,2*78
$GAGSV,3,3,10,31,67,294,50,33,30,150,43,2*7E
$GBGSV,3,1,11,02,04,106,,05,18,128,,10,06,080,,12,28,190,42,1*7A
$GBGSV,3,2,11,13,28,088,20,24,75,289,38,25,17,300,49,26,52,126,40,1*7C
$GBGSV,3,3,11,29,10,039,29,33,01,259,26,35,53,072,42,1*45
$GBGSV,3,1,11,02,04,106,,05,18,128,,10,06,080,32,12,28,190,49,3*72
$GBGSV,3,2,11,13,28,088,30,24,75,289,,25,17,300,,26,52,126,,3*7D
$GBGSV,3,3,11,29,10,039,,33,01,259,,35,53,072,,3*4E
$GNGLL,5025.4464869,N,01411.3798193,E,212336.00,A,A*7C
$GNRMC,212337.00,A,5025.4464439,N,01411.3799405,E,0.003,,241021,,,A,V*1B
$GNVTG,,T,,M,0.003,N,0.005,K,A*3B
$GNGGA,212337.00,5025.4464439,N,01411.3799405,E,1,12,0.76,222.822,M,44.078,M,,*4D
$GNGSA,A,3,33,05,24,26,31,01,13,09,,,,,1.46,0.76,1.25,3*08
$GNGSA,A,3,12,13,24,25,26,35,,,,,,,1.46,0.76,1.25,4*02
$GAGSV,3,1,10,01,53,090,38,04,07,209,25,05,20,312,45,09,26,258,38,7*75
$GAGSV,3,2,10,13,16,033,27,21,06,097,23,24,18,281,47,26,44,088,39,7*70
$GAGSV,3,3,10,31,67,294,43,33,30,150,45,7*7F
$GAGSV,3,1,10,01,53,090,42,04,07,209,29,05,20,312,43,09,26,258,45,2*7D
$GAGSV,3,2,10,13,16,033,29,21,06,097,30,24,18,281,46,26,44,088,39,2*78
$GAGSV,3,3,10,31,67,294,50,33,30,150,43,2*7E
$GBGSV,3,1,11,02,04,106,,05,18,128,,10,06,080,,12,28,190,42,1*7A
$GBGSV,3,2,11,13,28,088,19,24,75,289,38,25,17,300,49,26,52,126,40,1*76
$GBGSV,3,3,11,29,10,039,28,33,01,259,26,35,53,072,42,1*44
$GBGSV,3,1,11,02,04,106,,05,18,128,,10,06,080,32,12,28,190,49,3*72
$GBGSV,3,2,11,13,28,088,30,24,75,289,,25,17,300,,26,52,126,,3*7D
$GBGSV,3,3,11,29,10,039,,33,01,259,,35,53,072,,3*4E
$GNGLL,5025.4464439,N,01411.3799405,E,212337.00,A,A*7F
$GNRMC,212338.00,A,5025.4464535,N,01411.3800483,E,0.013,,241021,,,A,V*19
$GNVTG,,T,,M,0.013,N,0.024,K,A*39
$GNGGA,212338.00,5025.4464535,N,01411.3800483,E,1,12,0.76,222.190,M,44.078,M,,*4E
$GNGSA,A,3,33,05,24,26,31,01,13,09,,,,,1.46,0.76,1.25,3*08
$GNGSA,A,3,12,13,24,25,26,35,,,,,,,1.46,0.76,1.25,4*02
$GAGSV,3,1,10,01,53,090,38,04,07,209,25,05,20,312,45,09,26,258,38,7*75
$GAGSV,3,2,10,13,16,033,27,21,06,097,23,24,18,281,47,26,44,088,39,7*70
$GAGSV,3,3,10,31,67,294,43,33,30,150,45,7*7F
$GAGSV,3,1,10,01,53,090,41,04,07,209,29,05,20,312,43,09,26,258,44,2*7F
$GAGSV,3,2,10,13,16,033,29,21,06,097,30,24,18,281,45,26,44,088,39,2*7B
$GAGSV,3,3,10,31,67,294,50,33,30,150,43,2*7E
$GBGSV,3,1,11,02,04,106,,05,18,128,,10,06,080,,12,28,190,42,1*7A
$GBGSV,3,2,11,13,28,088,19,24,75,289,38,25,17,300,49,26,52,126,40,1*76
$GBGSV,3,3,11,29,10,039,28,33,01,259,25,35,53,072,42,1*47
$GBGSV,3,1,11,02,04,106,,05,18,128,,10,06,080,32,12,28,190,49,3*72
$GBGSV,3,2,11,13,28,088,29,24,75,289,,25,17,300,,26,52,126,,3*75
$GBGSV,3,3,11,29,10,039,,33,01,259,,35,53,072,,3*4E
$GNGLL,5025.4464535,N,01411.3800483,E,212338.00,A,A*7C
$GNRMC,212339.00,A,5025.4464294,N,01411.3801767,E,0.007,,241021,,,A,V*19
$GNVTG,,T,,M,0.007,N,0.014,K,A*3F
$GNGGA,212339.00,5025.4464294,N,01411.3801767,E,1,12,0.76,221.827,M,44.078,M,,*4D
$GNGSA,A,3,33,05,24,26,31,01,13,09,,,,,1.46,0.76,1.25,3*08
$GNGSA,A,3,12,13,24,25,26,35,,,,,,,1.46,0.76,1.25,4*02
$GAGSV,3,1,10,01,53,090,38,04,07,209,24,05,20,312,45,09,26,258,38,7*74
$GAGSV,3,2,10,13,16,033,27,21,06,097,22,24,18,281,46,26,44,088,39,7*70
$GAGSV,3,3,10,31,67,294,43,33,30,150,45,7*7F
$GAGSV,3,1,10,01,53,090,41,04,07,209,29,05,20,312,43,09,26,258,45,2*7E
$GAGSV,3,2,10,13,16,033,29,21,06,097,30,24,18,281,45,26,44,088,39,2*7B
$GAGSV,3,3,10,31,67,294,50,33,30,150,43,2*7E
$GBGSV,3,1,11,02,04,106,,05,18,128,,10,06,080,,12,28,190,42,1*7A
$GBGSV,3,2,11,13,28,088,18,24,75,289,38,25,17,300,49,26,52,126,39,1*79
$GBGSV,3,3,11,29,10,039,28,33,01,259,25,35,53,072,42,1*47
$GBGSV,3,1,11,02,04,106,,05,18,128,,10,06,080,31,12,28,190,49,3*71
$GBGSV,3,2,11,13,28,088,30,24,75,289,,25,17,300,,26,52,126,,3*7D
$GBGSV,3,3,11,29,10,039,,33,01,259,,35,53,072,,3*4E
$GNGLL,5025.4464294,N,01411.3801767,E,212339.00,A,A*79
$GNRMC,212340.00,A,5025.4463739,N,01411.3803478,E,0.004,,241021,,,A,V*1E
$GNVTG,,T,,M,0.004,N,0.007,K,A*3E
$GNGGA,212340.00,5025.4463739,N,01411.3803478,E,1,12,0.76,221.607,M,44.078,M,,*45
$GNGSA,A,3,33,05,24,26,31,01,13,09,,,,,1.46,0.76,1.25,3*08
$GNGSA,A,3,12,13,24,25,26,35,,,,,,,1.46,0.76,1.25,4*02
$GAGSV,3,1,10,01,53,090,38,04,07,209,24,05,20,312,45,09,26,258,38,7*74
$GAGSV,3,2,10,13,16,033,27,21,06,097,22,24,18,281,46,26,44,088,39,7*70
$GAGSV,3,3,10,31,67,294,43,33,30,150,45,7*7F
$GAGSV,3,1,10,01,53,090,41,04,07,209,28,05,20,312,43,09,26,258,45,2*7F
$GAGSV,3,2,10,13,16,033,29,21,06,097,29,24,18,281,45,26,44,088,39,2*73
$GAGSV,3,3,10,31,67,294,50,33,30,150,43,2*7E
$GBGSV,3,1,11,02,04,106,,05,18,128,,10,06,080,,12,28,190,42,1*7A
$GBGSV,3,2,11,13,28,088,17,24,75,289,38,25,17,300,49,26,52,126,39,1*76
$GBGSV,3,3,11,29,10,039,28,33,01,259,25,35,53,072,42,1*47
$GBGSV,3,1,11,02,04,106,,05,18,128,,10,06,080,31,12,28,190,49,3*71
$GBGSV,3,2,11,13,28,088,30,24,75,289,,25,17,300,,26,52,126,,3*7D
$GBGSV,3,3,11,29,10,039,,33,01,259,,35,53,072,,3*4E
$GNGLL,5025.4463739,N,01411.3803478,E,212340.00,A,A*7D
$GNRMC,212341.00,A,5025.4463135,N,01411.3805421,E,0.004,,241021,,,A,V*1F
$GNVTG,,T,,M,0.004,N,0.007,K,A*3E
$GNGGA,212341.00,5025.4463135,N,01411.3805421,E,1,12,0.76,221.345,M,44.078,M,,*47
$GNGSA,A,3,33,05,24,26,31,01,13,09,,,,,1.46,0.76,1.25,3*08
$GNGSA,A,3,12,13,24,25,26,35,,,,,,,1.46,0.76,1.25,4*02
$GAGSV,3,1,10,01,53,090,38,04,07,209,24,05,20,312,45,09,26,258,38,7*74
$GAGSV,3,2,10,13,16,033,27,21,06,097,21,24,18,281,46,26,44,088,39,7*73
$GAGSV,3,3,10,31,67,294,43,33,30,150,45,7*7F
$GAGSV,3,1,10,01,53,090,41,04,07,209,28,05,20,312,43,09,26,258,45,2*7F
$GAGSV,3,2,10,13,16,033,29,21,06,097,29,24,18,281,45,26,44,088,39,2*73
$GAGSV,3,3,10,31,67,294,50,33,30,150,43,2*7E
$GBGSV,3,1,11,02,04,106,,05,18,128,,10,06,080,,12,28,190,42,1*7A
$GBGSV,3,2,11,13,28,088,15,24,75,289,38,25,17,300,49,26,52,126,39,1*74
$GBGSV,3,3,11,29,10,039,28,33,01,259,26,35,53,072,42,1*44
$GBGSV,3,1,11,02,04,106,,05,18,128,,10,06,080,31,12,28,190,49,3*71
$GBGSV,3,2,11,13,28,088,30,24,75,289,,25,17,300,,26,52,126,,3*7D
$GBGSV,3,3,11,29,10,039,,33,01,259,,35,53,072,,3*4E
$GNGLL,5025.4463135,N,01411.3805421,E,212341.00,A,A*7C
$GNRMC,212342.00,A,5025.4462619,N,01411.3807062,E,0.006,,241021,,,A,V*17
$GNVTG,,T,,M,0.006,N,0.011,K,A*3B
$GNGGA,212342.00,5025.4462619,N,01411.3807062,E,1,12,0.76,221.030,M,44.078,M,,*4C
$GNGSA,A,3,33,05,24,26,31,01,13,09,,,,,1.47,0.76,1.25,3*09
$GNGSA,A,3,12,13,24,25,26,35,,,,,,,1.47,0.76,1.25,4*03
$GAGSV,3,1,10,01,53,090,38,04,07,209,24,05,20,312,45,09,26,258,38,7*74
$GAGSV,3,2,10,13,16,033,27,21,06,097,21,24,18,281,46,26,44,088,39,7*73
$GAGSV,3,3,10,31,67,294,43,33,30,150,45,7*7F
$GAGSV,3,1,10,01,53,090,41,04,07,209,28,05,20,312,43,09,26,258,45,2*7F
$GAGSV,3,2,10,13,16,033,29,21,06,097,29,24,18,281,45,26,44,088,39,2*73
$GAGSV,3,3,10,31,67,294,50,33,30,150,43,2*7E
$GBGSV,3,1,11,02,04,106,,05,18,128,,10,06,080,,12,28,190,42,1*7A
$GBGSV,3,2,11,13,28,088,16,24,75,289,38,25,17,300,49,26,52,126,39,1*77
$GBGSV,3,3,11,29,10,039,28,33,01,259,26,35,53,072,42,1*44
$GBGSV,3,1,11,02,04,106,,05,18,128,,10,06,080,31,12,28,190,50,3*79
$GBGSV,3,2,11,13,28,088,29,24,75,289,,25,17,300,,26,52,126,,3*75
$GBGSV,3,3,11,29,10,039,,33,01,259,,35,53,072,,3*4E
$GNGLL,5025.4462619,N,01411.3807062,E,212342.00,A,A*76
$GNRMC,212343.00,A,5025.4462284,N,01411.3808360,E,0.006,,241021,,,A,V*18
$GNVTG,,T,,M,0.006,N,0.011,K,A*3B
$GNGGA,212343.00,5025.4462284,N,01411.3808360,E,1,12,0.76,220.778,M,44.078,M,,*49
$GNGSA,A,3,33,05,24,26,31,01,13,09,,,,,1.47,0.76,1.25,3*09
$GNGSA,A,3,12,13,24,25,26,35,,,,,,,1.47,0.76,1.25,4*03
$GAGSV,3,1,10,01,53,090,38,04,07,209,24,05,20,312,45,09,26,258,38,7*74
$GAGSV,3,2,10,13,16,033,27,21,06,097,20,24,18,281,46,26,44,088,39,7*72
$GAGSV,3,3,10,31,67,294,43,33,30,150,45,7*7F
$GAGSV,3,1,10,01,53,090,41,04,07,209,28,05,20,312,43,09,26,258,44,2*7E
$GAGSV,3,2,10,13,16,033,28,21,06,097,29,24,18,281,45,26,44,088,39,2*72
$GAGSV,3,3,10,31,67,294,50,33,30,150,43,2*7E
$GBGSV,3,1,11,02,04,106,,05,18,128,,10,06,080,,12,28,190,42,1*7A
$GBGSV,3,2,11,13,28,088,17,24,75,289,38,25,17,300,49,26,52,126,39,1*76
$GBGSV,3,3,11,29,10,039,28,33,01,259,26,35,53,072,42,1*44
$GBGSV,3,1,11,02,04,106,,05,18,128,,10,06,080,31,12,28,190,50,3*79
$GBGSV,3,2,11,13,28,088,29,24,75,289,,25,17,300,,26,52,126,,3*75
$GBGSV,3,3,11,29,10,039,,33,01,259,,35,53,072,,3*4E
$GNGLL,5025.4462284,N,01411.3808360,E,212343.00,A,A*79
$GNRMC,212344.00,A,5025.4461993,N,01411.3809333,E,0.006,,241021,,,A,V*16
$GNVTG,,T,,M,0.006,N,0.012,K,A*38
$GNGGA,212344.00,5025.4461993,N,01411.3809333,E,1,12,0.76,220.542,M,44.078,M,,*4C
$GNGSA,A,3,33,05,24,26,31,01,13,09,,,,,1.47,0.76,1.25,3*09
$GNGSA,A,3,12,13,24,25,26,35,,,,,,,1.47,0.76,1.25,4*03
$GAGSV,3,1,10,01,53,090,38,04,07,209,23,05,20,312,45,09,26,258,38,7*73
$GAGSV,3,2,10,13,16,033,27,21,06,097,20,24,18,281,46,26,44,088,39,7*72
$GAGSV,3,3,10,31,67,294,43,33,30,150,45,7*7F
$GAGSV,3,1,10,01,53,090,41,04,07,209,29,05,20,312,43,09,26,258,44,2*7F
$GAGSV,3,2,10,13,16,033,29,21,06,097,29,24,18,281,45,26,44,088,39,2*73
$GAGSV,3,3,10,31,67,294,50,33,30,150,43,2*7E
$GBGSV,3,1,11,02,04,106,,05,18,128,,10,06,080,,12,28,190,42,1*7A
$GBGSV,3,2,11,13,28,088,18,24,75,289,38,25,17,300,49,26,52,126,39,1*79
$GBGSV,3,3,11,29,10,039,28,33,01,259,26,35,53,072,42,1*44
$GBGSV,3,1,11,02,04,106,,05,18,128,,10,06,080,31,12,28,190,50,3*79
$GBGSV,3,2,11,13,28,088,30,24,75,289,,25,17,300,,26,52,126,,3*7D
$GBGSV,3,3,11,29,10,039,,33,01,259,,35,53,072,,3*4E
$GNGLL,5025.4461993,N,01411.3809333,E,212344.00,A,A*77
$GNRMC,212345.00,A,5025.4461715,N,01411.3810300,E,0.011,,241021,,,A,V*19
$GNVTG,,T,,M,0.011,N,0.021,K,A*3E
$GNGGA,212345.00,5025.4461715,N,01411.3810300,E,1,12,0.76,220.258,M,44.078,M,,*49
$GNGSA,A,3,33,05,24,26,31,01,13,09,,,,,1.47,0.76,1.25,3*09
$GNGSA,A,3,12,13,24,25,26,35,,,,,,,1.47,0.76,1.25,4*03
$GAGSV,3,1,10,01,53,090,38,04,07,209,23,05,20,312,45,09,26,258,38,7*73
$GAGSV,3,2,10,13,16,033,27,21,06,097,21,24,18,281,46,26,44,088,38,7*72
$GAGSV,3,3,10,31,67,294,43,33,30,150,45,7*7F
$GAGSV,3,1,10,01,53,090,41,04,07,209,29,05,20,312,43,09,26,258,44,2*7F
$GAGSV,3,2,10,13,16,033,29,21,06,097,29,24,18,281,45,26,44,088,39,2*73
$GAGSV,3,3,10,31,67,294,50,33,30,150,43,2*7E
$GBGSV,3,1,11,02,04,106,,05,18,128,,10,06,080,,12,28,190,42,1*7A
$GBGSV,3,2,11,13,28,088,18,24,75,289,37,25,17,300,49,26,52,126,39,1*76
$GBGSV,3,3,11,29,10,039,27,33,01,259,26,35,53,072,42,1*4B
$GBGSV,3,1,11,02,04,106,,05,18,128,,10,06,080,30,12,28,190,50,3*78
$GBGSV,3,2,11,13,28,088,29,24,75,289,,25,17,300,,26,52,126,,3*75
$GBGSV,3,3,11,29,10,039,,33,01,259,,35,53,072,,3*4E
$GNGLL,5025.4461715,N,01411.3810300,E,212345.00,A,A*7E
$GNRMC,212346.00,A,5025.4461441,N,01411.3811134,E,0.013,,241021,,,A,V*1E
$GNVTG,,T,,M,0.013,N,0.024,K,A*39
$GNGGA,212346.00,5025.4461441,N,01411.3811134,E,1,12,0.76,219.993,M,44.078,M,,*4A
$GNGSA,A,3,33,05,24,26,31,01,13,09,,,,,1.47,0.76,1.25,3*09
$GNGSA,A,3,12,13,24,25,26,35,,,,,,,1.47,0.76,1.25,4*03
$GAGSV,3,1,10,01,53,090,38,04,07,209,22,05,20,312,45,09,26,258,38,7*72
$GAGSV,3,2,10,13,16,033,27,21,06,097,21,24,18,281,46,26,44,088,38,7*72
$GAGSV,3,3,10,31,67,294,43,33,30,150,45,7*7F
$GAGSV,3,1,10,01,53,090,41,04,07,209,29,05,20,312,43,09,26,258,44,2*7F
$GAGSV,3,2,10,13,16,033,28,21,06,097,29,24,18,281,45,26,44,088,39,2*72
$GAGSV,3,3,10,31,67,294,50,33,30,150,42,2*7F
$GBGSV,3,1,11,02,04,106,,05,18,128,,10,06,080,,12,28,190,42,1*7A
$GBGSV,3,2,11,13,28,088,20,24,75,289,37,25,17,300,49,26,52,126,39,1*7D
$GBGSV,3,3,11,29,10,039,27,33,01,259,25,35,53,072,42,1*48
$GBGSV,3,1,11,02,04,106,,05,18,128,,10,06,080,30,12,28,190,50,3*78
$GBGSV,3,2,11,13,28,088,29,24,75,289,,25,17,300,,26,52,126,,3*75
$GBGSV,3,3,11,29,10,039,,33,01,259,,35,53,072,,3*4E
$GNGLL,5025.4461441,N,01411.3811134,E,212346.00,A,A*7B
$GNRMC,212347.00,A,5025.4461194,N,01411.3811839,E,0.006,,241021,,,A,V*12
$GNVTG,,T,,M,0.006,N,0.011,K,A*3B
$GNGGA,212347.00,5025.4461194,N,01411.3811839,E,1,12,0.76,219.739,M,44.078,M,,*4C
$GNGSA,A,3,33,05,24,26,31,01,13,09,,,,,1.47,0.76,1.25,3*09
$GNGSA,A,3,12,13,24,25,26,35,,,,,,,1.47,0.76,1.25,4*03
$GAGSV,3,1,10,01,53,090,38,04,07,209,23,05,20,312,45,09,26,258,39,7*72
$GAGSV,3,2,10,13,16,033,26,21,06,097,21,24,18,281,46,26,44,088,38,7*73
$GAGSV,3,3,10,31,67,294,43,33,30,150,45,7*7F
$GAGSV,3,1,10,01,53,090,41,04,07,209,28,05,20,312,43,09,26,258,44,2*7E
$GAGSV,3,2,10,13,16,033,28,21,06,097,29,24,18,281,45,26,44,088,39,2*72
$GAGSV,3,3,10,31,67,294,50,33,30,150,42,2*7F
$GBGSV,3,1,11,02,04,106,,05,18,128,,10,06,080,,12,28,190,42,1*7A
$GBGSV,3,2,11,13,28,088,21,24,75,289,37,25,17,300,49,26,52,126,39,1*7C
$GBGSV,3,3,11,29,10,039,27,33,01,259,25,35,53,072,42,1*48
$GBGSV,3,1,11,02,04,106,,05,18,128,,10,06,080,30,12,28,190,50,3*78
$GBGSV,3,2,11,13,28,088,29,24,75,289,,25,17,300,,26,52,126,,3*75
$GBGSV,3,3,11,29,10,039,,33,01,259,,35,53,072,,3*4E
$GNGLL,5025.4461194,N,01411.3811839,E,212347.00,A,A*73
$GNRMC,212348.00,A,5025.4461018,N,01411.3812489,E,0.008,,241021,,,A,V*12
$GNVTG,,T,,M,0.008,N,0.014,K,A*30
$GNGGA,212348.00,5025.4461018,N,01411.3812489,E,1,12,0.76,219.530,M,44.078,M,,*49
$GNGSA,A,3,33,05,24,26,31,01,13,09,,,,,1.47,0.76,1.25,3*09
$GNGSA,A,3,12,13,24,25,26,35,,,,,,,1.47,0.76,1.25,4*03
$GAGSV,3,1,10,01,53,090,38,04,07,209,22,05,20,312,45,09,26,258,39,7*73
$GAGSV,3,2,10,13,16,033,26,21,06,097,21,24,18,281,46,26,44,088,38,7*73
$GAGSV,3,3,10,31,67,294,43,33,30,150,45,7*7F
$GAGSV,3,1,10,01,53,090,41,04,07,209,28,05,20,312,43,09,26,258,44,2*7E
$GAGSV,3,2,10,13,16,033,29,21,06,097,29,24,18,281,45,26,44,088,39,2*73
$GAGSV,3,3,10,31,67,294,50,33,30,150,42,2*7F
$GBGSV,3,1,11,02,04,106,,05,18,128,,10,06,080,,12,28,190,42,1*7A
$GBGSV,3,2,11,13,28,088,21,24,75,289,37,25,17,300,49,26,52,126,39,1*7C
$GBGSV,3,3,11,29,10,039,27,33,01,259,25,35,53,072,42,1*48
$GBGSV,3,1,11,02,04,106,,05,18,128,,10,06,080,30,12,28,190,50,3*78
$GBGSV,3,2,11,13,28,088,29,24,75,289,,25,17,300,,26,52,126,,3*75
$GBGSV,3,3,11,29,10,039,,33,01,259,,35,53,072,,3*4E
$GNGLL,5025.4461018,N,01411.3812489,E,212348.00,A,A*7D
$GNRMC,212349.00,A,5025.4460870,N,01411.3813165,E,0.007,,241021,,,A,V*1D
$GNVTG,,T,,M,0.007,N,0.014,K,A*3F
$GNGGA,212349.00,5025.4460870,N,01411.3813165,E,1,12,0.76,219.349,M,44.078,M,,*41
$GNGSA,A,3,33,05,24,26,31,01,13,09,,,,,1.47,0.76,1.25,3*09
$GNGSA,A,3,12,13,24,25,26,35,,,,,,,1.47,0.76,1.25,4*03
$GAGSV,3,1,10,01,53,090,38,04,07,209,22,05,20,312,45,09,26,258,39,7*73
$GAGSV,3,2,10,13,16,033,26,21,06,097,22,24,18,281,46,26,44,088,38,7*70
$GAGSV,3,3,10,31,67,294,43,33,30,150,45,7*7F
$GAGSV,3,1,10,01,53,090,41,04,07,209,28,05,20,312,43,09,26,258,45,2*7F
$GAGSV,3,2,10,13,16,033,28,21,06,097,29,24,18,281,45,26,44,088,39,2*72
$GAGSV,3,3,10,31,67,294,50,33,30,150,42,2*7F
$GBGSV,3,1,11,02,04,106,,05,18,128,,10,06,080,,12,28,190,42,1*7A
$GBGSV,3,2,11,13,28,088,22,24,75,289,37,25,17,300,49,26,52,126,39,1*7F
$GBGSV,3,3,11,29,10,039,26,33,01,259,26,35,53,072,42,1*4A
$GBGSV,3,1,11,02,04,106,,05,18,128,,10,06,080,30,12,28,190,50,3*78
$GBGSV,3,2,11,13,28,088,29,24,75,289,,25,17,300,,26,52,126,,3*75
$GBGSV,3,3,11,29,10,039,,33,01,259,,35,53,072,,3*4E
$GNGLL,5025.4460870,N,01411.3813165,E,212349.00,A,A*7D
$GNRMC,212350.00,A,5025.4460770,N,01411.3813670,E,0.027,,241021,,,A,V*1B
$GNVTG,,T,,M,0.027,N,0.049,K,A*35
$GNGGA,212350.00,5025.4460770,N,01411.3813670,E,1,12,0.76,219.177,M,44.078,M,,*4A
$GNGSA,A,3,33,05,24,26,31,01,13,09,,,,,1.47,0.76,1.25,3*09
$GNGSA,A,3,12,13,24,25,26,35,,,,,,,1.47,0.76,1.25,4*03
$GAGSV,3,1,10,01,53,090,37,04,07,209,22,05,20,312,45,09,26,258,39,7*7C
$GAGSV,3,2,10,13,16,033,26,21,05,097,22,24,18,281,46,26,44,088,38,7*73
$GAGSV,3,3,10,31,67,294,43,33,30,150,45,7*7F
$GAGSV,3,1,10,01,53,090,41,04,07,209,28,05,20,312,43,09,26,258,45,2*7F
$GAGSV,3,2,10,13,16,033,28,21,05,097,29,24,18,281,45,26,44,088,39,2*71
$GAGSV,3,3,10,31,67,294,50,33,30,150,42,2*7F
$GBGSV,3,1,11,02,04,106,,05,18,128,,10,06,080,,12,28,190,42,1*7A
$GBGSV,3,2,11,13,28,088,23,24,75,289,37,25,17,300,49,26,52,126,38,1*7F
$GBGSV,3,3,11,29,10,039,26,33,01,259,25,35,53,072,42,1*49
$GBGSV,3,1,11,02,04,106,,05,18,128,,10,06,080,30,12,28,190,50,3*78
$GBGSV,3,2,11,13,28,088,29,24,75,289,,25,17,300,,26,52,126,,3*75
$GBGSV,3,3,11,29,10,039,,33,01,259,,35,53,072,,3*4E
$GNGLL,5025.4460770,N,01411.3813670,E,212350.00,A,A*79
$GNRMC,212351.00,A,5025.4460660,N,01411.3814166,E,0.003,,241021,,,A,V*1B
$GNVTG,,T,,M,0.003,N,0.005,K,A*3B
$GNGGA,212351.00,5025.4460660,N,01411.3814166,E,1,12,0.76,219.035,M,44.078,M,,*4B
$GNGSA,A,3,33,05,24,26,31,01,13,09,,,,,1.47,0.76,1.25,3*09
$GNGSA,A,3,12,13,24,25,26,35,,,,,,,1.47,0.76,1.25,4*03
$GAGSV,3,1,10,01,53,090,38,04,07,209,22,05,20,312,45,09,26,258,39,7*73
$GAGSV,3,2,10,13,16,033,26,21,05,097,21,24,18,281,46,26,44,088,38,7*70
$GAGSV,3,3,10,31,67,294,43,33,30,150,45,7*7F
$GAGSV,3,1,10,01,53,090,41,04,07,209,28,05,20,312,43,09,26,258,44,2*7E
$GAGSV,3,2,10,13,16,033,29,21,05,097,29,24,18,281,45,26,44,088,39,2*70
$GAGSV,3,3,10,31,67,294,50,33,30,150,42,2*7F
$GBGSV,3,1,11,02,04,106,,05,18,128,,10,06,080,,12,28,190,42,1*7A
$GBGSV,3,2,11,13,28,088,23,24,75,289,37,25,17,300,49,26,52,126,38,1*7F
$GBGSV,3,3,11,29,10,039,26,33,01,259,25,35,53,072,42,1*49
$GBGSV,3,1,11,02,04,106,,05,18,128,,10,06,080,30,12,28,190,50,3*78
$GBGSV,3,2,11,13,28,088,29,24,75,289,,25,17,300,,26,52,126,,3*75
$GBGSV,3,3,11,29,10,039,,33,01,259,,35,53,072,,3*4E
$GNGLL,5025.4460660,N,01411.3814166,E,212351.00,A,A*7F
$GNRMC,212352.00,A,5025.4460579,N,01411.3814714,E,0.000,,241021,,,A,V*13
$GNVTG,,T,,M,0.000,N,0.001,K,A*3C
$GNGGA,212352.00,5025.4460579,N,01411.3814714,E,1,12,0.76,218.889,M,44.078,M,,*4E
$GNGSA,A,3,33,05,24,26,31,01,13,09,,,,,1.47,0.76,1.25,3*09
$GNGSA,A,3,12,13,24,25,26,35,,,,,,,1.47,0.76,1.25,4*03
$GAGSV,3,1,10,01,53,090,38,04,07,209,22,05,20,312,45,09,26,258,39,7*73
$GAGSV,3,2,10,13,16,033,25,21,05,097,20,24,18,281,46,26,44,088,38,7*72
$GAGSV,3,3,10,31,67,294,43,33,30,150,45,7*7F
$GAGSV,3,1,10,01,53,090,41,04,07,209,28,05,20,312,43,09,26,258,45,2*7F
$GAGSV,3,2,10,13,16,033,29,21,05,097,29,24,18,281,45,26,44,088,38,2*71
$GAGSV,3,3,10,31,67,294,50,33,30,150,42,2*7F
$GBGSV,3,1,11,02,04,106,,05,18,128,,10,06,080,,12,28,190,42,1*7A
$GBGSV,3,2,11,13,28,088,23,24,75,289,37,25,17,300,49,26,52,126,38,1*7F
$GBGSV,3,3,11,29,10,039,25,33,01,259,25,35,53,072,42,1*4A
$GBGSV,3,1,11,02,04,106,,05,18,128,,10,06,080,29,12,28,190,50,3*70
$GBGSV,3,2,11,13,28,088,29,24,75,289,,25,17,300,,26,52,126,,3*75
$GBGSV,3,3,11,29,10,039,,33,01,259,,35,53,072,,3*4E
$GNGLL,5025.4460579,N,01411.3814714,E,212352.00,A,A*74
$GNRMC,212353.00,A,5025.4460489,N,01411.3815260,E,0.013,,241021,,,A,V*19
$GNVTG,,T,,M,0.013,N,0.024,K,A*39
$GNGGA,212353.00,5025.4460489,N,01411.3815260,E,1,12,0.76,218.752,M,44.078,M,,*4F
$GNGSA,A,3,33,05,24,26,31,01,13,09,,,,,1.47,0.76,1.25,3*09
$GNGSA,A,3,12,13,24,25,26,35,,,,,,,1.47,0.76,1.25,4*03
$GAGSV,3,1,10,01,53,090,38,04,07,209,22,05,20,312,45,09,26,258,39,7*73
$GAGSV,3,2,10,13,16,033,25,21,05,097,20,24,18,281,46,26,44,088,38,7*72
$GAGSV,3,3,10,31,67,294,43,33,30,150,45,7*7F
$GAGSV,3,1,10,01,53,090,41,04,07,209,27,05,20,312,43,09,26,258,45,2*70
$GAGSV,3,2,10,13,16,033,29,21,05,097,29,24,18,281,45,26,44,088,38,2*71
$GAGSV,3,3,10,31,67,294,50,33,30,150,42,2*7F
$GBGSV,3,1,11,02,04,106,,05,18,128,,10,06,080,,12,28,190,42,1*7A
$GBGSV,3,2,11,13,28,088,24,24,75,289,37,25,17,300,49,26,52,126,38,1*78
$GBGSV,3,3,11,29,10,039,25,33,01,259,26,35,53,072,42,1*49
$GBGSV,3,1,11,02,04,106,,05,18,128,,10,06,080,29,12,28,190,50,3*70
$GBGSV,3,2,11,13,28,088,29,24,75,289,,25,17,300,,26,52,126,,3*75
$GBGSV,3,3,11,29,10,039,,33,01,259,,35,53,072,,3*4E
$GNGLL,5025.4460489,N,01411.3815260,E,212353.00,A,A*7C
$GNRMC,212354.00,A,5025.4460428,N,01411.3815614,E,0.011,,241021,,,A,V*10
$GNVTG,,T,,M,0.011,N,0.021,K,A*3E
$GNGGA,212354.00,5025.4460428,N,01411.3815614,E,1,12,0.76,218.701,M,44.078,M,,*42
$GNGSA,A,3,33,05,24,26,31,01,13,09,,,,,1.47,0.76,1.25,3*09
$GNGSA,A,3,12,13,24,25,26,35,,,,,,,1.47,0.76,1.25,4*03
$GAGSV,3,1,10,01,53,090,38,04,07,209,22,05,20,312,45,09,26,258,39,7*73
$GAGSV,3,2,10,13,16,033,25,21,05,097,20,24,18,281,46,26,44,088,38,7*72
$GAGSV,3,3,10,31,67,294,43,33,30,150,45,7*7F
$GAGSV,3,1,10,01,53,090,41,04,07,209,27,05,20,312,43,09,26,258,45,2*70
$GAGSV,3,2,10,13,16,033,29,21,05,097,29,24,18,281,45,26,44,088,38,2*71
$GAGSV,3,3,10,31,67,294,50,33,30,150,42,2*7F
$GBGSV,3,1,11,02,04,106,,05,18,128,,10,06,080,,12,28,190,43,1*7B
$GBGSV,3,2,11,13,28,088,25,24,75,289,38,25,17,300,50,26,52,126,38,1*7E
$GBGSV,3,3,11,29,10,039,25,33,01,259,26,35,53,072,42,1*49
$GBGSV,3,1,11,02,04,106,,05,18,128,,10,06,080,29,12,28,190,50,3*70
$GBGSV,3,2,11,13,28,088,29,24,75,289,,25,17,300,,26,52,126,,3*75
$GBGSV,3,3,11,29,10,039,,33,01,259,,35,53,072,,3*4E
$GNGLL,5025.4460428,N,01411.3815614,E,212354.00,A,A*77
$GNRMC,212355.00,A,5025.4460375,N,01411.3815985,E,0.016,,241021,,,A,V*1E
$GNVTG,,T,,M,0.016,N,0.030,K,A*39
$GNGGA,212355.00,5025.4460375,N,01411.3815985,E,1,12,0.76,218.651,M,44.078,M,,*4F
$GNGSA,A,3,33,05,24,26,31,01,13,09,,,,,1.47,0.76,1.25,3*09
$GNGSA,A,3,12,13,24,25,26,35,,,,,,,1.47,0.76,1.25,4*03
$GAGSV,3,1,10,01,53,090,38,04,07,209,21,05,20,312,45,09,26,258,39,7*70
$GAGSV,3,2,10,13,16,033,25,21,05,097,20,24,18,281,46,26,44,088,37,7*7D
$GAGSV,3,3,10,31,67,294,43,33,30,150,45,7*7F
$GAGSV,3,1,10,01,53,090,41,04,07,209,27,05,20,312,43,09,26,258,45,2*70
$GAGSV,3,2,10,13,16,033,29,21,05,097,29,24,18,281,45,26,44,088,38,2*71
$GAGSV,3,3,10,31,67,294,50,33,30,150,42,2*7F
$GBGSV,3,1,11,02,04,106,,05,18,128,,10,06,080,,12,28,190,43,1*7B
$GBGSV,3,2,11,13,28,088,26,24,75,289,38,25,17,300,50,26,52,126,38,1*7D
$GBGSV,3,3,11,29,10,039,24,33,01,259,26,35,53,072,42,1*48
$GBGSV,3,1,11,02,04,106,,05,18,128,,10,06,080,28,12,28,190,50,3*71
$GBGSV,3,2,11,13,28,088,29,24,75,289,,25,17,300,,26,52,126,,3*75
$GBGSV,3,3,11,29,10,039,,33,01,259,,35,53,072,,3*4E
$GNGLL,5025.4460375,N,01411.3815985,E,212355.00,A,A*7E
$GNRMC,212356.00,A,5025.4460344,N,01411.3816345,E,0.007,,241021,,,A,V*1A
$GNVTG,,T,,M,0.007,N,0.013,K,A*38
$GNGGA,212356.00,5025.4460344,N,01411.3816345,E,1,12,0.76,218.587,M,44.078,M,,*43
$GNGSA,A,3,33,05,24,26,31,01,13,09,,,,,1.47,0.76,1.25,3*09
$GNGSA,A,3,12,13,24,25,26,35,,,,,,,1.47,0.76,1.25,4*03
$GAGSV,3,1,10,01,53,090,38,04,07,209,21,05,20,312,45,09,26,258,39,7*70
$GAGSV,3,2,10,13,16,033,25,21,05,097,19,24,18,281,46,26,44,088,37,7*77
$GAGSV,3,3,10,31,67,294,43,33,30,150,45,7*7F
$GAGSV,3,1,10,01,53,090,41,04,07,209,27,05,20,312,43,09,26,258,45,2*70
$GAGSV,3,2,10,13,16,033,29,21,05,097,29,24,18,281,45,26,44,088,38,2*71
$GAGSV,3,3,10,31,67,294,50,33,30,150,42,2*7F
$GBGSV,3,1,11,02,04,106,,05,18,128,,10,06,080,,12,28,190,43,1*7B
$GBGSV,3,2,11,13,28,088,26,24,75,289,38,25,17,300,50,26,52,126,38,1*7D
$GBGSV,3,3,11,29,10,039,24,33,01,259,25,35,53,072,42,1*4B
$GBGSV,3,1,11,02,04,106,,05,18,128,,10,06,080,28,12,28,190,50,3*71
$GBGSV,3,2,11,13,28,088,29,24,75,289,,25,17,300,,26,52,126,,3*75
$GBGSV,3,3,11,29,10,039,,33,01,259,,35,53,072,,3*4E
$GNGLL,5025.4460344,N,01411.3816345,E,212356.00,A,A*7A
$GNRMC,212357.00,A,5025.4460326,N,01411.3816694,E,0.007,,241021,,,A,V*16
$GNVTG,,T,,M,0.007,N,0.013,K,A*38
$GNGGA,212357.00,5025.4460326,N,01411.3816694,E,1,12,0.76,218.533,M,44.078,M,,*40
$GNGSA,A,3,33,05,24,26,31,01,13,09,,,,,1.47,0.76,1.25,3*09
$GNGSA,A,3,12,13,24,25,26,35,,,,,,,1.47,0.76,1.25,4*03
$GAGSV,3,1,10,01,53,090,38,04,07,209,21,05,20,312,45,09,26,258,39,7*70
$GAGSV,3,2,10,13,16,033,25,21,05,097,19,24,18,281,46,26,44,088,37,7*77
$GAGSV,3,3,10,31,67,294,43,33,31,150,45,7*7E
$GAGSV,3,1,10,01,53,090,41,04,07,209,27,05,20,312,43,09,26,258,45,2*70
$GAGSV,3,2,10,13,16,033,29,21,05,097,29,24,18,281,45,26,44,088,38,2*71
$GAGSV,3,3,10,31,67,294,50,33,31,150,42,2*7E
$GBGSV,3,1,11,02,04,106,,05,18,128,,10,06,080,,12,28,190,43,1*7B
$GBGSV,3,2,11,13,28,088,26,24,75,289,38,25,17,300,49,26,52,126,38,1*75
$GBGSV,3,3,11,29,10,039,25,33,01,259,26,35,53,072,42,1*49
$GBGSV,3,1,11,02,04,106,,05,18,128,,10,06,080,28,12,28,190,50,3*71
$GBGSV,3,2,11,13,28,088,29,24,75,289,,25,17,300,,26,52,126,,3*75
$GBGSV,3,3,11,29,10,039,,33,01,259,,35,53,072,,3*4E
$GNGLL,5025.4460326,N,01411.3816694,E,212357.00,A,A*76
$GNRMC,212358.00,A,5025.4460338,N,01411.3817045,E,0.016,,241021,,,A,V*1D
$GNVTG,,T,,M,0.016,N,0.030,K,A*39
$GNGGA,212358.00,5025.4460338,N,01411.3817045,E,1,12,0.76,218.470,M,44.078,M,,*4D
$GNGSA,A,3,33,05,24,26,31,01,13,09,,,,,1.47,0.76,1.25,3*09
$GNGSA,A,3,12,13,24,25,26,35,,,,,,,1.47,0.76,1.25,4*03
$GAGSV,3,1,10,01,53,090,38,04,07,209,22,05,20,312,45,09,26,258,40,7*7D
$GAGSV,3,2,10,13,16,033,24,21,05,097,18,24,18,281,46,26,44,088,37,7*77
$GAGSV,3,3,10,31,67,294,43,33,31,150,44,7*7F
$GAGSV,3,1,10,01,53,090,41,04,07,209,28,05,20,312,43,09,26,258,45,2*7F
$GAGSV,3,2,10,13,16,033,29,21,05,097,29,24,18,281,45,26,44,088,38,2*71
$GAGSV,3,3,10,31,67,294,50,33,31,150,41,2*7D
$GBGSV,3,1,11,02,04,106,,05,18,128,,10,06,080,,12,28,190,43,1*7B
$GBGSV,3,2,11,13,28,088,26,24,75,289,38,25,17,300,49,26,52,126,38,1*75
$GBGSV,3,3,11,29,10,039,25,33,01,259,25,35,53,072,42,1*4A
$GBGSV,3,1,11,02,04,106,,05,18,128,,10,06,080,28,12,28,190,50,3*71
$GBGSV,3,2,11,13,28,088,28,24,75,289,,25,17,300,,26,52,126,,3*74
$GBGSV,3,3,11,29,10,039,,33,01,259,,35,53,072,,3*4E
$GNGLL,5025.4460338,N,01411.3817045,E,212358.00,A,A*7D
$GNRMC,212359.00,A,5025.4460348,N,01411.3817397,E,0.013,,241021,,,A,V*12
$GNVTG,,T,,M,0.013,N,0.024,K,A*39
$GNGGA,212359.00,5025.4460348,N,01411.3817397,E,1,12,0.76,218.407,M,44.078,M,,*47
$GNGSA,A,3,33,05,24,26,31,01,13,09,,,,,1.47,0.76,1.25,3*09
$GNGSA,A,3,12,13,24,25,26,35,,,,,,,1.47,0.76,1.25,4*03
$GAGSV,3,1,10,01,53,090,38,04,07,209,22,05,20,312,45,09,26,258,40,7*7D
$GAGSV,3,2,10,13,16,033,24,21,05,097,18,24,18,281,46,26,44,088,37,7*77
$GAGSV,3,3,10,31,67,294,43,33,31,150,44,7*7F
$GAGSV,3,1,10,01,53,090,41,04,07,209,28,05,20,312,43,09,26,258,45,2*7F
$GAGSV,3,2,10,13,16,033,29,21,05,097,29,24,18,281,45,26,44,088,38,2*71
$GAGSV,3,3,10,31,67,294,50,33,31,150,41,2*7D
$GBGSV,3,1,11,02,04,106,,05,18,128,,10,06,080,,12,28,190,43,1*7B
$GBGSV,3,2,11,13,28,088,26,24,75,289,38,25,17,300,49,26,52,126,38,1*75
$GBGSV,3,3,11,29,10,039,25,33,01,259,25,35,53,072,42,1*4A
$GBGSV,3,1,11,02,04,106,,05,18,128,,10,06,080,28,12,28,190,50,3*71
$GBGSV,3,2,11,13,28,088,28,24,75,289,,25,17,300,,26,52,126,,3*74
$GBGSV,3,3,11,29,10,039,,33,01,259,,35,53,072,,3*4E
$GNGLL,5025.4460348,N,01411.3817397,E,212359.00,A,A*77
$GNRMC,212400.00,A,5025.4460311,N,01411.3817529,E,0.005,,241021,,,A,V*11
$GNVTG,,T,,M,0.005,N,0.009,K,A*31
$GNGGA,212400.00,5025.4460311,N,01411.3817529,E,1,12,0.76,218.437,M,44.078,M,,*40
$GNGSA,A,3,33,05,24,26,31,01,13,09,,,,,1.47,0.76,1.25,3*09
$GNGSA,A,3,12,13,24,25,26,35,,,,,,,1.47,0.76,1.25,4*03
$GAGSV,3,1,10,01,53,090,38,04,07,209,22,05,20,312,45,09,26,258,40,7*7D
$GAGSV,3,2,10,13,16,033,24,21,05,097,18,24,18,281,46,26,44,088,37,7*77
$GAGSV,3,3,10,31,67,294,43,33,31,150,44,7*7F
$GAGSV,3,1,10,01,53,090,41,04,07,209,28,05,20,312,43,09,26,258,45,2*7F
$GAGSV,3,2,10,13,16,033,29,21,05,097,29,24,18,281,45,26,44,088,38,2*71
$GAGSV,3,3,10,31,67,294,50,33,31,150,41,2*7D
$GBGSV,3,1,11,02,04,106,,05,18,128,,10,06,080,,12,28,190,43,1*7B
$GBGSV,3,2,11,13,28,088,26,24,75,289,39,25,17,300,49,26,52,126,38,1*74
$GBGSV,3,3,11,29,10,039,25,33,01,259,25,35,53,072,42,1*4A
$GBGSV,3,1,11,02,04,106,,05,18,128,,10,06,080,28,12,28,190,49,3*79
$GBGSV,3,2,11,13,28,088,28,24,75,289,,25,17,300,,26,52,126,,3*74
$GBGSV,3,3,11,29,10,039,,33,01,259,,35,53,072,,3*4E
$GNGLL,5025.4460311,N,01411.3817529,E,212400.00,A,A*73
$GNRMC,212401.00,A,5025.4460249,N,01411.3817689,E,0.003,,241021,,,A,V*13
$GNVTG,,T,,M,0.003,N,0.006,K,A*38
$GNGGA,212401.00,5025.4460249,N,01411.3817689,E,1,12,0.76,218.443,M,44.078,M,,*47
$GNGSA,A,3,33,05,24,26,31,01,13,09,,,,,1.47,0.76,1.25,3*09
$GNGSA,A,3,12,13,24,25,26,35,,,,,,,1.47,0.76,1.25,4*03
$GAGSV,3,1,10,01,53,090,38,04,07,209,22,05,20,312,45,09,26,258,40,7*7D
$GAGSV,3,2,10,13,16,033,24,21,05,097,17,24,18,281,46,26,44,088,37,7*78
$GAGSV,3,3,10,31,67,294,42,33,31,150,44,7*7E
$GAGSV,3,1,10,01,53,090,41,04,07,209,28,05,20,312,43,09,26,258,45,2*7F
$GAGSV,3,2,10,13,16,033,29,21,05,097,29,24,18,281,45,26,44,088,38,2*71
$GAGSV,3,3,10,31,67,294,50,33,31,150,41,2*7D
$GBGSV,3,1,11,02,04,106,,05,18,128,,10,06,080,,12,28,190,43,1*7B
$GBGSV,3,2,11,13,28,088,26,24,75,289,39,25,17,300,49,26,52,126,38,1*74
$GBGSV,3,3,11,29,10,039,24,33,01,259,25,35,53,072,42,1*4B
$GBGSV,3,1,11,02,04,106,,05,18,128,,10,06,080,28,12,28,190,50,3*71
$GBGSV,3,2,11,13,28,088,28,24,75,289,,25,17,300,,26,52,126,,3*74
$GBGSV,3,3,11,29,10,039,,33,01,259,,35,53,072,,3*4E
$GNGLL,5025.4460249,N,01411.3817689,E,212401.00,A,A*77
$GNRMC,212402.00,A,5025.4460237,N,01411.3817865,E,0.012,,241021,,,A,V*15
$GNVTG,,T,,M,0.012,N,0.021,K,A*3D
$GNGGA,212402.00,5025.4460237,N,01411.3817865,E,1,12,0.76,218.442,M,44.078,M,,*40
$GNGSA,A,3,33,05,24,26,31,01,13,09,,,,,1.47,0.76,1.25,3*09
$GNGSA,A,3,12,13,24,25,26,35,,,,,,,1.47,0.76,1.25,4*03
$GAGSV,3,1,10,01,53,090,38,04,07,209,23,05,20,312,45,09,26,258,40,7*7C
$GAGSV,3,2,10,13,16,033,23,21,05,097,16,24,18,281,46,26,44,088,37,7*7E
$GAGSV,3,3,10,31,67,294,43,33,31,150,44,7*7F
$GAGSV,3,1,10,01,53,090,41,04,07,209,28,05,20,312,43,09,26,258,45,2*7F
$GAGSV,3,2,10,13,16,033,28,21,05,097,29,24,18,281,45,26,44,088,38,2*70
$GAGSV,3,3,10,31,67,294,50,33,31,150,41,2*7D
$GBGSV,3,1,11,02,04,106,,05,18,128,,10,06,080,,12,28,190,43,1*7B
$GBGSV,3,2,11,13,28,088,27,24,75,289,39,25,17,300,49,26,52,126,38,1*75
$GBGSV,3,3,11,29,10,039,25,33,01,259,25,35,53,072,42,1*4A
$GBGSV,3,1,11,02,04,106,,05,18,128,,10,06,080,28,12,28,190,49,3*79
$GBGSV,3,2,11,13,28,088,28,24,75,289,,25,17,300,,26,52,126,,3*74
$GBGSV,3,3,11,29,10,039,,33,01,259,,35,53,072,,3*4E
$GNGLL,5025.4460237,N,01411.3817865,E,212402.00,A,A*71
$GNRMC,212403.00,A,5025.4458499,N,01411.3818361,E,0.060,,241021,,,D,V*1D
$GNVTG,,T,,M,0.060,N,0.111,K,D*3F
$GNGGA,212403.00,5025.4458499,N,01411.3818361,E,2,12,0.76,218.434,M,44.078,M,1.0,0084*69
$GNGSA,A,3,33,05,24,26,31,01,13,09,,,,,1.47,0.76,1.25,3*09
$GNGSA,A,3,12,13,24,25,26,35,,,,,,,1.47,0.76,1.25,4*03
$GAGSV,3,1,10,01,53,090,38,04,07,209,22,05,20,312,45,09,26,258,40,7*7D
$GAGSV,3,2,10,13,16,033,24,21,05,097,17,24,18,281,46,26,44,088,37,7*78
$GAGSV,3,3,10,31,67,294,42,33,31,150,44,7*7E
$GAGSV,3,1,10,01,53,090,41,04,07,209,28,05,20,312,43,09,26,258,45,2*7F
$GAGSV,3,2,10,13,16,033,29,21,05,097,29,24,18,281,44,26,44,088,38,2*70
$GAGSV,3,3,10,31,67,294,50,33,31,150,41,2*7D
$GBGSV,3,1,11,02,04,106,,05,18,128,,10,06,080,,12,28,190,43,1*7B
$GBGSV,3,2,11,13,28,088,27,24,75,289,39,25,17,300,49,26,52,126,38,1*75
$GBGSV,3,3,11,29,10,039,25,33,01,259,25,35,53,072,42,1*4A
$GBGSV,3,1,11,02,04,106,,05,18,128,,10,06,080,28,12,28,190,49,3*79
$GBGSV,3,2,11,13,28,088,28,24,75,289,,25,17,300,,26,52,126,,3*74
$GBGSV,3,3,11,29,10,039,,33,01,259,,35,53,072,,3*4E
$GNGLL,5025.4458499,N,01411.3818361,E,212403.00,A,D*7C
$GNRMC,212404.00,A,5025.4447551,N,01411.3818174,E,0.011,,241021,,,R,V*07
$GNVTG,,T,,M,0.011,N,0.020,K,D*3A
$GNGGA,212404.00,5025.4447551,N,01411.3818174,E,4,12,0.76,217.767,M,44.078,M,1.0,0084*6F
$GNGSA,A,3,33,05,24,26,31,01,13,09,,,,,1.47,0.76,1.25,3*09
$GNGSA,A,3,12,13,24,25,26,35,,,,,,,1.47,0.76,1.25,4*03
$GAGSV,3,1,10,01,53,090,38,04,07,209,22,05,20,312,45,09,26,258,40,7*7D
$GAGSV,3,2,10,13,16,033,24,21,05,097,17,24,18,281,46,26,44,088,37,7*78
$GAGSV,3,3,10,31,67,294,42,33,31,150,44,7*7E
$GAGSV,3,1,10,01,53,090,41,04,07,209,28,05,20,312,43,09,26,258,45,2*7F
$GAGSV,3,2,10,13,16,033,29,21,05,097,29,24,18,281,44,26,44,088,38,2*70
$GAGSV,3,3,10,31,67,294,50,33,31,150,41,2*7D
$GBGSV,3,1,11,02,04,106,,05,18,128,,10,06,080,,12,28,190,43,1*7B
$GBGSV,3,2,11,13,28,088,27,24,75,289,39,25,17,300,49,26,52,126,38,1*75
$GBGSV,3,3,11,29,10,039,24,33,01,259,24,35,53,072,42,1*4A
$GBGSV,3,1,11,02,04,106,,05,18,128,,10,06,080,28,12,28,190,49,3*79
$GBGSV,3,2,11,13,28,088,28,24,75,289,,25,17,300,,26,52,126,,3*74
$GBGSV,3,3,11,29,10,039,,33,01,259,,35,53,072,,3*4E
$GNGLL,5025.4447551,N,01411.3818174,E,212404.00,A,D*76
$GNRMC,212405.00,A,5025.4447561,N,01411.3818183,E,0.005,,241021,,,R,V*08
$GNVTG,,T,,M,0.005,N,0.009,K,D*34
$GNGGA,212405.00,5025.4447561,N,01411.3818183,E,4,12,0.76,217.768,M,44.078,M,1.0,0084*6A
$GNGSA,A,3,33,05,24,26,31,01,13,09,,,,,1.47,0.76,1.25,3*09
$GNGSA,A,3,12,13,24,25,26,35,,,,,,,1.47,0.76,1.25,4*03
$GAGSV,3,1,10,01,53,090,38,04,07,209,22,05,20,312,45,09,26,258,40,7*7D
$GAGSV,3,2,10,13,16,033,25,21,05,097,17,24,18,281,46,26,44,088,37,7*79
$GAGSV,3,3,10,31,67,294,42,33,31,150,44,7*7E
$GAGSV,3,1,10,01,53,090,41,04,07,209,28,05,20,312,43,09,26,258,45,2*7F
$GAGSV,3,2,10,13,16,033,29,21,05,097,29,24,18,281,44,26,44,088,38,2*70
$GAGSV,3,3,10,31,67,294,50,33,31,150,41,2*7D
$GBGSV,3,1,11,02,04,106,,05,18,128,,10,06,080,,12,28,190,43,1*7B
$GBGSV,3,2,11,13,28,088,27,24,75,289,39,25,17,300,49,26,52,126,38,1*75
$GBGSV,3,3,11,29,10,039,25,33,01,259,24,35,53,072,42,1*4B
$GBGSV,3,1,11,02,04,106,,05,18,128,,10,06,080,27,12,28,190,49,3*76
$GBGSV,3,2,11,13,28,088,28,24,75,289,,25,17,300,,26,52,126,,3*74
$GBGSV,3,3,11,29,10,039,,33,01,259,,35,53,072,,3*4E
$GNGLL,5025.4447561,N,01411.3818183,E,212405.00,A,D*7C
$GNRMC,212406.00,A,5025.4447551,N,01411.3818168,E,0.008,,241021,,,R,V*00
$GNVTG,,T,,M,0.008,N,0.015,K,D*34
$GNGGA,212406.00,5025.4447551,N,01411.3818168,E,4,12,0.76,217.768,M,44.078,M,1.0,0084*6F
$GNGSA,A,3,33,05,24,26,31,01,13,09,,,,,1.47,0.76,1.25,3*09
$GNGSA,A,3,12,13,24,25,26,35,,,,,,,1.47,0.76,1.25,4*03
$GAGSV,3,1,10,01,53,090,37,04,07,209,22,05,20,312,45,09,26,258,40,7*72
$GAGSV,3,2,10,13,16,033,25,21,05,097,17,24,18,281,46,26,44,088,37,7*79
$GAGSV,3,3,10,31,67,294,42,33,31,150,44,7*7E
$GAGSV,3,1,10,01,53,090,41,04,07,209,28,05,20,312,43,09,26,258,45,2*7F
$GAGSV,3,2,10,13,16,033,29,21,05,097,29,24,18,281,44,26,44,088,38,2*70
$GAGSV,3,3,10,31,67,294,50,33,31,150,41,2*7D
$GBGSV,3,1,11,02,04,106,,05,18,128,,10,06,080,,12,28,190,43,1*7B
$GBGSV,3,2,11,13,28,088,27,24,75,289,40,25,17,300,49,26,52,126,38,1*7B
$GBGSV,3,3,11,29,10,039,24,33,01,259,23,35,53,072,42,1*4D
$GBGSV,3,1,11,02,04,106,,05,18,128,,10,06,080,27,12,28,190,49,3*76
$GBGSV,3,2,11,13,28,088,28,24,75,289,,25,17,300,,26,52,126,,3*74
$GBGSV,3,3,11,29,10,039,,33,01,259,,35,53,072,,3*4E
$GNGLL,5025.4447551,N,01411.3818168,E,212406.00,A,D*79
$GNRMC,212407.00,A,5025.4447558,N,01411.3818176,E,0.004,,241021,,,R,V*0B
$GNVTG,,T,,M,0.004,N,0.008,K,D*34
$GNGGA,212407.00,5025.4447558,N,01411.3818176,E,4,12,0.76,217.774,M,44.078,M,1.0,0084*65
$GNGSA,A,3,33,05,24,26,31,01,13,09,,,,,1.47,0.76,1.25,3*09
$GNGSA,A,3,12,13,24,25,26,35,,,,,,,1.47,0.76,1.25,4*03
$GAGSV,3,1,10,01,53,090,38,04,07,209,21,05,20,312,45,09,26,258,40,7*7E
$GAGSV,3,2,10,13,16,033,25,21,05,097,16,24,18,281,46,26,44,088,37,7*78
$GAGSV,3,3,10,31,67,294,42,33,31,150,44,7*7E
$GAGSV,3,1,10,01,53,090,41,04,07,209,28,05,20,312,43,09,26,258,45,2*7F
$GAGSV,3,2,10,13,16,033,29,21,05,097,29,24,18,281,44,26,44,088,38,2*70
$GAGSV,3,3,10,31,67,294,50,33,31,150,41,2*7D
$GBGSV,3,1,11,02,04,106,,05,18,128,,10,06,080,,12,28,190,43,1*7B
$GBGSV,3,2,11,13,28,088,26,24,75,289,40,25,17,300,49,26,52,126,38,1*7A
$GBGSV,3,3,11,29,10,039,24,33,01,259,23,35,53,072,42,1*4D
$GBGSV,3,1,11,02,04,106,,05,18,128,,10,06,080,27,12,28,190,49,3*76
$GBGSV,3,2,11,13,28,088,28,24,75,289,,25,17,300,,26,52,126,,3*74
$GBGSV,3,3,11,29,10,039,,33,01,259,,35,53,072,,3*4E
$GNGLL,5025.4447558,N,01411.3818176,E,212407.00,A,D*7E
$GNRMC,212408.00,A,5025.4447563,N,01411.3818165,E,0.013,,241021,,,R,V*08
$GNVTG,,T,,M,0.013,N,0.024,K,D*3C
$GNGGA,212408.00,5025.4447563,N,01411.3818165,E,4,12,0.76,217.768,M,44.078,M,1.0,0084*6D
$GNGSA,A,3,33,05,24,26,31,01,13,09,,,,,1.47,0.76,1.26,3*0A
$GNGSA,A,3,12,13,24,25,26,35,,,,,,,1.47,0.76,1.26,4*00
$GAGSV,3,1,10,01,53,090,38,04,07,209,21,05,20,312,45,09,26,258,40,7*7E
$GAGSV,3,2,10,13,16,033,25,21,05,097,15,24,18,281,46,26,44,088,37,7*7B
$GAGSV,3,3,10,31,67,294,42,33,31,150,44,7*7E
$GAGSV,3,1,10,01,53,090,41,04,07,209,28,05,20,312,43,09,26,258,45,2*7F
$GAGSV,3,2,10,13,16,033,29,21,05,097,29,24,18,281,44,26,44,088,38,2*70
$GAGSV,3,3,10,31,67,294,50,33,31,150,40,2*7C
$GBGSV,3,1,11,02,04,106,,05,18,128,,10,06,080,,12,29,190,43,1*7A
$GBGSV,3,2,11,13,28,088,26,24,75,289,40,25,17,300,49,26,52,126,39,1*7B
$GBGSV,3,3,11,29,10,039,22,33,01,259,23,35,53,072,42,1*4B
$GBGSV,3,1,11,02,04,106,,05,18,128,,10,06,080,27,12,29,190,49,3*77
$GBGSV,3,2,11,13,28,088,28,24,75,289,,25,17,300,,26,52,126,,3*74
$GBGSV,3,3,11,29,10,039,,33,01,259,,35,53,072,,3*4E
$GNGLL,5025.4447563,N,01411.3818165,E,212408.00,A,D*7B
$GNRMC,212409.00,A,5025.4447532,N,01411.3818168,E,0.013,,241021,,,R,V*00
$GNVTG,,T,,M,0.013,N,0.023,K,D*3B
$GNGGA,212409.00,5025.4447532,N,01411.3818168,E,4,12,0.76,217.771,M,44.078,M,1.0,0084*6D
$GNGSA,A,3,33,05,24,26,31,01,13,09,,,,,1.47,0.76,1.26,3*0A
$GNGSA,A,3,12,13,24,25,26,35,,,,,,,1.47,0.76,1.26,4*00
$GAGSV,3,1,10,01,53,090,38,04,07,209,21,05,20,312,45,09,26,258,41,7*7F
$GAGSV,3,2,10,13,16,033,25,21,05,097,15,24,18,281,46,26,44,088,37,7*7B
$GAGSV,3,3,10,31,67,294,42,33,31,150,44,7*7E
$GAGSV,3,1,10,01,53,090,41,04,07,209,28,05,20,312,43,09,26,258,45,2*7F
$GAGSV,3,2,10,13,16,033,29,21,05,097,29,24,18,281,44,26,44,088,38,2*70
$GAGSV,3,3,10,31,67,294,50,33,31,150,40,2*7C
$GBGSV,3,1,11,02,04,106,,05,18,128,,10,06,080,,12,29,190,43,1*7A
$GBGSV,3,2,11,13,29,088,27,24,75,289,40,25,17,300,49,26,52,126,39,1*7B
$GBGSV,3,3,11,29,10,039,22,33,01,259,,35,53,072,42,1*4A
$GBGSV,3,1,11,02,04,106,,05,18,128,,10,06,080,27,12,29,190,49,3*77
$GBGSV,3,2,11,13,29,088,28,24,75,289,,25,17,300,,26,52,126,,3*75
$GBGSV,3,3,11,29,10,039,,33,01,259,,35,53,072,,3*4E
$GNGLL,5025.4447532,N,01411.3818168,E,212409.00,A,D*73
$GNRMC,212410.00,A,5025.4447535,N,01411.3818159,E,0.010,,241021,,,R,V*0E
$GNVTG,,T,,M,0.010,N,0.019,K,D*31
$GNGGA,212410.00,5025.4447535,N,01411.3818159,E,4,12,0.76,217.773,M,44.078,M,1.0,0084*62
$GNGSA,A,3,33,05,24,26,31,01,13,09,,,,,1.47,0.76,1.26,3*0A
$GNGSA,A,3,12,13,24,25,26,35,,,,,,,1.47,0.76,1.26,4*00
$GAGSV,3,1,10,01,53,090,38,04,07,209,20,05,20,312,45,09,26,258,41,7*7E
$GAGSV,3,2,10,13,16,033,25,21,05,097,14,24,18,281,46,26,44,088,37,7*7A
$GAGSV,3,3,10,31,67,294,42,33,31,150,44,7*7E
$GAGSV,3,1,10,01,53,090,41,04,07,209,28,05,20,312,43,09,26,258,45,2*7F
$GAGSV,3,2,10,13,16,033,29,21,05,097,29,24,18,281,44,26,44,088,38,2*70
$GAGSV,3,3,10,31,67,294,50,33,31,150,40,2*7C
$GBGSV,3,1,11,02,04,106,,05,18,128,,10,06,080,,12,29,190,43,1*7A
$GBGSV,3,2,11,13,29,088,26,24,75,289,40,25,17,300,49,26,52,126,39,1*7A
$GBGSV,3,3,11,29,10,039,23,33,01,259,,35,53,072,42,1*4B
$GBGSV,3,1,11,02,04,106,,05,18,128,,10,06,080,27,12,29,190,49,3*77
$GBGSV,3,2,11,13,29,088,28,24,75,289,,25,17,300,,26,52,126,,3*75
$GBGSV,3,3,11,29,10,039,,33,01,259,,35,53,072,,3*4E
$GNGLL,5025.4447535,N,01411.3818159,E,212410.00,A,D*7E
$GNRMC,212411.00,A,5025.4447545,N,01411.3818170,E,0.010,,241021,,,R,V*03
$GNVTG,,T,,M,0.010,N,0.019,K,D*31
$GNGGA,212411.00,5025.4447545,N,01411.3818170,E,4,12,0.76,217.771,M,44.078,M,1.0,0084*6D
$GNGSA,A,3,33,05,24,26,31,01,13,09,,,,,1.47,0.76,1.26,3*0A
$GNGSA,A,3,12,13,24,25,26,35,,,,,,,1.47,0.76,1.26,4*00
$GAGSV,3,1,10,01,53,090,38,04,07,209,21,05,20,312,45,09,26,258,41,7*7F
$GAGSV,3,2,10,13,16,033,25,21,05,097,14,24,18,281,46,26,44,088,37,7*7A
$GAGSV,3,3,10,31,67,294,42,33,31,150,44,7*7E
$GAGSV,3,1,10,01,53,090,41,04,07,209,29,05,20,312,43,09,26,258,45,2*7E
$GAGSV,3,2,10,13,16,033,29,21,05,097,29,24,18,281,44,26,44,088,38,2*70
$GAGSV,3,3,10,31,67,294,50,33,31,150,40,2*7C
$GBGSV,3,1,11,02,04,106,,05,18,128,,10,06,080,,12,29,190,43,1*7A
$GBGSV,3,2,11,13,29,088,26,24,75,289,40,25,17,300,49,26,52,126,39,1*7A
$GBGSV,3,3,11,29,10,039,22,33,01,259,,35,53,072,43,1*4B
$GBGSV,3,1,11,02,04,106,,05,18,128,,10,06,080,27,12,29,190,49,3*77
$GBGSV,3,2,11,13,29,088,28,24,75,289,,25,17,300,,26,52,126,,3*75
$GBGSV,3,3,11,29,10,039,,33,01,259,,35,53,072,,3*4E
$GNGLL,5025.4447545,N,01411.3818170,E,212411.00,A,D*73
$GNRMC,212412.00,A,5025.4447532,N,01411.3818147,E,0.017,,241021,,,R,V*03
$GNVTG,,T,,M,0.017,N,0.032,K,D*3F
$GNGGA,212412.00,5025.4447532,N,01411.3818147,E,4,12,0.76,217.773,M,44.078,M,1.0,0084*68
$GNGSA,A,3,33,05,24,26,31,01,13,09,,,,,1.47,0.76,1.26,3*0A
$GNGSA,A,3,12,13,24,25,26,35,,,,,,,1.47,0.76,1.26,4*00
$GAGSV,3,1,10,01,53,090,38,04,07,209,21,05,20,312,45,09,26,258,41,7*7F
$GAGSV,3,2,10,13,16,033,25,21,05,097,12,24,18,281,46,26,44,088,37,7*7C
$GAGSV,3,3,10,31,67,294,42,33,31,150,44,7*7E
$GAGSV,3,1,10,01,53,090,41,04,07,209,29,05,20,312,43,09,26,258,45,2*7E
$GAGSV,3,2,10,13,16,033,29,21,05,097,29,24,18,281,44,26,44,088,38,2*70
$GAGSV,3,3,10,31,67,294,50,33,31,150,40,2*7C
$GBGSV,3,1,11,02,04,106,,05,18,128,,10,06,080,,12,29,190,43,1*7A
$GBGSV,3,2,11,13,29,088,26,24,75,289,40,25,17,300,49,26,52,126,39,1*7A
$GBGSV,3,3,11,29,10,039,22,33,01,259,,35,53,072,42,1*4A
$GBGSV,3,1,11,02,04,106,,05,18,128,,10,06,080,27,12,29,190,49,3*77
$GBGSV,3,2,11,13,29,088,28,24,75,289,,25,17,300,,26,52,126,,3*75
$GBGSV,3,3,11,29,10,039,,33,01,259,,35,53,072,,3*4E
$GNGLL,5025.4447532,N,01411.3818147,E,212412.00,A,D*74
$GNRMC,212413.00,A,5025.4447544,N,01411.3818160,E,0.019,,241021,,,R,V*08
$GNVTG,,T,,M,0.019,N,0.036,K,D*35
