$GNGGA,212808.00,5025.4447588,N,01411.3818189,E,4,12,0.90,217.789,M,44.078,M,1.0,0084*61
$GNGSA,A,3,77,70,79,88,87,81,69,78,,,,,1.70,0.90,1.43,2*04
$GNGSA,A,3,12,24,13,25,26,35,,,,,,,1.70,0.90,1.43,4*0F
$GLGSV,3,1,09,68,03,241,19,69,20,286,45,70,13,346,13,77,29,109,17,1*72
$GLGSV,3,2,09,78,77,028,49,79,33,307,47,81,17,183,47,87,51,052,45,1*7A
$GLGSV,3,3,09,88,59,138,48,1*4B
$GLGSV,3,1,09,68,03,241,22,69,20,286,44,70,13,346,,77,29,109,16,3*7A
$GLGSV,3,2,09,78,77,028,45,79,33,307,44,81,17,183,41,87,51,052,,3*70
$GLGSV,3,3,09,88,59,138,42,3*43
$GBGSV,3,1,11,02,04,106,,05,18,128,,10,05,080,,12,30,190,40,1*72
$GBGSV,3,2,11,13,29,087,27,24,77,286,33,25,19,300,48,26,50,128,41,1*71
$GBGSV,3,3,11,29,08,039,23,33,00,258,20,35,52,070,43,1*42
$GBGSV,3,1,11,02,04,106,,05,18,128,,10,05,080,21,12,30,190,49,3*7A
$GBGSV,3,2,11,13,29,087,23,24,77,286,,25,19,300,,26,50,128,,3*7E
$GBGSV,3,3,11,29,08,039,,33,00,258,,35,52,070,,3*44
$GNGLL,5025.4447588,N,01411.3818189,E,212808.00,A,D*70
$GNTXT,01,01,02,Starting GNSS*5A
$GNRMC,212808.13,V,,,,,,,241021,,,N,V*1E
$GNVTG,,,,,,,,,N*2E
$GNGGA,212808.13,,,,,0,00,99.99,,,,,,*7B
$GNGSA,A,1,,,,,,,,,,,,,99.99,99.99,99.99,3*31
$GNGSA,A,1,,,,,,,,,,,,,99.99,99.99,99.99,4*36
$GAGSV,1,1,00,7*73
$GAGSV,1,1,00,2*76
$GBGSV,1,1,00,1*76
$GBGSV,1,1,00,3*74
$GNGLL,,,,,212808.13,V,N*57
$GNRMC,212808.17,V,,,,,,,241021,,,N,V*1A
$GNVTG,,,,,,,,,N*2E
$GNGGA,212808.17,,,,,0,00,99.99,,,,,,*7F
$GNGSA,A,1,,,,,,,,,,,,,99.99,99.99,99.99,3*31
$GNGSA,A,1,,,,,,,,,,,,,99.99,99.99,99.99,4*36
$GAGSV,3,1,10,01,51,091,,04,05,209,,05,21,310,,09,25,257,,7*7D
$GAGSV,3,2,10,13,15,032,,21,04,098,,24,19,282,,26,44,085,,7*7D
$GAGSV,3,3,10,31,68,296,,33,32,149,,7*7E
$GAGSV,3,1,10,01,51,091,,04,05,209,,05,21,310,,09,25,257,,2*78
$GAGSV,3,2,10,13,15,032,,21,04,098,,24,19,282,,26,44,085,,2*78
$GAGSV,3,3,10,31,68,296,,33,32,149,,2*7B
$GBGSV,3,1,11,02,04,106,,05,18,128,,10,05,081,,12,30,190,,1*77
$GBGSV,3,2,11,13,29,087,,24,77,286,,25,19,300,,26,50,128,,1*7D
$GBGSV,3,3,11,29,08,039,,33,00,258,,35,51,069,,1*4D
$GBGSV,3,1,11,02,04,106,,05,18,128,,10,05,081,,12,30,190,,3*75
$GBGSV,3,2,11,13,29,087,,24,77,286,,25,19,300,,26,50,128,,3*7F
$GBGSV,3,3,11,29,08,039,,33,00,258,,35,51,069,,3*4F
$GNGLL,,,,,212808.17,V,N*53
$GNRMC,212809.00,A,5025.4461802,N,01411.3939637,E,0.584,250.58,241021,,,A,V*05
$GNVTG,250.58,T,,M,0.584,N,1.081,K,A*28
$GNGGA,212809.00,5025.4461802,N,01411.3939637,E,1,12,0.98,172.097,M,44.078,M,,*4D
$GNGSA,A,3,33,26,05,31,01,24,09,,,,,,1.90,0.98,1.63,3*03
$GNGSA,A,3,12,25,24,26,35,,,,,,,,1.90,0.98,1.63,4*09
$GAGSV,3,1,10,01,51,091,33,04,05,209,30,05,21,310,46,09,25,257,44,7*7C
$GAGSV,3,2,10,13,15,032,24,21,04,098,31,24,19,282,48,26,44,085,35,7*73
$GAGSV,3,3,10,31,68,296,46,33,32,149,46,7*7E
$GAGSV,3,1,10,01,51,091,42,04,05,209,,05,21,310,43,09,25,257,48,2*75
$GAGSV,3,2,10,13,15,032,30,21,04,098,29,24,19,282,49,26,44,085,40,2*79
$GAGSV,3,3,10,31,68,296,50,33,32,149,41,2*7B
$GBGSV,3,1,11,02,04,106,,05,18,128,,10,05,081,20,12,30,190,40,1*71
$GBGSV,3,2,11,13,29,087,29,24,77,286,34,25,19,300,48,26,50,128,41,1*78
$GBGSV,3,3,11,29,08,039,,33,00,258,19,35,51,069,42,1*43
$GBGSV,3,1,11,02,04,106,,05,18,128,,10,05,081,25,12,30,190,47,3*71
$GBGSV,3,2,11,13,29,087,20,24,77,286,,25,19,300,,26,50,128,,3*7D
$GBGSV,3,3,11,29,08,039,,33,00,258,,35,51,069,,3*4F
$GNGLL,5025.4461802,N,01411.3939637,E,212809.00,A,A*7F
$GNRMC,212810.00,A,5025.4459217,N,01411.3916462,E,0.133,,241021,,,A,V*1B
$GNVTG,,T,,M,0.133,N,0.246,K,A*3C
$GNGGA,212810.00,5025.4459217,N,01411.3916462,E,1,12,0.77,177.624,M,44.078,M,,*45
$GNGSA,A,3,33,26,05,31,01,24,13,09,,,,,1.50,0.77,1.28,3*03
$GNGSA,A,3,12,13,25,24,26,35,,,,,,,1.50,0.77,1.28,4*09
$GAGSV,3,1,10,01,51,091,31,04,05,209,28,05,21,310,45,09,25,257,43,7*73
$GAGSV,3,2,10,13,15,032,23,21,04,098,30,24,19,282,47,26,44,085,33,7*7C
$GAGSV,3,3,10,31,68,296,45,33,32,149,45,7*7E
$GAGSV,3,1,10,01,51,091,42,04,05,209,,05,21,310,43,09,25,257,48,2*75
$GAGSV,3,2,10,13,15,032,31,21,04,098,29,24,19,282,49,26,44,085,39,2*76
$GAGSV,3,3,10,31,68,296,50,33,32,149,41,2*7B
$GBGSV,3,1,11,02,04,106,,05,18,128,,10,05,081,20,12,30,190,40,1*71
$GBGSV,3,2,11,13,29,087,28,24,77,286,34,25,19,300,48,26,50,128,41,1*79
$GBGSV,3,3,11,29,08,039,,33,00,258,,35,51,069,43,1*4A
$GBGSV,3,1,11,02,04,106,,05,18,128,,10,05,081,,12,30,190,48,3*79
$GBGSV,3,2,11,13,29,087,22,24,77,286,,25,19,300,,26,50,128,,3*7F
$GBGSV,3,3,11,29,08,039,,33,00,258,,35,51,069,,3*4F
$GNGLL,5025.4459217,N,01411.3916462,E,212810.00,A,A*7D
$GNRMC,212811.00,A,5025.4455487,N,01411.3896732,E,0.018,,241021,,,A,V*1E
$GNVTG,,T,,M,0.018,N,0.033,K,A*34
$GNGGA,212811.00,5025.4455487,N,01411.3896732,E,1,12,0.77,183.913,M,44.078,M,,*48
$GNGSA,A,3,33,26,05,31,01,24,13,09,,,,,1.50,0.77,1.28,3*03
$GNGSA,A,3,12,13,25,24,26,35,,,,,,,1.50,0.77,1.28,4*09
$GAGSV,3,1,10,01,51,091,30,04,05,209,28,05,21,310,45,09,25,257,43,7*72
$GAGSV,3,2,10,13,15,032,23,21,04,098,30,24,19,282,47,26,44,085,33,7*7C
$GAGSV,3,3,10,31,68,296,45,33,32,149,45,7*7E
$GAGSV,3,1,10,01,51,091,41,04,05,209,,05,21,310,42,09,25,257,47,2*78
$GAGSV,3,2,10,13,15,032,30,21,04,098,27,24,19,282,48,26,44,085,38,2*79
$GAGSV,3,3,10,31,68,296,49,33,32,149,40,2*72
$GBGSV,3,1,11,02,04,106,,05,18,128,,10,05,081,20,12,30,190,40,1*71
$GBGSV,3,2,11,13,29,087,28,24,77,286,34,25,19,300,48,26,50,128,41,1*79
$GBGSV,3,3,11,29,08,039,,33,00,258,,35,51,069,43,1*4A
$GBGSV,3,1,11,02,04,106,,05,18,128,,10,05,081,,12,30,190,48,3*79
$GBGSV,3,2,11,13,29,087,22,24,77,286,,25,19,300,,26,50,128,,3*7F
$GBGSV,3,3,11,29,08,039,,33,00,258,,35,51,069,,3*4F
$GNGLL,5025.4455487,N,01411.3896732,E,212811.00,A,A*70
$GNRMC,212812.00,A,5025.4454343,N,01411.3885642,E,0.013,,241021,,,A,V*1C
$GNVTG,,T,,M,0.013,N,0.024,K,A*39
$GNGGA,212812.00,5025.4454343,N,01411.3885642,E,1,12,0.77,187.995,M,44.078,M,,*4B
$GNGSA,A,3,33,26,05,31,01,24,13,09,,,,,1.50,0.77,1.28,3*03
$GNGSA,A,3,12,13,25,24,26,35,,,,,,,1.50,0.77,1.28,4*09
$GAGSV,3,1,10,01,51,091,31,04,05,209,27,05,21,310,45,09,25,257,43,7*7C
$GAGSV,3,2,10,13,15,032,23,21,04,098,30,24,19,282,47,26,44,085,33,7*7C
$GAGSV,3,3,10,31,68,296,45,33,32,149,45,7*7E
$GAGSV,3,1,10,01,51,091,41,04,05,209,,05,21,310,42,09,25,257,46,2*79
$GAGSV,3,2,10,13,15,032,30,21,04,098,27,24,19,282,48,26,44,085,38,2*79
$GAGSV,3,3,10,31,68,296,49,33,32,149,40,2*72
$GBGSV,3,1,11,02,04,106,,05,18,128,,10,05,081,20,12,30,190,40,1*71
$GBGSV,3,2,11,13,29,087,28,24,77,286,34,25,19,300,48,26,50,128,41,1*79
$GBGSV,3,3,11,29,08,039,,33,00,258,,35,51,069,43,1*4A
$GBGSV,3,1,11,02,04,106,,05,18,128,,10,05,081,,12,30,190,48,3*79
$GBGSV,3,2,11,13,29,087,21,24,77,286,,25,19,300,,26,50,128,,3*7C
$GBGSV,3,3,11,29,08,039,,33,00,258,,35,51,069,,3*4F
$GNGLL,5025.4454343,N,01411.3885642,E,212812.00,A,A*79
$GNRMC,212813.00,A,5025.4453208,N,01411.3875930,E,0.022,,241021,,,A,V*13
$GNVTG,,T,,M,0.022,N,0.040,K,A*39
$GNGGA,212813.00,5025.4453208,N,01411.3875930,E,1,12,0.77,191.221,M,44.078,M,,*45
$GNGSA,A,3,33,26,05,31,01,24,13,09,,,,,1.50,0.77,1.28,3*03
$GNGSA,A,3,12,13,25,24,26,35,,,,,,,1.50,0.77,1.28,4*09
$GAGSV,3,1,10,01,51,091,31,04,05,209,27,05,21,310,45,09,25,257,43,7*7C
$GAGSV,3,2,10,13,15,032,23,21,04,098,30,24,19,282,47,26,44,085,33,7*7C
$GAGSV,3,3,10,31,68,296,45,33,32,149,45,7*7E
$GAGSV,3,1,10,01,51,091,40,04,05,209,,05,21,310,42,09,25,257,46,2*78
$GAGSV,3,2,10,13,15,032,30,21,04,098,27,24,19,282,48,26,44,085,38,2*79
$GAGSV,3,3,10,31,68,296,49,33,32,149,40,2*72
$GBGSV,3,1,11,02,04,106,,05,18,128,,10,05,081,20,12,30,190,40,1*71
$GBGSV,3,2,11,13,29,087,28,24,77,286,34,25,19,300,48,26,50,128,41,1*79
$GBGSV,3,3,11,29,08,039,,33,00,258,,35,51,069,43,1*4A
$GBGSV,3,1,11,02,04,106,,05,18,128,,10,05,081,,12,30,190,49,3*78
$GBGSV,3,2,11,13,29,087,22,24,77,286,,25,19,300,,26,50,128,,3*7F
$GBGSV,3,3,11,29,08,039,,33,00,258,,35,51,069,,3*4F
$GNGLL,5025.4453208,N,01411.3875930,E,212813.00,A,A*74
$GNRMC,212814.00,A,5025.4452514,N,01411.3867347,E,0.007,,241021,,,A,V*11
$GNVTG,,T,,M,0.007,N,0.013,K,A*38
$GNGGA,212814.00,5025.4452514,N,01411.3867347,E,1,12,0.77,194.202,M,44.078,M,,*44
$GNGSA,A,3,33,26,05,31,01,24,13,09,,,,,1.50,0.77,1.28,3*03
$GNGSA,A,3,12,13,25,24,26,35,,,,,,,1.50,0.77,1.28,4*09
$GAGSV,3,1,10,01,51,091,31,04,05,209,27,05,21,310,45,09,25,257,43,7*7C
$GAGSV,3,2,10,13,15,032,23,21,04,098,30,24,19,282,47,26,44,085,32,7*7D
$GAGSV,3,3,10,31,68,296,45,33,32,149,45,7*7E
$GAGSV,3,1,10,01,51,091,40,04,05,209,,05,21,310,42,09,25,257,46,2*78
$GAGSV,3,2,10,13,15,032,30,21,04,098,26,24,19,282,48,26,44,085,38,2*78
$GAGSV,3,3,10,31,68,296,49,33,32,149,40,2*72
$GBGSV,3,1,11,02,04,106,,05,18,128,,10,05,081,20,12,30,190,40,1*71
$GBGSV,3,2,11,13,29,087,28,24,77,286,34,25,19,300,48,26,50,128,41,1*79
$GBGSV,3,3,11,29,08,039,,33,00,258,,35,51,069,43,1*4A
$GBGSV,3,1,11,02,04,106,,05,18,128,,10,05,081,,12,30,190,49,3*78
$GBGSV,3,2,11,13,29,087,22,24,77,286,,25,19,300,,26,50,128,,3*7F
$GBGSV,3,3,11,29,08,039,,33,00,258,,35,51,069,,3*4F
$GNGLL,5025.4452514,N,01411.3867347,E,212814.00,A,A*71
$GNRMC,212815.00,A,5025.4452554,N,01411.3859678,E,0.012,,241021,,,A,V*14
$GNVTG,,T,,M,0.012,N,0.021,K,A*3D
$GNGGA,212815.00,5025.4452554,N,01411.3859678,E,1,12,0.77,196.964,M,44.078,M,,*4C
$GNGSA,A,3,33,26,05,31,01,24,13,09,,,,,1.50,0.77,1.28,3*03
$GNGSA,A,3,12,13,25,24,26,35,,,,,,,1.50,0.77,1.28,4*09
$GAGSV,3,1,10,01,51,091,32,04,05,209,26,05,21,310,45,09,25,257,43,7*7E
$GAGSV,3,2,10,13,15,032,23,21,04,098,29,24,19,282,47,26,44,085,32,7*75
$GAGSV,3,3,10,31,68,296,45,33,32,149,45,7*7E
$GAGSV,3,1,10,01,51,091,41,04,05,209,,05,21,310,42,09,25,257,46,2*79
$GAGSV,3,2,10,13,15,032,30,21,04,098,27,24,19,282,48,26,44,085,38,2*79
$GAGSV,3,3,10,31,68,296,49,33,32,149,40,2*72
$GBGSV,3,1,11,02,04,106,,05,18,128,,10,05,081,20,12,30,190,40,1*71
$GBGSV,3,2,11,13,29,087,28,24,77,286,34,25,19,300,48,26,50,128,41,1*79
$GBGSV,3,3,11,29,08,039,,33,00,258,,35,51,069,43,1*4A
$GBGSV,3,1,11,02,04,106,,05,18,128,,10,05,081,,12,30,190,49,3*78
$GBGSV,3,2,11,13,29,087,22,24,77,286,,25,19,300,,26,50,128,,3*7F
$GBGSV,3,3,11,29,08,039,,33,00,258,,35,51,069,,3*4F
$GNGLL,5025.4452554,N,01411.3859678,E,212815.00,A,A*70
$GNRMC,212816.00,A,5025.4452623,N,01411.3852453,E,0.006,,241021,,,A,V*11
$GNVTG,,T,,M,0.006,N,0.012,K,A*38
$GNGGA,212816.00,5025.4452623,N,01411.3852453,E,1,12,0.77,199.772,M,44.078,M,,*4A
$GNGSA,A,3,33,26,05,31,01,24,13,09,,,,,1.50,0.77,1.28,3*03
$GNGSA,A,3,12,13,25,24,26,35,,,,,,,1.50,0.77,1.28,4*09
$GAGSV,3,1,10,01,51,091,32,04,05,209,27,05,21,310,45,09,25,257,43,7*7F
$GAGSV,3,2,10,13,15,032,23,21,04,098,29,24,19,282,47,26,44,085,32,7*75
$GAGSV,3,3,10,31,68,296,44,33,32,149,45,7*7F
$GAGSV,3,1,10,01,51,091,41,04,05,209,,05,21,310,42,09,25,257,47,2*78
$GAGSV,3,2,10,13,15,032,30,21,04,098,27,24,19,282,48,26,44,085,38,2*79
$GAGSV,3,3,10,31,68,296,49,33,32,149,40,2*72
$GBGSV,3,1,11,02,04,106,,05,18,128,,10,05,081,20,12,30,190,40,1*71
$GBGSV,3,2,11,13,29,087,28,24,77,286,34,25,19,300,48,26,50,128,41,1*79
$GBGSV,3,3,11,29,08,039,,33,00,258,,35,51,069,43,1*4A
$GBGSV,3,1,11,02,04,106,,05,18,128,,10,05,081,,12,30,190,48,3*79
$GBGSV,3,2,11,13,29,087,22,24,77,286,,25,19,300,,26,50,128,,3*7F
$GBGSV,3,3,11,29,08,039,,33,00,258,,35,51,069,,3*4F
$GNGLL,5025.4452623,N,01411.3852453,E,212816.00,A,A*70
$GNRMC,212817.00,A,5025.4452732,N,01411.3847393,E,0.010,,241021,,,A,V*19
$GNVTG,,T,,M,0.010,N,0.018,K,A*35
$GNGGA,212817.00,5025.4452732,N,01411.3847393,E,1,12,0.77,201.907,M,44.078,M,,*4B
$GNGSA,A,3,33,26,05,31,01,24,13,09,,,,,1.50,0.77,1.28,3*03
$GNGSA,A,3,12,13,25,24,26,35,,,,,,,1.50,0.77,1.28,4*09
$GAGSV,3,1,10,01,51,091,32,04,05,209,27,05,21,310,45,09,25,257,43,7*7F
$GAGSV,3,2,10,13,15,032,23,21,04,098,29,24,19,282,47,26,44,085,32,7*75
$GAGSV,3,3,10,31,68,296,44,33,32,149,45,7*7F
$GAGSV,3,1,10,01,51,091,40,04,05,209,,05,21,310,42,09,25,257,46,2*78
$GAGSV,3,2,10,13,15,032,30,21,04,098,26,24,19,282,48,26,44,085,38,2*78
$GAGSV,3,3,10,31,68,296,49,33,32,149,40,2*72
$GBGSV,3,1,11,02,04,106,,05,18,128,,10,05,081,20,12,30,190,40,1*71
$GBGSV,3,2,11,13,29,087,28,24,77,286,34,25,19,300,48,26,50,128,41,1*79
$GBGSV,3,3,11,29,08,039,,33,00,258,,35,51,069,43,1*4A
$GBGSV,3,1,11,02,04,106,,05,18,128,,10,05,081,,12,30,190,48,3*79
$GBGSV,3,2,11,13,29,087,22,24,77,286,,25,19,300,,26,50,128,,3*7F
$GBGSV,3,3,11,29,08,039,,33,00,258,,35,51,069,,3*4F
$GNGLL,5025.4452732,N,01411.3847393,E,212817.00,A,A*7F
$GNRMC,212818.00,A,5025.4452930,N,01411.3843635,E,0.008,,241021,,,A,V*1E
$GNVTG,,T,,M,0.008,N,0.014,K,A*30
$GNGGA,212818.00,5025.4452930,N,01411.3843635,E,1,12,0.77,203.560,M,44.078,M,,*4A
$GNGSA,A,3,33,26,05,31,01,24,13,09,,,,,1.50,0.77,1.28,3*03
$GNGSA,A,3,12,13,25,24,26,35,,,,,,,1.50,0.77,1.28,4*09
$GAGSV,3,1,10,01,51,091,32,04,05,209,27,05,21,310,45,09,25,257,43,7*7F
$GAGSV,3,2,10,13,15,032,24,21,04,098,29,24,19,282,47,26,44,085,32,7*72
$GAGSV,3,3,10,31,68,296,44,33,32,149,45,7*7F
$GAGSV,3,1,10,01,51,091,40,04,05,209,,05,21,310,42,09,25,257,46,2*78
$GAGSV,3,2,10,13,15,032,30,21,04,098,26,24,19,282,48,26,44,085,38,2*78
$GAGSV,3,3,10,31,68,296,49,33,32,149,40,2*72
$GBGSV,3,1,11,02,04,106,,05,18,128,,10,05,081,20,12,30,190,40,1*71
$GBGSV,3,2,11,13,29,087,28,24,77,286,34,25,19,300,48,26,50,128,41,1*79
$GBGSV,3,3,11,29,08,039,,33,00,258,,35,51,069,43,1*4A
$GBGSV,3,1,11,02,04,106,,05,18,128,,10,05,081,,12,30,190,48,3*79
$GBGSV,3,2,11,13,29,087,22,24,77,286,,25,19,300,,26,50,128,,3*7F
$GBGSV,3,3,11,29,08,039,,33,00,258,,35,51,069,,3*4F
$GNGLL,5025.4452930,N,01411.3843635,E,212818.00,A,A*71
$GNRMC,212819.00,A,5025.4453129,N,01411.3840752,E,0.013,,241021,,,A,V*17
$GNVTG,,T,,M,0.013,N,0.024,K,A*39
$GNGGA,212819.00,5025.4453129,N,01411.3840752,E,1,12,0.77,204.940,M,44.078,M,,*40
$GNGSA,A,3,33,26,05,31,01,24,13,09,,,,,1.50,0.77,1.28,3*03
$GNGSA,A,3,12,13,25,24,26,35,,,,,,,1.50,0.77,1.28,4*09
$GAGSV,3,1,10,01,51,091,32,04,05,209,27,05,21,310,45,09,25,257,43,7*7F
$GAGSV,3,2,10,13,15,032,24,21,04,098,28,24,19,282,47,26,44,085,32,7*73
$GAGSV,3,3,10,31,68,296,44,33,32,149,45,7*7F
$GAGSV,3,1,10,01,51,091,41,04,05,209,,05,21,310,42,09,25,257,46,2*79
$GAGSV,3,2,10,13,15,032,30,21,04,098,26,24,19,282,48,26,44,085,38,2*78
$GAGSV,3,3,10,31,68,296,49,33,32,149,40,2*72
$GBGSV,3,1,11,02,04,106,,05,18,128,,10,05,081,20,12,30,190,40,1*71
$GBGSV,3,2,11,13,29,087,28,24,77,286,34,25,19,300,48,26,50,128,41,1*79
$GBGSV,3,3,11,29,08,039,,33,00,258,,35,51,069,43,1*4A
$GBGSV,3,1,11,02,04,106,,05,18,128,,10,05,081,,12,30,190,48,3*79
$GBGSV,3,2,11,13,29,087,22,24,77,286,,25,19,300,,26,50,128,,3*7F
$GBGSV,3,3,11,29,08,039,,33,00,258,,35,51,069,,3*4F
$GNGLL,5025.4453129,N,01411.3840752,E,212819.00,A,A*72
$GNRMC,212820.00,A,5025.4453391,N,01411.3839113,E,0.012,,241021,,,A,V*10
$GNVTG,,T,,M,0.012,N,0.021,K,A*3D
$GNGGA,212820.00,5025.4453391,N,01411.3839113,E,1,12,0.77,205.801,M,44.078,M,,*43
$GNGSA,A,3,33,26,05,31,01,24,13,09,,,,,1.50,0.77,1.28,3*03
$GNGSA,A,3,12,13,25,24,26,35,,,,,,,1.50,0.77,1.28,4*09
$GAGSV,3,1,10,01,51,091,33,04,05,209,27,05,21,310,45,09,25,257,43,7*7E
$GAGSV,3,2,10,13,15,032,24,21,04,098,28,24,19,282,47,26,44,085,33,7*72
$GAGSV,3,3,10,31,68,296,44,33,32,149,45,7*7F
$GAGSV,3,1,10,01,51,091,41,04,05,209,,05,21,310,42,09,25,257,47,2*78
$GAGSV,3,2,10,13,15,032,30,21,04,098,26,24,19,282,48,26,44,085,38,2*78
$GAGSV,3,3,10,31,68,296,49,33,32,149,40,2*72
$GBGSV,3,1,11,02,04,106,,05,18,128,,10,05,081,20,12,30,190,40,1*71
$GBGSV,3,2,11,13,29,087,28,24,77,286,34,25,19,300,48,26,50,128,41,1*79
$GBGSV,3,3,11,29,08,039,,33,00,258,,35,51,069,44,1*4D
$GBGSV,3,1,11,02,04,106,,05,18,128,,10,05,081,,12,30,190,48,3*79
$GBGSV,3,2,11,13,29,087,21,24,77,286,,25,19,300,,26,50,128,,3*7C
$GBGSV,3,3,11,29,08,039,,33,00,258,,35,51,069,,3*4F
$GNGLL,5025.4453391,N,01411.3839113,E,212820.00,A,A*74
$GNRMC,212821.00,A,5025.4453532,N,01411.3837984,E,0.007,,241021,,,A,V*12
$GNVTG,,T,,M,0.007,N,0.013,K,A*38
$GNGGA,212821.00,5025.4453532,N,01411.3837984,E,1,12,0.77,206.495,M,44.078,M,,*47
$GNGSA,A,3,33,26,05,31,01,24,13,09,,,,,1.50,0.77,1.29,3*02
$GNGSA,A,3,12,13,25,24,26,35,,,,,,,1.50,0.77,1.29,4*08
$GAGSV,3,1,10,01,51,091,33,04,05,209,27,05,21,310,45,09,25,257,43,7*7E
$GAGSV,3,2,10,13,15,032,25,21,04,098,28,24,19,282,47,26,44,085,33,7*73
$GAGSV,3,3,10,31,68,296,44,33,32,149,45,7*7F
$GAGSV,3,1,10,01,51,091,41,04,05,209,,05,21,310,42,09,25,257,47,2*78
$GAGSV,3,2,10,13,15,032,30,21,04,098,26,24,19,282,48,26,44,085,38,2*78
$GAGSV,3,3,10,31,68,296,49,33,32,149,40,2*72
$GBGSV,3,1,11,02,04,106,,05,18,128,,10,05,081,20,12,30,190,40,1*71
$GBGSV,3,2,11,13,29,087,28,24,77,286,34,25,19,300,48,26,50,128,41,1*79
$GBGSV,3,3,11,29,08,039,,33,00,258,,35,51,069,44,1*4D
$GBGSV,3,1,11,02,04,106,,05,18,128,,10,05,081,,12,30,190,48,3*79
$GBGSV,3,2,11,13,29,087,21,24,77,286,,25,19,300,,26,50,128,,3*7C
$GBGSV,3,3,11,29,08,039,,33,00,258,,35,51,069,,3*4F
$GNGLL,5025.4453532,N,01411.3837984,E,212821.00,A,A*72
$GNRMC,212822.00,A,5025.4453649,N,01411.3837219,E,0.006,,241021,,,A,V*10
$GNVTG,,T,,M,0.006,N,0.012,K,A*38
$GNGGA,212822.00,5025.4453649,N,01411.3837219,E,1,12,0.77,207.003,M,44.078,M,,*4E
$GNGSA,A,3,33,26,05,31,01,24,13,09,,,,,1.50,0.77,1.29,3*02
$GNGSA,A,3,12,13,25,24,26,35,,,,,,,1.50,0.77,1.29,4*08
$GAGSV,3,1,10,01,51,091,33,04,05,209,27,05,21,310,45,09,25,257,43,7*7E
$GAGSV,3,2,10,13,15,032,25,21,04,098,27,24,19,282,47,26,44,085,33,7*7C
$GAGSV,3,3,10,31,68,296,44,33,32,149,45,7*7F
$GAGSV,3,1,10,01,51,091,41,04,05,209,,05,21,310,42,09,25,257,47,2*78
$GAGSV,3,2,10,13,15,032,30,21,04,098,25,24,19,282,48,26,44,085,38,2*7B
$GAGSV,3,3,10,31,68,296,49,33,32,149,40,2*72
$GBGSV,3,1,11,02,04,106,,05,18,128,,10,05,081,20,12,30,190,40,1*71
$GBGSV,3,2,11,13,29,087,28,24,77,286,34,25,19,300,48,26,50,128,41,1*79
$GBGSV,3,3,11,29,08,039,,33,00,258,,35,51,069,44,1*4D
$GBGSV,3,1,11,02,04,106,,05,18,128,,10,05,081,,12,30,190,48,3*79
$GBGSV,3,2,11,13,29,087,21,24,77,286,,25,19,300,,26,50,128,,3*7C
$GBGSV,3,3,11,29,08,039,,33,00,258,,35,51,069,,3*4F
$GNGLL,5025.4453649,N,01411.3837219,E,212822.00,A,A*71
$GNRMC,212823.00,A,5025.4453751,N,01411.3836733,E,0.019,,241021,,,A,V*1B
$GNVTG,,T,,M,0.019,N,0.034,K,A*32
$GNGGA,212823.00,5025.4453751,N,01411.3836733,E,1,12,0.77,207.422,M,44.078,M,,*4C
$GNGSA,A,3,33,26,05,31,01,24,13,09,,,,,1.50,0.77,1.29,3*02
$GNGSA,A,3,12,13,25,24,26,35,,,,,,,1.50,0.77,1.29,4*08
$GAGSV,3,1,10,01,51,091,33,04,05,209,27,05,21,310,45,09,25,257,43,7*7E
$GAGSV,3,2,10,13,15,032,25,21,04,098,27,24,19,282,47,26,44,085,32,7*7D
$GAGSV,3,3,10,31,68,296,44,33,32,149,45,7*7F
$GAGSV,3,1,10,01,51,091,41,04,05,209,,05,21,310,42,09,25,257,47,2*78
$GAGSV,3,2,10,13,15,032,30,21,04,098,25,24,19,282,48,26,44,085,38,2*7B
$GAGSV,3,3,10,31,68,296,49,33,32,149,40,2*72
$GBGSV,3,1,11,02,04,106,,05,18,128,,10,05,081,20,12,30,190,40,1*71
$GBGSV,3,2,11,13,29,087,28,24,77,286,34,25,19,300,48,26,50,128,41,1*79
$GBGSV,3,3,11,29,08,039,,33,00,258,,35,51,069,44,1*4D
$GBGSV,3,1,11,02,04,106,,05,18,128,,10,05,081,,12,30,190,48,3*79
$GBGSV,3,2,11,13,29,087,,24,77,286,,25,19,300,,26,50,128,,3*7F
$GBGSV,3,3,11,29,08,039,,33,00,258,,35,51,069,,3*4F
$GNGLL,5025.4453751,N,01411.3836733,E,212823.00,A,A*74
$GNRMC,212824.00,A,5025.4453859,N,01411.3836469,E,0.002,,241021,,,A,V*1D
$GNVTG,,T,,M,0.002,N,0.004,K,A*3B
$GNGGA,212824.00,5025.4453859,N,01411.3836469,E,1,12,0.77,207.714,M,44.078,M,,*46
$GNGSA,A,3,33,26,05,31,01,24,13,09,,,,,1.50,0.77,1.29,3*02
$GNGSA,A,3,12,13,25,24,26,35,,,,,,,1.50,0.77,1.29,4*08
$GAGSV,3,1,10,01,51,091,33,04,05,209,27,05,21,310,45,09,25,257,43,7*7E
$GAGSV,3,2,10,13,15,032,24,21,04,098,26,24,19,282,47,26,44,085,32,7*7D
$GAGSV,3,3,10,31,68,296,44,33,32,149,45,7*7F
$GAGSV,3,1,10,01,51,091,41,04,05,209,,05,21,310,42,09,25,257,47,2*78
$GAGSV,3,2,10,13,15,032,30,21,04,098,25,24,19,282,48,26,44,085,38,2*7B
$GAGSV,3,3,10,31,68,296,49,33,32,149,40,2*72
$GBGSV,3,1,11,02,04,106,,05,18,128,,10,05,081,20,12,30,190,40,1*71
$GBGSV,3,2,11,13,29,087,29,24,77,286,34,25,19,300,48,26,50,128,41,1*78
$GBGSV,3,3,11,29,08,039,,33,00,258,,35,51,069,44,1*4D
$GBGSV,3,1,11,02,04,106,,05,18,128,,10,05,081,,12,30,190,48,3*79
$GBGSV,3,2,11,13,29,087,23,24,77,286,,25,19,300,,26,50,128,,3*7E
$GBGSV,3,3,11,29,08,039,,33,00,258,,35,51,069,,3*4F
$GNGLL,5025.4453859,N,01411.3836469,E,212824.00,A,A*78
$GNRMC,212825.00,A,5025.4453933,N,01411.3836274,E,0.009,,241021,,,A,V*10
$GNVTG,,T,,M,0.009,N,0.017,K,A*32
$GNGGA,212825.00,5025.4453933,N,01411.3836274,E,1,12,0.77,207.932,M,44.078,M,,*4A
$GNGSA,A,3,33,26,05,31,01,24,13,09,,,,,1.50,0.77,1.29,3*02
$GNGSA,A,3,12,13,25,24,26,35,,,,,,,1.50,0.77,1.29,4*08
$GAGSV,3,1,10,01,51,091,33,04,05,209,27,05,21,310,45,09,25,257,43,7*7E
$GAGSV,3,2,10,13,15,032,25,21,04,098,26,24,19,282,47,26,44,085,32,7*7C
$GAGSV,3,3,10,31,68,296,45,33,32,149,45,7*7E
$GAGSV,3,1,10,01,51,091,41,04,05,209,,05,21,310,42,09,25,257,47,2*78
$GAGSV,3,2,10,13,15,032,30,21,04,098,25,24,19,282,48,26,44,085,38,2*7B
$GAGSV,3,3,10,31,68,296,49,33,32,149,40,2*72
$GBGSV,3,1,11,02,04,106,,05,18,128,,10,05,081,20,12,30,190,40,1*71
$GBGSV,3,2,11,13,29,087,28,24,77,286,35,25,19,300,48,26,50,128,41,1*78
$GBGSV,3,3,11,29,08,039,,33,00,258,,35,51,069,44,1*4D
$GBGSV,3,1,11,02,04,106,,05,18,128,,10,05,081,,12,30,190,48,3*79
$GBGSV,3,2,11,13,29,087,,24,77,286,,25,19,300,,26,50,128,,3*7F
$GBGSV,3,3,11,29,08,039,,33,00,258,,35,51,069,,3*4F
$GNGLL,5025.4453933,N,01411.3836274,E,212825.00,A,A*7E
$GNRMC,212826.00,A,5025.4453935,N,01411.3836040,E,0.004,,241021,,,A,V*1D
$GNVTG,,T,,M,0.004,N,0.008,K,A*31
$GNGGA,212826.00,5025.4453935,N,01411.3836040,E,1,12,0.77,208.146,M,44.078,M,,*4E
$GNGSA,A,3,33,26,05,31,01,24,13,09,,,,,1.50,0.77,1.29,3*02
$GNGSA,A,3,12,13,25,24,26,35,,,,,,,1.50,0.77,1.29,4*08
$GAGSV,3,1,10,01,51,091,33,04,05,209,27,05,21,310,45,09,25,257,43,7*7E
$GAGSV,3,2,10,13,15,032,24,21,04,098,25,24,20,282,47,26,44,085,32,7*74
$GAGSV,3,3,10,31,68,296,45,33,32,149,45,7*7E
$GAGSV,3,1,10,01,51,091,41,04,05,209,,05,21,310,42,09,25,257,47,2*78
$GAGSV,3,2,10,13,15,032,30,21,04,098,25,24,20,282,48,26,44,085,38,2*71
$GAGSV,3,3,10,31,68,296,49,33,32,149,40,2*72
$GBGSV,3,1,11,02,04,106,,05,18,128,,10,05,081,20,12,30,190,40,1*71
$GBGSV,3,2,11,13,29,087,29,24,77,286,35,25,19,300,48,26,50,128,41,1*79
$GBGSV,3,3,11,29,08,039,,33,00,258,,35,51,069,44,1*4D
$GBGSV,3,1,11,02,04,106,,05,18,128,,10,05,081,,12,30,190,48,3*79
$GBGSV,3,2,11,13,29,087,,24,77,286,,25,19,300,,26,50,128,,3*7F
$GBGSV,3,3,11,29,08,039,,33,00,258,,35,51,069,,3*4F
$GNGLL,5025.4453935,N,01411.3836040,E,212826.00,A,A*7E
$GNRMC,212827.00,A,5025.4454009,N,01411.3836016,E,0.010,,241021,,,A,V*1B
$GNVTG,,T,,M,0.010,N,0.019,K,A*34
$GNGGA,212827.00,5025.4454009,N,01411.3836016,E,1,12,0.77,208.303,M,44.078,M,,*4E
$GNGSA,A,3,33,26,05,31,01,24,13,09,,,,,1.50,0.77,1.29,3*02
$GNGSA,A,3,12,13,25,24,26,35,,,,,,,1.50,0.77,1.29,4*08
$GAGSV,3,1,10,01,51,091,33,04,05,209,26,05,21,310,45,09,25,257,43,7*7F
$GAGSV,3,2,10,13,15,032,24,21,04,098,25,24,20,282,47,26,44,085,33,7*75
$GAGSV,3,3,10,31,68,296,45,33,32,149,45,7*7E
$GAGSV,3,1,10,01,51,091,41,04,05,209,,05,21,310,42,09,25,257,47,2*78
$GAGSV,3,2,10,13,15,032,30,21,04,098,25,24,20,282,48,26,44,085,38,2*71
$GAGSV,3,3,10,31,68,296,49,33,32,149,40,2*72
$GBGSV,3,1,11,02,04,106,,05,18,128,,10,05,081,20,12,30,190,40,1*71
$GBGSV,3,2,11,13,29,087,29,24,77,286,35,25,19,300,48,26,50,128,41,1*79
$GBGSV,3,3,11,29,08,039,,33,00,258,,35,51,069,44,1*4D
$GBGSV,3,1,11,02,04,106,,05,18,128,,10,05,081,,12,30,190,48,3*79
$GBGSV,3,2,11,13,29,087,,24,77,286,,25,19,300,,26,50,128,,3*7F
$GBGSV,3,3,11,29,08,039,,33,00,258,,35,51,069,,3*4F
$GNGLL,5025.4454009,N,01411.3836016,E,212827.00,A,A*7D
$GNRMC,212828.00,A,5025.4454076,N,01411.3835909,E,0.006,,241021,,,A,V*1F
$GNVTG,,T,,M,0.006,N,0.011,K,A*3B
$GNGGA,212828.00,5025.4454076,N,01411.3835909,E,1,12,0.77,208.478,M,44.078,M,,*46
$GNGSA,A,3,33,26,05,31,01,24,13,09,,,,,1.50,0.77,1.29,3*02
$GNGSA,A,3,12,13,25,24,26,35,,,,,,,1.50,0.77,1.29,4*08
$GAGSV,3,1,10,01,51,091,33,04,05,209,26,05,21,310,45,09,25,257,43,7*7F
$GAGSV,3,2,10,13,15,032,24,21,04,098,25,24,20,282,47,26,44,085,33,7*75
$GAGSV,3,3,10,31,68,296,45,33,32,149,45,7*7E
$GAGSV,3,1,10,01,51,091,41,04,05,209,,05,21,310,42,09,25,257,47,2*78
$GAGSV,3,2,10,13,15,032,30,21,04,098,25,24,20,282,48,26,44,085,38,2*71
$GAGSV,3,3,10,31,68,296,49,33,32,149,40,2*72
$GBGSV,3,1,11,02,04,106,,05,18,128,,10,05,081,20,12,30,190,40,1*71
$GBGSV,3,2,11,13,29,087,29,24,77,286,34,25,19,300,48,26,50,128,41,1*78
$GBGSV,3,3,11,29,08,039,,33,00,258,,35,51,069,43,1*4A
$GBGSV,3,1,11,02,04,106,,05,18,128,,10,05,081,,12,30,190,48,3*79
$GBGSV,3,2,11,13,29,087,,24,77,286,,25,19,300,,26,50,128,,3*7F
$GBGSV,3,3,11,29,08,039,,33,00,258,,35,51,069,,3*4F
$GNGLL,5025.4454076,N,01411.3835909,E,212828.00,A,A*7E
$GNRMC,212829.00,A,5025.4454174,N,01411.3835805,E,0.013,,241021,,,A,V*14
$GNVTG,,T,,M,0.013,N,0.023,K,A*3E
$GNGGA,212829.00,5025.4454174,N,01411.3835805,E,1,12,0.77,208.647,M,44.078,M,,*47
$GNGSA,A,3,33,26,05,31,01,24,13,09,,,,,1.50,0.77,1.29,3*02
$GNGSA,A,3,12,13,25,24,26,35,,,,,,,1.50,0.77,1.29,4*08
$GAGSV,3,1,10,01,51,091,33,04,05,209,26,05,21,310,45,09,25,257,43,7*7F
$GAGSV,3,2,10,13,15,032,25,21,04,098,24,24,20,282,47,26,44,085,33,7*75
$GAGSV,3,3,10,31,68,296,45,33,32,149,45,7*7E
$GAGSV,3,1,10,01,51,091,41,04,05,209,,05,21,310,42,09,25,257,47,2*78
$GAGSV,3,2,10,13,15,032,30,21,04,098,25,24,20,282,48,26,44,085,38,2*71
$GAGSV,3,3,10,31,68,296,49,33,32,149,41,2*73
$GBGSV,3,1,11,02,04,106,,05,18,128,,10,05,081,20,12,30,190,40,1*71
$GBGSV,3,2,11,13,29,087,28,24,77,286,34,25,19,300,48,26,50,128,41,1*79
$GBGSV,3,3,11,29,08,039,,33,00,258,,35,51,069,43,1*4A
$GBGSV,3,1,11,02,04,106,,05,18,128,,10,05,081,,12,30,190,48,3*79
$GBGSV,3,2,11,13,29,087,,24,77,286,,25,19,300,,26,50,128,,3*7F
$GBGSV,3,3,11,29,08,039,,33,00,258,,35,51,069,,3*4F
$GNGLL,5025.4454174,N,01411.3835805,E,212829.00,A,A*71
$GNRMC,212830.00,A,5025.4454233,N,01411.3835665,E,0.006,,241021,,,A,V*10
$GNVTG,,T,,M,0.006,N,0.012,K,A*38
$GNGGA,212830.00,5025.4454233,N,01411.3835665,E,1,12,0.77,208.811,M,44.078,M,,*4A
$GNGSA,A,3,33,26,05,31,01,24,13,09,,,,,1.50,0.77,1.29,3*02
$GNGSA,A,3,12,13,25,24,26,35,,,,,,,1.50,0.77,1.29,4*08
$GAGSV,3,1,10,01,51,091,33,04,05,209,26,05,21,310,45,09,25,257,43,7*7F
$GAGSV,3,2,10,13,15,032,25,21,04,098,23,24,20,282,47,26,44,085,33,7*72
$GAGSV,3,3,10,31,68,296,45,33,32,149,45,7*7E
$GAGSV,3,1,10,01,51,091,41,04,05,209,,05,21,310,42,09,25,257,47,2*78
$GAGSV,3,2,10,13,15,032,30,21,04,098,24,24,20,282,48,26,44,085,38,2*70
$GAGSV,3,3,10,31,68,296,49,33,32,149,41,2*73
$GBGSV,3,1,11,02,04,106,,05,18,128,,10,05,081,20,12,30,190,41,1*70
$GBGSV,3,2,11,13,29,087,28,24,77,286,34,25,19,300,48,26,50,128,41,1*79
$GBGSV,3,3,11,29,08,039,,33,00,258,,35,51,069,43,1*4A
$GBGSV,3,1,11,02,04,106,,05,18,128,,10,05,081,,12,30,190,48,3*79
$GBGSV,3,2,11,13,29,087,22,24,77,286,,25,19,300,,26,50,128,,3*7F
$GBGSV,3,3,11,29,08,039,,33,00,258,,35,51,069,,3*4F
$GNGLL,5025.4454233,N,01411.3835665,E,212830.00,A,A*71
$GNRMC,212831.00,A,5025.4454344,N,01411.3835485,E,0.011,,241021,,,A,V*1A
$GNVTG,,T,,M,0.011,N,0.021,K,A*3E
$GNGGA,212831.00,5025.4454344,N,01411.3835485,E,1,12,0.77,208.964,M,44.078,M,,*45
$GNGSA,A,3,33,26,05,31,01,24,13,09,,,,,1.50,0.77,1.29,3*02
$GNGSA,A,3,12,13,25,24,26,35,,,,,,,1.50,0.77,1.29,4*08
$GAGSV,3,1,10,01,51,091,33,04,05,209,26,05,21,310,45,09,25,257,43,7*7F
$GAGSV,3,2,10,13,15,032,24,21,04,098,22,24,20,282,47,26,44,085,33,7*72
$GAGSV,3,3,10,31,69,296,45,33,32,149,45,7*7F
$GAGSV,3,1,10,01,51,091,41,04,05,209,,05,21,310,42,09,25,257,46,2*79
$GAGSV,3,2,10,13,15,032,30,21,04,098,24,24,20,282,48,26,44,085,38,2*70
$GAGSV,3,3,10,31,69,296,49,33,32,149,41,2*72
$GBGSV,3,1,11,02,04,106,,05,18,128,,10,05,081,20,12,30,190,41,1*70
$GBGSV,3,2,11,13,29,087,29,24,77,286,34,25,19,300,48,26,50,128,41,1*78
$GBGSV,3,3,11,29,08,039,,33,00,258,,35,51,069,43,1*4A
$GBGSV,3,1,11,02,04,106,,05,18,128,,10,05,081,,12,30,190,48,3*79
$GBGSV,3,2,11,13,29,087,22,24,77,286,,25,19,300,,26,50,128,,3*7F
$GBGSV,3,3,11,29,08,039,,33,00,258,,35,51,069,,3*4F
$GNGLL,5025.4454344,N,01411.3835485,E,212831.00,A,A*7D
$GNRMC,212832.00,A,5025.4454440,N,01411.3835322,E,0.011,,241021,,,A,V*10
$GNVTG,,T,,M,0.011,N,0.021,K,A*3E
$GNGGA,212832.00,5025.4454440,N,01411.3835322,E,1,12,0.77,209.134,M,44.078,M,,*43
$GNGSA,A,3,33,26,05,31,01,24,13,09,,,,,1.50,0.77,1.29,3*02
$GNGSA,A,3,12,13,25,24,26,35,,,,,,,1.50,0.77,1.29,4*08
$GAGSV,3,1,10,01,51,091,33,04,05,209,26,05,21,310,45,09,25,257,43,7*7F
$GAGSV,3,2,10,13,15,032,25,21,04,098,22,24,20,282,47,26,44,085,33,7*73
$GAGSV,3,3,10,31,69,296,45,33,32,149,45,7*7F
$GAGSV,3,1,10,01,51,091,41,04,05,209,,05,21,310,42,09,25,257,47,2*78
$GAGSV,3,2,10,13,15,032,30,21,04,098,24,24,20,282,48,26,44,085,39,2*71
$GAGSV,3,3,10,31,69,296,49,33,32,149,41,2*72
$GBGSV,3,1,11,02,04,106,,05,18,128,,10,05,081,21,12,30,190,41,1*71
$GBGSV,3,2,11,13,29,087,29,24,77,286,33,25,19,300,48,26,50,128,41,1*7F
$GBGSV,3,3,11,29,08,039,,33,00,258,,35,51,069,43,1*4A
$GBGSV,3,1,11,02,04,106,,05,18,128,,10,05,081,,12,30,190,48,3*79
$GBGSV,3,2,11,13,29,087,,24,77,286,,25,19,300,,26,50,128,,3*7F
$GBGSV,3,3,11,29,08,039,,33,00,258,,35,51,069,,3*4F
$GNGLL,5025.4454440,N,01411.3835322,E,212832.00,A,A*77
$GNRMC,212833.00,A,5025.4454554,N,01411.3835147,E,0.004,,241021,,,A,V*10
$GNVTG,,T,,M,0.004,N,0.008,K,A*31
$GNGGA,212833.00,5025.4454554,N,01411.3835147,E,1,12,0.77,209.309,M,44.078,M,,*4B
$GNGSA,A,3,33,26,05,31,01,24,13,09,,,,,1.50,0.77,1.29,3*02
$GNGSA,A,3,12,13,25,24,26,35,,,,,,,1.50,0.77,1.29,4*08
$GAGSV,3,1,10,01,51,091,33,04,05,209,26,05,21,310,45,09,25,257,43,7*7F
$GAGSV,3,2,10,13,15,032,25,21,04,098,21,24,20,282,47,26,44,085,33,7*70
$GAGSV,3,3,10,31,69,296,45,33,32,149,44,7*7E
$GAGSV,3,1,10,01,51,091,41,04,05,209,,05,21,310,42,09,25,257,47,2*78
$GAGSV,3,2,10,13,15,032,30,21,04,098,24,24,20,282,48,26,44,085,38,2*70
$GAGSV,3,3,10,31,69,296,49,33,32,149,41,2*72
$GBGSV,3,1,11,02,04,106,,05,18,128,,10,05,081,21,12,30,190,41,1*71
$GBGSV,3,2,11,13,29,087,29,24,77,286,33,25,19,300,48,26,50,128,41,1*7F
$GBGSV,3,3,11,29,08,039,,33,00,258,,35,51,069,43,1*4A
$GBGSV,3,1,11,02,04,106,,05,18,128,,10,05,081,,12,30,190,48,3*79
$GBGSV,3,2,11,13,29,087,,24,77,286,,25,19,300,,26,50,128,,3*7F
$GBGSV,3,3,11,29,08,039,,33,00,258,,35,51,069,,3*4F
$GNGLL,5025.4454554,N,01411.3835147,E,212833.00,A,A*73
$GNRMC,212834.00,A,5025.4454763,N,01411.3835022,E,0.007,,241021,,,A,V*10
$GNVTG,,T,,M,0.007,N,0.014,K,A*3F
$GNGGA,212834.00,5025.4454763,N,01411.3835022,E,1,12,0.77,209.456,M,44.078,M,,*45
$GNGSA,A,3,33,26,05,31,01,24,13,09,,,,,1.50,0.77,1.29,3*02
$GNGSA,A,3,12,13,25,24,26,35,,,,,,,1.50,0.77,1.29,4*08
$GAGSV,3,1,10,01,51,091,33,04,05,209,26,05,21,310,45,09,25,257,43,7*7F
$GAGSV,3,2,10,13,15,032,25,21,04,098,20,24,20,282,47,26,44,085,33,7*71
$GAGSV,3,3,10,31,69,296,45,33,32,149,44,7*7E
$GAGSV,3,1,10,01,51,091,41,04,05,209,,05,21,310,42,09,25,257,47,2*78
$GAGSV,3,2,10,13,15,032,30,21,04,098,23,24,20,282,48,26,44,085,39,2*76
$GAGSV,3,3,10,31,69,296,49,33,32,149,41,2*72
$GBGSV,3,1,11,02,04,106,,05,18,128,,10,05,081,21,12,30,190,41,1*71
$GBGSV,3,2,11,13,29,087,29,24,77,286,33,25,19,300,48,26,50,128,41,1*7F
$GBGSV,3,3,11,29,08,039,,33,00,258,,35,51,069,43,1*4A
$GBGSV,3,1,11,02,04,106,,05,18,128,,10,05,081,,12,30,190,48,3*79
$GBGSV,3,2,11,13,29,087,,24,77,286,,25,19,300,,26,50,128,,3*7F
$GBGSV,3,3,11,29,08,039,,33,00,258,,35,51,069,,3*4F
$GNGLL,5025.4454763,N,01411.3835022,E,212834.00,A,A*70
$GNRMC,212835.00,A,5025.4454968,N,01411.3834886,E,0.006,,241021,,,A,V*12
$GNVTG,,T,,M,0.006,N,0.011,K,A*3B
$GNGGA,212835.00,5025.4454968,N,01411.3834886,E,1,12,0.77,209.595,M,44.078,M,,*48
$GNGSA,A,3,33,26,05,31,01,24,13,09,,,,,1.50,0.77,1.29,3*02
$GNGSA,A,3,12,13,25,24,26,35,,,,,,,1.50,0.77,1.29,4*08
$GAGSV,3,1,10,01,51,091,33,04,05,209,26,05,21,310,45,09,25,257,43,7*7F
$GAGSV,3,2,10,13,15,032,25,21,04,098,20,24,20,282,47,26,44,085,33,7*71
$GAGSV,3,3,10,31,69,296,45,33,32,149,44,7*7E
$GAGSV,3,1,10,01,51,091,41,04,05,209,,05,21,310,42,09,25,257,47,2*78
$GAGSV,3,2,10,13,15,032,30,21,04,098,23,24,20,282,48,26,44,085,39,2*76
$GAGSV,3,3,10,31,69,296,49,33,32,149,41,2*72
$GBGSV,3,1,11,02,04,106,,05,18,128,,10,05,081,20,12,30,190,41,1*70
$GBGSV,3,2,11,13,29,087,28,24,77,286,33,25,19,300,48,26,50,128,41,1*7E
$GBGSV,3,3,11,29,08,039,,33,00,258,,35,51,069,43,1*4A
$GBGSV,3,1,11,02,04,106,,05,18,128,,10,05,081,,12,30,190,48,3*79
$GBGSV,3,2,11,13,29,087,,24,77,286,,25,19,300,,26,50,128,,3*7F
$GBGSV,3,3,11,29,08,039,,33,00,258,,35,51,069,,3*4F
$GNGLL,5025.4454968,N,01411.3834886,E,212835.00,A,A*73
$GNRMC,212836.00,A,5025.4455155,N,01411.3834790,E,0.014,,241021,,,A,V*1D
$GNVTG,,T,,M,0.014,N,0.026,K,A*3C
$GNGGA,212836.00,5025.4455155,N,01411.3834790,E,1,12,0.77,209.717,M,44.078,M,,*4C
$GNGSA,A,3,33,26,05,31,01,24,13,09,,,,,1.50,0.77,1.29,3*02
$GNGSA,A,3,12,13,25,24,26,35,,,,,,,1.50,0.77,1.29,4*08
$GAGSV,3,1,10,01,51,091,33,04,05,209,25,05,21,310,45,09,25,257,43,7*7C
$GAGSV,3,2,10,13,15,032,26,21,04,098,20,24,20,282,47,26,44,085,33,7*72
$GAGSV,3,3,10,31,69,296,46,33,32,149,44,7*7D
$GAGSV,3,1,10,01,51,091,41,04,05,209,,05,21,310,42,09,25,257,47,2*78
$GAGSV,3,2,10,13,15,032,30,21,04,098,23,24,20,282,48,26,44,085,39,2*76
$GAGSV,3,3,10,31,69,296,49,33,32,149,41,2*72
$GBGSV,3,1,11,02,04,106,,05,18,128,,10,05,081,21,12,30,190,41,1*71
$GBGSV,3,2,11,13,29,087,29,24,77,286,33,25,19,300,48,26,50,128,41,1*7F
$GBGSV,3,3,11,29,08,039,,33,00,258,,35,51,069,43,1*4A
$GBGSV,3,1,11,02,04,106,,05,18,128,,10,05,081,,12,30,190,48,3*79
$GBGSV,3,2,11,13,29,087,,24,77,286,,25,19,300,,26,50,128,,3*7F
$GBGSV,3,3,11,29,08,039,,33,00,258,,35,51,069,,3*4F
$GNGLL,5025.4455155,N,01411.3834790,E,212836.00,A,A*7F
$GNRMC,212837.00,A,5025.4455374,N,01411.3834698,E,0.015,,241021,,,A,V*15
$GNVTG,,T,,M,0.015,N,0.028,K,A*33
$GNGGA,212837.00,5025.4455374,N,01411.3834698,E,1,12,0.77,209.840,M,44.078,M,,*48
$GNGSA,A,3,33,26,05,31,01,24,13,09,,,,,1.50,0.77,1.29,3*02
$GNGSA,A,3,12,13,25,24,26,35,,,,,,,1.50,0.77,1.29,4*08
$GAGSV,3,1,10,01,51,091,33,04,05,209,25,05,21,310,45,09,25,257,43,7*7C
$GAGSV,3,2,10,13,15,032,26,21,04,098,20,24,20,282,47,26,44,085,33,7*72
$GAGSV,3,3,10,31,69,296,46,33,32,149,44,7*7D
$GAGSV,3,1,10,01,51,091,41,04,05,209,,05,21,310,42,09,25,257,47,2*78
$GAGSV,3,2,10,13,15,032,30,21,04,098,23,24,20,282,48,26,44,085,39,2*76
$GAGSV,3,3,10,31,69,296,49,33,32,149,41,2*72
$GBGSV,3,1,11,02,04,106,,05,18,128,,10,05,081,21,12,30,190,41,1*71
$GBGSV,3,2,11,13,29,087,28,24,77,286,33,25,19,300,48,26,50,128,41,1*7E
$GBGSV,3,3,11,29,08,039,23,33,00,258,,35,51,069,42,1*4A
$GBGSV,3,1,11,02,04,106,,05,18,128,,10,05,081,,12,30,190,47,3*76
$GBGSV,3,2,11,13,29,087,,24,77,286,,25,19,300,,26,50,128,,3*7F
$GBGSV,3,3,11,29,08,039,,33,00,258,,35,51,069,,3*4F
$GNGLL,5025.4455374,N,01411.3834698,E,212837.00,A,A*76
$GNRMC,212838.00,A,5025.4453847,N,01411.3833289,E,0.066,,241021,,,D,V*15
$GNVTG,,T,,M,0.066,N,0.123,K,D*38
$GNGGA,212838.00,5025.4453847,N,01411.3833289,E,2,12,0.77,210.335,M,44.078,M,1.0,0084*68
$GNGSA,A,3,33,26,05,31,01,24,13,09,,,,,1.50,0.77,1.29,3*02
$GNGSA,A,3,12,13,25,24,26,35,,,,,,,1.50,0.77,1.29,4*08
$GAGSV,3,1,10,01,51,091,33,04,05,209,25,05,21,310,45,09,25,257,42,7*7D
$GAGSV,3,2,10,13,15,032,25,21,04,098,20,24,20,282,47,26,44,085,33,7*71
$GAGSV,3,3,10,31,69,296,46,33,32,149,44,7*7D
$GAGSV,3,1,10,01,51,091,41,04,05,209,,05,21,310,42,09,25,257,47,2*78
$GAGSV,3,2,10,13,15,032,30,21,04,098,23,24,20,282,48,26,44,085,39,2*76
$GAGSV,3,3,10,31,69,296,49,33,32,149,42,2*71
$GBGSV,3,1,11,02,04,106,,05,18,128,,10,05,081,20,12,30,190,41,1*70
$GBGSV,3,2,11,13,29,087,28,24,77,286,33,25,19,300,48,26,50,128,41,1*7E
$GBGSV,3,3,11,29,08,039,,33,00,258,,35,51,069,42,1*4B
$GBGSV,3,1,11,02,04,106,,05,18,128,,10,05,081,,12,30,190,47,3*76
$GBGSV,3,2,11,13,29,087,,24,77,286,,25,19,300,,26,50,128,,3*7F
$GBGSV,3,3,11,29,08,039,,33,00,258,,35,51,069,,3*4F
$GNGLL,5025.4453847,N,01411.3833289,E,212838.00,A,D*72
$GNRMC,212839.00,A,5025.4454153,N,01411.3833245,E,0.008,,241021,,,F,V*15
$GNVTG,,T,,M,0.008,N,0.015,K,D*34
$GNGGA,212839.00,5025.4454153,N,01411.3833245,E,5,12,0.77,210.538,M,44.078,M,1.0,0084*6E
$GNGSA,A,3,33,26,05,31,01,24,13,09,,,,,1.50,0.77,1.29,3*02
$GNGSA,A,3,12,13,25,24,26,35,,,,,,,1.50,0.77,1.29,4*08
$GAGSV,3,1,10,01,51,091,33,04,05,209,25,05,21,310,45,09,25,257,42,7*7D
$GAGSV,3,2,10,13,15,032,25,21,04,098,20,24,20,282,47,26,44,085,33,7*71
$GAGSV,3,3,10,31,69,296,46,33,32,149,44,7*7D
$GAGSV,3,1,10,01,51,091,41,04,05,209,,05,21,310,42,09,25,257,47,2*78
$GAGSV,3,2,10,13,15,032,30,21,04,098,23,24,20,282,48,26,44,085,39,2*76
$GAGSV,3,3,10,31,69,296,49,33,32,149,42,2*71
$GBGSV,3,1,11,02,04,106,,05,18,128,,10,05,081,,12,30,190,41,1*72
$GBGSV,3,2,11,13,29,087,28,24,77,286,33,25,19,300,48,26,50,128,41,1*7E
$GBGSV,3,3,11,29,08,039,,33,00,258,,35,51,069,42,1*4B
$GBGSV,3,1,11,02,04,106,,05,18,128,,10,05,081,,12,30,190,47,3*76
$GBGSV,3,2,11,13,29,087,,24,77,286,,25,19,300,,26,50,128,,3*7F
$GBGSV,3,3,11,29,08,039,,33,00,258,,35,51,069,,3*4F
$GNGLL,5025.4454153,N,01411.3833245,E,212839.00,A,D*78
$GNRMC,212840.00,A,5025.4454128,N,01411.3832676,E,0.008,,241021,,,F,V*12
$GNVTG,,T,,M,0.008,N,0.016,K,D*37
$GNGGA,212840.00,5025.4454128,N,01411.3832676,E,5,12,0.77,210.865,M,44.078,M,1.0,0084*6C
$GNGSA,A,3,33,26,05,31,01,24,13,09,,,,,1.50,0.77,1.29,3*02
$GNGSA,A,3,12,13,25,24,26,35,,,,,,,1.50,0.77,1.29,4*08
$GAGSV,3,1,10,01,51,091,33,04,05,209,25,05,21,310,45,09,25,257,42,7*7D
$GAGSV,3,2,10,13,15,032,25,21,04,098,19,24,20,282,47,26,44,085,33,7*7B
$GAGSV,3,3,10,31,69,296,46,33,32,149,44,7*7D
$GAGSV,3,1,10,01,51,091,41,04,05,209,,05,21,310,42,09,25,257,47,2*78
$GAGSV,3,2,10,13,15,032,30,21,04,098,22,24,20,282,48,26,44,085,39,2*77
$GAGSV,3,3,10,31,69,296,49,33,32,149,42,2*71
$GBGSV,3,1,11,02,04,106,,05,18,128,,10,05,081,21,12,30,190,41,1*71
$GBGSV,3,2,11,13,29,087,28,24,77,286,33,25,19,300,48,26,50,128,41,1*7E
$GBGSV,3,3,11,29,08,039,,33,00,258,,35,51,069,42,1*4B
$GBGSV,3,1,11,02,04,106,,05,18,128,,10,05,081,,12,30,190,47,3*76
$GBGSV,3,2,11,13,29,087,,24,77,286,,25,19,300,,26,50,128,,3*7F
$GBGSV,3,3,11,29,08,039,,33,00,258,,35,51,069,,3*4F
$GNGLL,5025.4454128,N,01411.3832676,E,212840.00,A,D*7F
$GNRMC,212841.00,A,5025.4454068,N,01411.3832120,E,0.020,,241021,,,F,V*18
$GNVTG,,T,,M,0.020,N,0.037,K,D*3E
$GNGGA,212841.00,5025.4454068,N,01411.3832120,E,5,12,0.77,211.173,M,44.078,M,1.0,0084*63
$GNGSA,A,3,33,26,05,31,01,24,13,09,,,,,1.50,0.77,1.29,3*02
$GNGSA,A,3,12,13,25,24,26,35,,,,,,,1.50,0.77,1.29,4*08
$GAGSV,3,1,10,01,51,091,33,04,05,209,26,05,21,310,45,09,25,257,42,7*7E
$GAGSV,3,2,10,13,15,032,25,21,04,098,20,24,20,282,47,26,44,085,33,7*71
$GAGSV,3,3,10,31,69,296,46,33,32,149,44,7*7D
$GAGSV,3,1,10,01,51,091,41,04,05,209,,05,21,310,42,09,25,257,47,2*78
$GAGSV,3,2,10,13,15,032,30,21,04,098,22,24,20,282,48,26,44,085,39,2*77
$GAGSV,3,3,10,31,69,296,49,33,32,149,42,2*71
$GBGSV,3,1,11,02,04,106,,05,18,128,,10,05,081,,12,30,190,42,1*71
$GBGSV,3,2,11,13,29,087,28,24,77,286,33,25,19,300,48,26,50,128,41,1*7E
$GBGSV,3,3,11,29,08,039,,33,00,258,,35,51,069,42,1*4B
$GBGSV,3,1,11,02,04,106,,05,18,128,,10,05,081,,12,30,190,47,3*76
$GBGSV,3,2,11,13,29,087,,24,77,286,,25,19,300,,26,50,128,,3*7F
$GBGSV,3,3,11,29,08,039,,33,00,258,,35,51,069,,3*4F
$GNGLL,5025.4454068,N,01411.3832120,E,212841.00,A,D*7F
$GNRMC,212842.00,A,5025.4453997,N,01411.3831467,E,0.008,,241021,,,F,V*1A
$GNVTG,,T,,M,0.008,N,0.015,K,D*34
$GNGGA,212842.00,5025.4453997,N,01411.3831467,E,5,12,0.77,211.540,M,44.078,M,1.0,0084*6F
$GNGSA,A,3,33,26,05,31,01,24,13,09,,,,,1.50,0.77,1.29,3*02
$GNGSA,A,3,12,13,25,24,26,35,,,,,,,1.50,0.77,1.29,4*08
$GAGSV,3,1,10,01,51,091,33,04,05,209,26,05,21,310,45,09,25,257,42,7*7E
$GAGSV,3,2,10,13,15,032,25,21,04,098,20,24,20,282,47,26,44,085,33,7*71
$GAGSV,3,3,10,31,69,296,46,33,32,149,44,7*7D
$GAGSV,3,1,10,01,51,091,41,04,05,209,,05,21,310,42,09,25,257,47,2*78
$GAGSV,3,2,10,13,15,032,30,21,04,098,22,24,20,282,48,26,44,085,39,2*77
$GAGSV,3,3,10,31,69,296,49,33,32,149,42,2*71
$GBGSV,3,1,11,02,04,106,,05,18,128,,10,05,081,,12,30,190,42,1*71
$GBGSV,3,2,11,13,29,087,28,24,77,286,33,25,19,300,48,26,50,128,41,1*7E
$GBGSV,3,3,11,29,08,039,21,33,00,258,,35,51,069,42,1*48
$GBGSV,3,1,11,02,04,106,,05,18,128,,10,05,081,,12,30,190,47,3*76
$GBGSV,3,2,11,13,29,087,,24,77,286,,25,19,300,,26,50,128,,3*7F
$GBGSV,3,3,11,29,08,039,,33,00,258,,35,51,069,,3*4F
$GNGLL,5025.4453997,N,01411.3831467,E,212842.00,A,D*77
$GNRMC,212843.00,A,5025.4453922,N,01411.3830688,E,0.009,,241021,,,F,V*16
$GNVTG,,T,,M,0.009,N,0.017,K,D*37
$GNGGA,212843.00,5025.4453922,N,01411.3830688,E,5,12,0.77,211.952,M,44.078,M,1.0,0084*6D
$GNGSA,A,3,33,26,05,31,01,24,13,09,,,,,1.50,0.77,1.29,3*02
$GNGSA,A,3,12,13,25,24,26,35,,,,,,,1.50,0.77,1.29,4*08
$GAGSV,3,1,10,01,51,091,33,04,05,209,26,05,21,310,45,09,25,257,42,7*7E
$GAGSV,3,2,10,13,15,032,25,21,04,098,20,24,20,282,47,26,44,085,33,7*71
$GAGSV,3,3,10,31,69,296,46,33,32,149,44,7*7D
$GAGSV,3,1,10,01,51,091,41,04,05,209,,05,21,310,42,09,25,257,47,2*78
$GAGSV,3,2,10,13,15,032,30,21,04,098,22,24,20,282,48,26,44,085,39,2*77
$GAGSV,3,3,10,31,69,296,49,33,32,149,42,2*71
$GBGSV,3,1,11,02,04,106,,05,18,128,,10,05,081,21,12,31,190,42,1*73
$GBGSV,3,2,11,13,29,087,29,24,77,286,34,25,19,300,48,26,50,128,41,1*78
$GBGSV,3,3,11,29,08,039,22,33,00,258,,35,51,069,41,1*48
$GBGSV,3,1,11,02,04,106,,05,18,128,,10,05,081,,12,31,190,47,3*77
$GBGSV,3,2,11,13,29,087,,24,77,286,,25,19,300,,26,50,128,,3*7F
$GBGSV,3,3,11,29,08,039,,33,00,258,,35,51,069,,3*4F
$GNGLL,5025.4453922,N,01411.3830688,E,212843.00,A,D*7A
$GNRMC,212844.00,A,5025.4453847,N,01411.3829973,E,0.009,,241021,,,F,V*10
$GNVTG,,T,,M,0.009,N,0.017,K,D*37
$GNGGA,212844.00,5025.4453847,N,01411.3829973,E,5,12,0.77,212.326,M,44.078,M,1.0,0084*61
$GNGSA,A,3,33,26,05,31,01,24,13,09,,,,,1.50,0.77,1.29,3*02
$GNGSA,A,3,12,13,25,24,26,35,,,,,,,1.50,0.77,1.29,4*08
$GAGSV,3,1,10,01,51,091,33,04,05,209,26,05,21,310,45,09,25,257,42,7*7E
$GAGSV,3,2,10,13,15,032,25,21,04,098,20,24,20,282,47,26,44,085,33,7*71
$GAGSV,3,3,10,31,69,296,46,33,32,149,44,7*7D
$GAGSV,3,1,10,01,51,091,41,04,05,209,,05,21,310,43,09,25,257,47,2*79
$GAGSV,3,2,10,13,15,032,30,21,04,098,21,24,20,282,48,26,44,085,39,2*74
$GAGSV,3,3,10,31,69,296,49,33,32,149,42,2*71
$GBGSV,3,1,11,02,04,106,,05,18,128,,10,05,081,,12,31,190,42,1*70
$GBGSV,3,2,11,13,29,087,29,24,77,286,34,25,19,300,48,26,50,128,41,1*78
$GBGSV,3,3,11,29,08,039,22,33,00,258,,35,51,069,41,1*48
$GBGSV,3,1,11,02,04,106,,05,18,128,,10,05,081,,12,31,190,48,3*78
$GBGSV,3,2,11,13,29,087,,24,77,286,,25,19,300,,26,50,128,,3*7F
$GBGSV,3,3,11,29,08,039,,33,00,258,,35,51,069,,3*4F
$GNGLL,5025.4453847,N,01411.3829973,E,212844.00,A,D*7C
$GNRMC,212845.00,A,5025.4453749,N,01411.3829184,E,0.023,,241021,,,F,V*18
$GNVTG,,T,,M,0.023,N,0.043,K,D*3E
$GNGGA,212845.00,5025.4453749,N,01411.3829184,E,5,12,0.77,212.732,M,44.078,M,1.0,0084*60
$GNGSA,A,3,33,26,05,31,01,24,13,09,,,,,1.50,0.77,1.29,3*02
$GNGSA,A,3,12,13,25,24,26,35,,,,,,,1.50,0.77,1.29,4*08
$GAGSV,3,1,10,01,51,091,33,04,05,209,26,05,21,310,45,09,25,257,42,7*7E
$GAGSV,3,2,10,13,15,032,25,21,04,098,20,24,20,282,47,26,44,085,33,7*71
$GAGSV,3,3,10,31,69,296,46,33,32,149,44,7*7D
$GAGSV,3,1,10,01,51,091,41,04,05,209,,05,21,310,42,09,25,257,47,2*78
$GAGSV,3,2,10,13,15,032,30,21,04,098,21,24,20,282,48,26,44,085,39,2*74
$GAGSV,3,3,10,31,69,296,49,33,32,149,42,2*71
$GBGSV,3,1,11,02,04,106,,05,18,128,,10,05,081,,12,31,190,42,1*70
$GBGSV,3,2,11,13,29,087,29,24,77,286,34,25,19,300,48,26,50,128,41,1*78
$GBGSV,3,3,11,29,08,039,22,33,00,258,,35,51,069,41,1*48
$GBGSV,3,1,11,02,04,106,,05,18,128,,10,05,081,,12,31,190,48,3*78
$GBGSV,3,2,11,13,29,087,,24,77,286,,25,19,300,,26,50,128,,3*7F
$GBGSV,3,3,11,29,08,039,,33,00,258,,35,51,069,,3*4F
$GNGLL,5025.4453749,N,01411.3829184,E,212845.00,A,D*7C
$GNRMC,212846.00,A,5025.4453682,N,01411.3828315,E,0.017,,241021,,,F,V*11
$GNVTG,,T,,M,0.017,N,0.032,K,D*3F
$GNGGA,212846.00,5025.4453682,N,01411.3828315,E,5,12,0.77,213.181,M,44.078,M,1.0,0084*61
$GNGSA,A,3,33,26,05,31,01,24,13,09,,,,,1.50,0.77,1.29,3*02
$GNGSA,A,3,12,13,25,24,26,35,,,,,,,1.50,0.77,1.29,4*08
$GAGSV,3,1,10,01,51,091,33,04,05,209,25,05,21,310,45,09,25,257,42,7*7D
$GAGSV,3,2,10,13,15,032,25,21,04,098,20,24,20,282,47,26,44,085,33,7*71
$GAGSV,3,3,10,31,69,296,46,33,32,149,44,7*7D
$GAGSV,3,1,10,01,51,091,41,04,05,209,,05,21,310,43,09,25,257,47,2*79
$GAGSV,3,2,10,13,15,032,30,21,04,098,21,24,20,282,48,26,44,085,39,2*74
$GAGSV,3,3,10,31,69,296,49,33,32,149,42,2*71
$GBGSV,3,1,11,02,04,106,,05,18,128,,10,05,081,,12,31,190,42,1*70
$GBGSV,3,2,11,13,29,087,29,24,77,286,35,25,19,300,48,26,50,128,41,1*79
$GBGSV,3,3,11,29,08,039,21,33,00,258,,35,51,069,41,1*4B
$GBGSV,3,1,11,02,04,106,,05,18,128,,10,05,081,,12,31,190,48,3*78
$GBGSV,3,2,11,13,29,087,,24,77,286,,25,19,300,,26,50,128,,3*7F
$GBGSV,3,3,11,29,08,039,,33,00,258,,35,51,069,,3*4F
$GNGLL,5025.4453682,N,01411.3828315,E,212846.00,A,D*72
$GNRMC,212847.00,A,5025.4453579,N,01411.3827541,E,0.026,,241021,,,F,V*1D
$GNVTG,,T,,M,0.026,N,0.047,K,D*3F
$GNGGA,212847.00,5025.4453579,N,01411.3827541,E,5,12,0.77,213.580,M,44.078,M,1.0,0084*6A
$GNGSA,A,3,33,26,05,31,01,24,13,09,,,,,1.50,0.77,1.29,3*02
$GNGSA,A,3,12,13,25,24,26,35,,,,,,,1.50,0.77,1.29,4*08
$GAGSV,3,1,10,01,51,091,33,04,05,209,25,05,21,310,45,09,25,257,42,7*7D
$GAGSV,3,2,10,13,15,032,24,21,04,098,20,24,20,282,47,26,44,085,33,7*70
$GAGSV,3,3,10,31,69,296,46,33,32,149,44,7*7D
$GAGSV,3,1,10,01,51,091,41,04,05,209,,05,21,310,42,09,25,257,47,2*78
$GAGSV,3,2,10,13,15,032,30,21,04,098,21,24,20,282,48,26,44,085,39,2*74
$GAGSV,3,3,10,31,69,296,49,33,32,149,43,2*70
$GBGSV,3,1,11,02,04,106,,05,18,128,,10,05,081,,12,31,190,42,1*70
$GBGSV,3,2,11,13,29,087,29,24,77,286,35,25,19,300,48,26,50,128,41,1*79
$GBGSV,3,3,11,29,08,039,21,33,00,258,,35,51,069,41,1*4B
$GBGSV,3,1,11,02,04,106,,05,18,128,,10,05,081,,12,31,190,48,3*78
$GBGSV,3,2,11,13,29,087,,24,77,286,,25,19,300,,26,50,128,,3*7F
$GBGSV,3,3,11,29,08,039,,33,00,258,,35,51,069,,3*4F
$GNGLL,5025.4453579,N,01411.3827541,E,212847.00,A,D*7C
$GNRMC,212848.00,A,5025.4453427,N,01411.3826825,E,0.030,,241021,,,F,V*11
$GNVTG,,T,,M,0.030,N,0.055,K,D*3B
$GNGGA,212848.00,5025.4453427,N,01411.3826825,E,5,12,0.77,213.943,M,44.078,M,1.0,0084*62
$GNGSA,A,3,33,26,05,31,01,24,13,09,,,,,1.50,0.77,1.29,3*02
$GNGSA,A,3,12,13,25,24,26,35,,,,,,,1.50,0.77,1.29,4*08
$GAGSV,3,1,10,01,51,091,34,04,05,209,25,05,21,310,45,09,25,257,42,7*7A
$GAGSV,3,2,10,13,15,032,23,21,04,098,19,24,20,282,47,26,44,085,33,7*7D
$GAGSV,3,3,10,31,69,296,46,33,32,149,44,7*7D
$GAGSV,3,1,10,01,51,091,41,04,05,209,,05,21,310,43,09,25,257,47,2*79
$GAGSV,3,2,10,13,15,032,30,21,04,098,21,24,20,282,48,26,44,085,39,2*74
$GAGSV,3,3,10,31,69,296,49,33,32,149,43,2*70
$GBGSV,3,1,11,02,04,106,,05,18,128,,10,05,081,,12,31,190,42,1*70
$GBGSV,3,2,11,13,29,087,29,24,77,286,36,25,19,300,48,26,50,128,41,1*7A
$GBGSV,3,3,11,29,08,039,20,33,00,258,,35,51,069,41,1*4A
$GBGSV,3,1,11,02,04,106,,05,18,128,,10,05,081,,12,31,190,48,3*78
$GBGSV,3,2,11,13,29,087,,24,77,286,,25,19,300,,26,50,128,,3*7F
$GBGSV,3,3,11,29,08,039,,33,00,258,,35,51,069,,3*4F
$GNGLL,5025.4453427,N,01411.3826825,E,212848.00,A,D*77
$GNRMC,212849.00,A,5025.4453281,N,01411.3826186,E,0.019,,241021,,,F,V*11
$GNVTG,,T,,M,0.019,N,0.034,K,D*37
$GNGGA,212849.00,5025.4453281,N,01411.3826186,E,5,12,0.77,214.274,M,44.078,M,1.0,0084*61
$GNGSA,A,3,33,26,05,31,01,24,13,09,,,,,1.50,0.77,1.29,3*02
$GNGSA,A,3,12,13,25,24,26,35,,,,,,,1.50,0.77,1.29,4*08
$GAGSV,3,1,10,01,51,091,33,04,05,209,25,05,21,310,45,09,25,257,42,7*7D
$GAGSV,3,2,10,13,15,032,23,21,04,098,19,24,20,282,47,26,44,085,33,7*7D
$GAGSV,3,3,10,31,69,296,46,33,32,149,44,7*7D
$GAGSV,3,1,10,01,51,091,41,04,05,209,,05,21,310,43,09,25,257,47,2*79
$GAGSV,3,2,10,13,15,032,30,21,04,098,21,24,20,282,48,26,44,085,39,2*74
$GAGSV,3,3,10,31,69,296,49,33,32,149,43,2*70
$GBGSV,3,1,11,02,04,106,,05,18,128,,10,05,081,22,12,31,190,42,1*70
$GBGSV,3,2,11,13,29,087,29,24,77,286,36,25,19,300,48,26,50,128,41,1*7A
$GBGSV,3,3,11,29,08,039,20,33,00,258,,35,51,069,40,1*4B
$GBGSV,3,1,11,02,04,106,,05,18,128,,10,05,081,,12,31,190,48,3*78
$GBGSV,3,2,11,13,29,087,,24,77,286,,25,19,300,,26,50,128,,3*7F
$GBGSV,3,3,11,29,08,039,,33,00,258,,35,51,069,,3*4F
$GNGLL,5025.4453281,N,01411.3826186,E,212849.00,A,D*7C
$GNRMC,212850.00,A,5025.4453108,N,01411.3825650,E,0.029,,241021,,,F,V*17
$GNVTG,,T,,M,0.029,N,0.054,K,D*32
$GNGGA,212850.00,5025.4453108,N,01411.3825650,E,5,12,0.77,214.527,M,44.078,M,1.0,0084*65
$GNGSA,A,3,33,26,05,31,01,24,13,09,,,,,1.50,0.77,1.29,3*02
$GNGSA,A,3,12,13,25,24,26,35,,,,,,,1.50,0.77,1.29,4*08
$GAGSV,3,1,10,01,51,091,34,04,05,209,24,05,21,310,45,09,25,257,42,7*7B
$GAGSV,3,2,10,13,15,032,22,21,04,098,20,24,20,282,47,26,44,085,33,7*76
$GAGSV,3,3,10,31,69,296,46,33,32,149,44,7*7D
$GAGSV,3,1,10,01,51,091,41,04,05,209,,05,21,310,43,09,25,257,46,2*78
$GAGSV,3,2,10,13,15,032,30,21,04,098,21,24,20,282,48,26,44,085,39,2*74
$GAGSV,3,3,10,31,69,296,49,33,32,149,43,2*70
$GBGSV,3,1,11,02,04,106,,05,18,128,,10,05,081,,12,31,190,42,1*70
$GBGSV,3,2,11,13,29,087,29,24,77,286,36,25,19,300,48,26,50,128,41,1*7A
$GBGSV,3,3,11,29,08,039,20,33,00,258,,35,51,069,40,1*4B
$GBGSV,3,1,11,02,04,106,,05,18,128,,10,05,081,,12,31,190,48,3*78
$GBGSV,3,2,11,13,29,087,,24,77,286,,25,19,300,,26,50,128,,3*7F
$GBGSV,3,3,11,29,08,039,,33,00,258,,35,51,069,,3*4F
$GNGLL,5025.4453108,N,01411.3825650,E,212850.00,A,D*79
$GNRMC,212851.00,A,5025.4452954,N,01411.3825095,E,0.020,,241021,,,F,V*10
$GNVTG,,T,,M,0.020,N,0.037,K,D*3E
$GNGGA,212851.00,5025.4452954,N,01411.3825095,E,5,12,0.77,214.782,M,44.078,M,1.0,0084*66
$GNGSA,A,3,33,26,05,31,01,24,13,09,,,,,1.50,0.77,1.29,3*02
$GNGSA,A,3,12,13,25,24,26,35,,,,,,,1.50,0.77,1.29,4*08
$GAGSV,3,1,10,01,51,091,33,04,05,209,25,05,21,310,45,09,25,257,42,7*7D
$GAGSV,3,2,10,13,15,032,22,21,04,098,19,24,20,282,47,26,44,085,33,7*7C
$GAGSV,3,3,10,31,69,296,46,33,32,149,44,7*7D
$GAGSV,3,1,10,01,51,091,41,04,05,209,,05,21,310,43,09,25,257,46,2*78
$GAGSV,3,2,10,13,15,032,30,21,04,098,21,24,20,282,48,26,44,085,39,2*74
$GAGSV,3,3,10,31,69,296,49,33,32,149,43,2*70
$GBGSV,3,1,11,02,04,106,,05,18,128,,10,05,081,,12,31,190,42,1*70
$GBGSV,3,2,11,13,29,087,29,24,77,286,37,25,19,300,48,26,50,128,41,1*7B
$GBGSV,3,3,11,29,08,039,21,33,00,258,,35,51,069,40,1*4A
$GBGSV,3,1,11,02,04,106,,05,18,128,,10,05,081,,12,31,190,48,3*78
$GBGSV,3,2,11,13,29,087,,24,77,286,,25,19,300,,26,50,128,,3*7F
$GBGSV,3,3,11,29,08,039,,33,00,258,,35,51,069,,3*4F
$GNGLL,5025.4452954,N,01411.3825095,E,212851.00,A,D*77
$GNRMC,212852.00,A,5025.4452897,N,01411.3824699,E,0.033,,241021,,,F,V*14
$GNVTG,,T,,M,0.033,N,0.061,K,D*3F
$GNGGA,212852.00,5025.4452897,N,01411.3824699,E,5,12,0.77,214.981,M,44.078,M,1.0,0084*6D
$GNGSA,A,3,33,26,05,31,01,24,13,09,,,,,1.50,0.77,1.29,3*02
$GNGSA,A,3,12,13,25,24,26,35,,,,,,,1.50,0.77,1.29,4*08
$GAGSV,3,1,10,01,51,091,33,04,05,209,24,05,21,310,45,09,25,257,42,7*7C
$GAGSV,3,2,10,13,15,032,21,21,04,098,20,24,20,282,47,26,44,085,33,7*75
$GAGSV,3,3,10,31,69,296,46,33,32,149,44,7*7D
$GAGSV,3,1,10,01,51,091,41,04,05,209,,05,21,310,43,09,25,257,46,2*78
$GAGSV,3,2,10,13,15,032,30,21,04,098,21,24,20,282,48,26,44,085,39,2*74
$GAGSV,3,3,10,31,69,296,49,33,32,149,43,2*70
$GBGSV,3,1,11,02,04,106,,05,18,128,,10,05,081,,12,31,190,42,1*70
$GBGSV,3,2,11,13,29,087,29,24,77,285,37,25,19,300,48,26,50,128,41,1*78
$GBGSV,3,3,11,29,08,039,20,33,00,258,,35,51,069,40,1*4B
$GBGSV,3,1,11,02,04,106,,05,18,128,,10,05,081,,12,31,190,48,3*78
$GBGSV,3,2,11,13,29,087,,24,77,285,,25,19,300,,26,50,128,,3*7C
$GBGSV,3,3,11,29,08,039,,33,00,258,,35,51,069,,3*4F
$GNGLL,5025.4452897,N,01411.3824699,E,212852.00,A,D*71
$GNRMC,212853.00,A,5025.4452886,N,01411.3824457,E,0.016,,241021,,,F,V*12
$GNVTG,,T,,M,0.016,N,0.030,K,D*3C
$GNGGA,212853.00,5025.4452886,N,01411.3824457,E,5,12,0.77,215.121,M,44.078,M,1.0,0084*6F
$GNGSA,A,3,33,26,05,31,01,24,13,09,,,,,1.50,0.77,1.29,3*02
$GNGSA,A,3,12,13,25,24,26,35,,,,,,,1.50,0.77,1.29,4*08
$GAGSV,3,1,10,01,51,091,34,04,05,209,24,05,21,310,45,09,25,257,42,7*7B
$GAGSV,3,2,10,13,15,032,21,21,04,098,20,24,20,282,47,26,44,085,33,7*75
$GAGSV,3,3,10,31,69,296,46,33,32,149,44,7*7D
$GAGSV,3,1,10,01,51,091,41,04,05,209,,05,21,310,43,09,25,257,46,2*78
$GAGSV,3,2,10,13,15,032,30,21,04,098,21,24,20,282,48,26,44,085,39,2*74
$GAGSV,3,3,10,31,69,296,49,33,32,149,43,2*70
$GBGSV,3,1,11,02,04,106,,05,18,128,,10,05,081,,12,31,190,42,1*70
$GBGSV,3,2,11,13,29,087,29,24,77,285,37,25,19,300,48,26,50,128,41,1*78
$GBGSV,3,3,11,29,08,039,20,33,00,258,,35,51,069,40,1*4B
$GBGSV,3,1,11,02,04,106,,05,18,128,,10,05,081,,12,31,190,48,3*78
$GBGSV,3,2,11,13,29,087,,24,77,285,,25,19,300,,26,50,128,,3*7C
$GBGSV,3,3,11,29,08,039,,33,00,258,,35,51,069,,3*4F
$GNGLL,5025.4452886,N,01411.3824457,E,212853.00,A,D*70
$GNRMC,212854.00,A,5025.4452859,N,01411.3824278,E,0.010,,241021,,,F,V*1A
$GNVTG,,T,,M,0.010,N,0.018,K,D*30
$GNGGA,212854.00,5025.4452859,N,01411.3824278,E,5,12,0.77,215.222,M,44.078,M,1.0,0084*61
$GNGSA,A,3,33,26,05,31,01,24,13,09,,,,,1.50,0.77,1.29,3*02
$GNGSA,A,3,12,13,25,24,26,35,,,,,,,1.50,0.77,1.29,4*08
$GAGSV,3,1,10,01,51,091,34,04,05,209,23,05,21,310,45,09,25,257,42,7*7C
$GAGSV,3,2,10,13,15,032,20,21,04,098,19,24,20,282,47,26,44,085,33,7*7E
$GAGSV,3,3,10,31,69,296,46,33,32,149,44,7*7D
$GAGSV,3,1,10,01,51,091,41,04,05,209,,05,21,310,43,09,25,257,46,2*78
$GAGSV,3,2,10,13,15,032,30,21,04,098,20,24,20,282,48,26,44,085,39,2*75
$GAGSV,3,3,10,31,69,296,49,33,32,149,43,2*70
$GBGSV,3,1,11,02,04,106,,05,18,128,,10,05,081,,12,31,190,42,1*70
$GBGSV,3,2,11,13,29,087,29,24,77,285,37,25,19,300,48,26,50,128,41,1*78
$GBGSV,3,3,11,29,08,039,20,33,00,258,,35,51,069,40,1*4B
$GBGSV,3,1,11,02,04,106,,05,18,128,,10,05,081,,12,31,190,48,3*78
$GBGSV,3,2,11,13,29,087,,24,77,285,,25,19,300,,26,50,128,,3*7C
$GBGSV,3,3,11,29,08,039,,33,00,258,,35,51,069,,3*4F
$GNGLL,5025.4452859,N,01411.3824278,E,212854.00,A,D*7E
$GNRMC,212855.00,A,5025.4452790,N,01411.3824037,E,0.018,,241021,,,F,V*10
$GNVTG,,T,,M,0.018,N,0.034,K,D*36
$GNGGA,212855.00,5025.4452790,N,01411.3824037,E,5,12,0.77,215.321,M,44.078,M,1.0,0084*61
$GNGSA,A,3,33,26,05,31,01,24,13,09,,,,,1.50,0.77,1.29,3*02
$GNGSA,A,3,12,13,25,24,26,35,,,,,,,1.50,0.77,1.29,4*08
$GAGSV,3,1,10,01,51,091,34,04,05,209,23,05,21,310,45,09,25,257,42,7*7C
$GAGSV,3,2,10,13,15,032,19,21,04,098,19,24,20,282,47,26,44,085,33,7*74
$GAGSV,3,3,10,31,69,296,46,33,32,149,44,7*7D
$GAGSV,3,1,10,01,51,091,41,04,05,209,,05,21,310,43,09,25,257,46,2*78
$GAGSV,3,2,10,13,15,032,30,21,04,098,20,24,20,282,48,26,44,085,39,2*75
$GAGSV,3,3,10,31,69,296,49,33,32,149,43,2*70
$GBGSV,3,1,11,02,04,106,,05,18,128,,10,05,081,,12,31,190,42,1*70
$GBGSV,3,2,11,13,29,087,29,24,77,285,37,25,19,300,48,26,50,128,41,1*78
$GBGSV,3,3,11,29,08,039,20,33,00,258,,35,51,069,40,1*4B
$GBGSV,3,1,11,02,04,106,,05,18,128,,10,05,081,,12,31,190,48,3*78
$GBGSV,3,2,11,13,29,087,,24,77,285,,25,19,300,,26,50,128,,3*7C
$GBGSV,3,3,11,29,08,039,,33,00,258,,35,51,069,,3*4F
$GNGLL,5025.4452790,N,01411.3824037,E,212855.00,A,D*7C
$GNRMC,212856.00,A,5025.4452786,N,01411.3823749,E,0.004,,241021,,,F,V*10
$GNVTG,,T,,M,0.004,N,0.008,K,D*34
$GNGGA,212856.00,5025.4452786,N,01411.3823749,E,5,12,0.77,215.440,M,44.078,M,1.0,0084*6C
$GNGSA,A,3,33,26,05,31,01,24,13,09,,,,,1.50,0.77,1.29,3*02
$GNGSA,A,3,12,13,25,24,26,35,,,,,,,1.50,0.77,1.29,4*08
$GAGSV,3,1,10,01,51,091,34,04,05,209,23,05,21,310,45,09,25,257,42,7*7C
$GAGSV,3,2,10,13,15,032,18,21,04,098,18,24,20,282,47,26,44,085,33,7*74
$GAGSV,3,3,10,31,69,296,46,33,32,149,44,7*7D
$GAGSV,3,1,10,01,51,091,41,04,05,209,,05,21,310,43,09,25,257,46,2*78
$GAGSV,3,2,10,13,15,032,30,21,04,098,20,24,20,282,48,26,44,085,39,2*75
$GAGSV,3,3,10,31,69,296,49,33,32,149,43,2*70
$GBGSV,3,1,11,02,04,106,,05,18,128,,10,05,081,,12,31,190,42,1*70
$GBGSV,3,2,11,13,29,087,29,24,77,285,37,25,19,300,48,26,50,128,41,1*78
$GBGSV,3,3,11,29,08,039,19,33,00,258,,35,51,069,40,1*41
$GBGSV,3,1,11,02,04,106,,05,18,128,,10,05,081,,12,31,190,48,3*78
$GBGSV,3,2,11,13,29,087,24,24,77,285,,25,19,300,,26,50,128,,3*7A
$GBGSV,3,3,11,29,08,039,,33,00,258,,35,51,069,,3*4F
$GNGLL,5025.4452786,N,01411.3823749,E,212856.00,A,D*71
$GNRMC,212857.00,A,5025.4452827,N,01411.3823506,E,0.009,,241021,,,F,V*11
$GNVTG,,T,,M,0.009,N,0.016,K,D*36
$GNGGA,212857.00,5025.4452827,N,01411.3823506,E,5,12,0.77,215.527,M,44.078,M,1.0,0084*60
$GNGSA,A,3,33,26,05,31,01,24,13,09,,,,,1.50,0.77,1.29,3*02
$GNGSA,A,3,12,13,25,24,26,35,,,,,,,1.50,0.77,1.29,4*08
$GAGSV,3,1,10,01,51,091,33,04,05,209,23,05,21,310,45,09,25,257,42,7*7B
$GAGSV,3,2,10,13,15,032,19,21,04,098,17,24,20,282,47,26,44,085,33,7*7A
$GAGSV,3,3,10,31,69,296,46,33,32,149,44,7*7D
$GAGSV,3,1,10,01,51,091,41,04,05,209,,05,21,310,43,09,25,257,46,2*78
$GAGSV,3,2,10,13,15,032,30,21,04,098,19,24,20,282,48,26,44,085,39,2*7F
$GAGSV,3,3,10,31,69,296,49,33,32,149,43,2*70
$GBGSV,3,1,11,02,04,106,,05,18,128,,10,05,081,,12,31,190,42,1*70
$GBGSV,3,2,11,13,29,087,29,24,77,285,37,25,19,300,48,26,50,128,41,1*78
$GBGSV,3,3,11,29,08,039,18,33,00,258,,35,51,069,40,1*40
$GBGSV,3,1,11,02,04,106,,05,18,128,,10,05,081,,12,31,190,48,3*78
$GBGSV,3,2,11,13,29,087,24,24,77,285,,25,19,300,,26,50,128,,3*7A
$GBGSV,3,3,11,29,08,039,,33,00,258,,35,51,069,,3*4F
$GNGLL,5025.4452827,N,01411.3823506,E,212857.00,A,D*7D
$GNRMC,212858.00,A,5025.4452831,N,01411.3823155,E,0.032,,241021,,,F,V*13
$GNVTG,,T,,M,0.032,N,0.059,K,D*35
$GNGGA,212858.00,5025.4452831,N,01411.3823155,E,5,12,0.77,215.644,M,44.078,M,1.0,0084*6C
$GNGSA,A,3,33,26,05,31,01,24,13,09,,,,,1.50,0.77,1.29,3*02
$GNGSA,A,3,12,13,25,24,26,35,,,,,,,1.50,0.77,1.29,4*08
$GAGSV,3,1,10,01,51,091,33,04,05,209,23,05,21,310,44,09,25,257,42,7*7A
$GAGSV,3,2,10,13,15,032,19,21,04,098,17,24,20,282,47,26,44,085,33,7*7A
$GAGSV,3,3,10,31,69,296,46,33,32,149,44,7*7D
$GAGSV,3,1,10,01,51,091,41,04,05,209,,05,21,310,43,09,25,257,46,2*78
$GAGSV,3,2,10,13,15,032,30,21,04,098,19,24,20,282,48,26,44,085,39,2*7F
$GAGSV,3,3,10,31,69,296,49,33,32,149,43,2*70
$GBGSV,3,1,11,02,04,106,,05,18,128,,10,05,081,,12,31,190,42,1*70
$GBGSV,3,2,11,13,29,087,29,24,77,285,37,25,19,300,48,26,50,128,41,1*78
$GBGSV,3,3,11,29,08,039,20,33,00,258,,35,51,069,39,1*45
$GBGSV,3,1,11,02,04,106,,05,18,128,,10,05,081,,12,31,190,48,3*78
$GBGSV,3,2,11,13,29,087,23,24,77,285,,25,19,300,,26,50,128,,3*7D
$GBGSV,3,3,11,29,08,039,,33,00,258,,35,51,069,,3*4F
$GNGLL,5025.4452831,N,01411.3823155,E,212858.00,A,D*77
$GNRMC,212859.00,A,5025.4452832,N,01411.3822815,E,0.024,,241021,,,F,V*1A
$GNVTG,,T,,M,0.024,N,0.044,K,D*3E
$GNGGA,212859.00,5025.4452832,N,01411.3822815,E,5,12,0.77,215.756,M,44.078,M,1.0,0084*60
$GNGSA,A,3,33,26,05,31,01,24,13,09,,,,,1.50,0.77,1.29,3*02
$GNGSA,A,3,12,13,25,24,26,35,,,,,,,1.50,0.77,1.29,4*08
$GAGSV,3,1,10,01,51,091,33,04,05,209,22,05,21,310,44,09,25,257,43,7*7A
$GAGSV,3,2,10,13,15,032,20,21,04,098,17,24,20,282,47,26,44,085,34,7*77
$GAGSV,3,3,10,31,69,296,46,33,32,149,43,7*7A
$GAGSV,3,1,10,01,51,091,41,04,05,209,,05,21,310,43,09,25,257,46,2*78
$GAGSV,3,2,10,13,15,032,30,21,04,098,19,24,20,282,48,26,44,085,39,2*7F
$GAGSV,3,3,10,31,69,296,49,33,32,149,43,2*70
$GBGSV,3,1,11,02,04,106,,05,18,128,,10,05,081,,12,31,190,42,1*70
$GBGSV,3,2,11,13,29,087,29,24,77,285,37,25,19,300,48,26,50,128,40,1*79
$GBGSV,3,3,11,29,08,039,21,33,00,258,,35,51,069,39,1*44
$GBGSV,3,1,11,02,04,106,,05,18,128,,10,05,081,,12,31,190,48,3*78
$GBGSV,3,2,11,13,29,087,23,24,77,285,,25,19,300,,26,50,128,,3*7D
$GBGSV,3,3,11,29,08,039,,33,00,258,,35,51,069,,3*4F
$GNGLL,5025.4452832,N,01411.3822815,E,212859.00,A,D*79
$GNRMC,212900.00,A,5025.4452842,N,01411.3822478,E,0.011,,241021,,,F,V*11
$GNVTG,,T,,M,0.011,N,0.021,K,D*3B
$GNGGA,212900.00,5025.4452842,N,01411.3822478,E,5,12,0.77,215.852,M,44.078,M,1.0,0084*66
$GNGSA,A,3,33,26,05,31,01,24,13,09,,,,,1.50,0.77,1.29,3*02
$GNGSA,A,3,12,13,25,24,26,35,,,,,,,1.50,0.77,1.29,4*08
$GAGSV,3,1,10,01,51,091,33,04,05,209,22,05,21,310,44,09,25,257,43,7*7A
$GAGSV,3,2,10,13,15,032,20,21,04,098,16,24,20,282,48,26,44,085,34,7*79
$GAGSV,3,3,10,31,69,296,46,33,32,149,43,7*7A
$GAGSV,3,1,10,01,51,091,41,04,05,209,,05,21,310,43,09,25,257,46,2*78
$GAGSV,3,2,10,13,15,032,30,21,04,098,20,24,20,282,48,26,44,085,39,2*75
$GAGSV,3,3,10,31,69,296,49,33,32,149,44,2*77
$GBGSV,3,1,11,02,04,106,,05,18,128,,10,05,081,,12,31,190,42,1*70
$GBGSV,3,2,11,13,29,087,29,24,77,285,37,25,19,300,48,26,50,128,40,1*79
$GBGSV,3,3,11,29,08,039,22,33,00,258,,35,51,069,39,1*47
$GBGSV,3,1,11,02,04,106,,05,18,128,,10,05,081,,12,31,190,48,3*78
$GBGSV,3,2,11,13,29,087,24,24,77,285,,25,19,300,,26,50,128,,3*7A
$GBGSV,3,3,11,29,08,039,,33,00,258,,35,51,069,,3*4F
$GNGLL,5025.4452842,N,01411.3822478,E,212900.00,A,D*74
$GNRMC,212901.00,A,5025.4452896,N,01411.3822209,E,0.006,,241021,,,F,V*1F
$GNVTG,,T,,M,0.006,N,0.011,K,D*3E
$GNGGA,212901.00,5025.4452896,N,01411.3822209,E,5,12,0.77,215.926,M,44.078,M,1.0,0084*6C
