$GNGGA,213957.00,5025.4447557,N,01411.3817967,E,4,12,0.88,217.826,M,44.078,M,1.0,0084*6D
$GNGSA,A,3,77,70,79,88,87,81,69,78,,,,,1.75,0.88,1.51,2*0B
$GNGSA,A,3,13,12,24,25,26,35,,,,,,,1.75,0.88,1.51,4*00
$GLGSV,2,1,08,69,16,281,50,70,14,340,16,77,24,113,19,78,77,061,51,1*76
$GLGSV,2,2,08,79,39,310,50,81,23,184,49,87,46,045,45,88,64,129,49,1*73
$GLGSV,2,1,08,69,16,281,43,70,14,340,,77,24,113,18,78,77,061,43,3*73
$GLGSV,2,2,08,79,39,310,43,81,23,184,42,87,46,045,,88,64,129,42,3*72
$GBGSV,3,1,10,02,04,106,,05,18,128,,10,04,083,17,12,35,190,43,1*71
$GBGSV,3,2,10,13,32,086,31,24,81,272,44,25,23,301,47,26,46,130,40,1*76
$GBGSV,3,3,10,29,04,039,20,35,48,064,39,1*72
$GBGSV,3,1,10,02,04,106,,05,18,128,,10,04,083,25,12,35,190,47,3*76
$GBGSV,3,2,10,13,32,086,28,24,81,272,,25,23,301,,26,46,130,,3*7B
$GBGSV,3,3,10,29,04,039,,35,48,064,,3*78
$GNGLL,5025.4447557,N,01411.3817967,E,213957.00,A,D*7F
$GNTXT,01,01,02,Starting GNSS*5A
$GNRMC,213957.13,V,,,,,,,241021,,,N,V*14
$GNVTG,,,,,,,,,N*2E
$GNGGA,213957.13,,,,,0,00,99.99,,,,,,*71
$GNGSA,A,1,,,,,,,,,,,,,99.99,99.99,99.99,3*31
$GNGSA,A,1,,,,,,,,,,,,,99.99,99.99,99.99,4*36
$GAGSV,1,1,00,7*73
$GAGSV,1,1,00,2*76
$GBGSV,1,1,00,1*76
$GBGSV,1,1,00,3*74
$GNGLL,,,,,213957.13,V,N*5D
$GNRMC,213957.17,V,,,,,,,241021,,,N,V*10
$GNVTG,,,,,,,,,N*2E
$GNGGA,213957.17,,,,,0,00,99.99,,,,,,*75
$GNGSA,A,1,,,,,,,,,,,,,99.99,99.99,99.99,3*31
$GNGSA,A,1,,,,,,,,,,,,,99.99,99.99,99.99,4*36
$GAGSV,3,1,11,01,48,095,,04,01,207,,05,21,306,,09,22,253,,7*7E
$GAGSV,3,2,11,12,01,183,,13,12,030,,21,01,101,,24,23,285,,7*72
$GAGSV,3,3,11,26,45,079,,31,72,301,,33,37,147,,7*4B
$GAGSV,3,1,11,01,48,095,,04,01,207,,05,21,306,,09,22,253,,2*7B
$GAGSV,3,2,11,12,01,183,,13,12,030,,21,01,101,,24,23,285,,2*77
$GAGSV,3,3,11,26,45,079,,31,72,301,,33,37,147,,2*4E
$GBGSV,3,1,10,02,04,106,,05,18,128,,10,04,083,,12,36,190,,1*73
$GBGSV,3,2,10,13,32,086,,24,81,271,,25,23,301,,26,45,131,,1*72
$GBGSV,3,3,10,29,04,039,,35,48,064,,1*7A
$GBGSV,3,1,10,02,04,106,,05,18,128,,10,04,083,,12,36,190,,3*71
$GBGSV,3,2,10,13,32,086,,24,81,271,,25,23,301,,26,45,131,,3*70
$GBGSV,3,3,10,29,04,039,,35,48,064,,3*78
$GNGLL,,,,,213957.17,V,N*59
$GNRMC,213958.00,A,5025.4452563,N,01411.3814417,E,0.043,,241021,,,A,V*1F
$GNVTG,,T,,M,0.043,N,0.080,K,A*32
$GNGGA,213958.00,5025.4452563,N,01411.3814417,E,1,12,0.78,219.727,M,44.078,M,,*41
$GNGSA,A,3,33,24,26,01,31,05,09,13,,,,,1.55,0.78,1.34,3*04
$GNGSA,A,3,12,13,25,24,26,35,,,,,,,1.55,0.78,1.34,4*0E
$GAGSV,3,1,11,01,48,095,39,04,01,207,,05,21,306,47,09,22,253,47,7*74
$GAGSV,3,2,11,12,01,183,,13,12,030,31,21,01,101,,24,23,285,48,7*7C
$GAGSV,3,3,11,26,45,079,38,31,72,301,43,33,37,147,39,7*4D
$GAGSV,3,1,11,01,48,095,44,04,01,207,,05,21,306,46,09,22,253,50,2*7C
$GAGSV,3,2,11,12,01,183,,13,12,030,,21,01,101,,24,23,285,51,2*73
$GAGSV,3,3,11,26,45,079,33,31,72,301,50,33,37,147,47,2*48
$GBGSV,3,1,10,02,04,106,,05,18,128,,10,04,083,20,12,36,190,43,1*76
$GBGSV,3,2,10,13,32,086,31,24,81,271,43,25,23,301,46,26,45,131,40,1*71
$GBGSV,3,3,10,29,04,039,20,35,48,064,40,1*7C
$GBGSV,3,1,10,02,04,106,,05,18,128,,10,04,083,24,12,36,190,46,3*75
$GBGSV,3,2,10,13,32,086,26,24,81,271,,25,23,301,,26,45,131,,3*74
$GBGSV,3,3,10,29,04,039,,35,48,064,,3*78
$GNGLL,5025.4452563,N,01411.3814417,E,213958.00,A,A*7F
$GNRMC,213959.00,A,5025.4455630,N,01411.3819956,E,0.120,,241021,,,A,V*1D
$GNVTG,,T,,M,0.120,N,0.222,K,A*3C
$GNGGA,213959.00,5025.4455630,N,01411.3819956,E,1,12,0.78,219.285,M,44.078,M,,*4A
$GNGSA,A,3,33,24,26,01,31,05,09,13,,,,,1.55,0.78,1.34,3*04
$GNGSA,A,3,12,13,25,24,26,35,,,,,,,1.55,0.78,1.34,4*0E
$GAGSV,3,1,11,01,48,095,38,04,01,207,,05,21,306,47,09,22,253,47,7*75
$GAGSV,3,2,11,12,01,183,,13,12,030,30,21,01,101,,24,23,285,47,7*72
$GAGSV,3,3,11,26,45,079,37,31,72,301,42,33,37,147,39,7*43
$GAGSV,3,1,11,01,48,095,44,04,01,207,,05,21,306,46,09,22,253,49,2*74
$GAGSV,3,2,11,12,01,183,,13,12,030,,21,01,101,,24,23,285,51,2*73
$GAGSV,3,3,11,26,45,079,33,31,72,301,49,33,37,147,47,2*40
$GBGSV,3,1,10,02,04,106,,05,18,128,,10,04,083,20,12,36,190,43,1*76
$GBGSV,3,2,10,13,32,086,31,24,81,271,43,25,23,301,46,26,45,131,39,1*7F
$GBGSV,3,3,10,29,04,039,20,35,48,064,39,1*72
$GBGSV,3,1,10,02,04,106,,05,18,128,,10,04,083,25,12,36,190,47,3*75
$GBGSV,3,2,10,13,32,086,27,24,81,271,,25,23,301,,26,45,131,,3*75
$GBGSV,3,3,10,29,04,039,,35,48,064,,3*78
$GNGLL,5025.4455630,N,01411.3819956,E,213959.00,A,A*79
$GNRMC,214000.00,A,5025.4459182,N,01411.3823436,E,0.026,,241021,,,A,V*18
$GNVTG,,T,,M,0.026,N,0.049,K,A*34
$GNGGA,214000.00,5025.4459182,N,01411.3823436,E,1,12,0.78,219.550,M,44.078,M,,*47
$GNGSA,A,3,33,24,26,01,31,05,09,13,,,,,1.55,0.78,1.34,3*04
$GNGSA,A,3,12,13,25,24,26,35,,,,,,,1.55,0.78,1.34,4*0E
$GAGSV,3,1,11,01,48,095,38,04,01,207,,05,21,306,47,09,22,253,47,7*75
$GAGSV,3,2,11,12,01,183,,13,12,030,29,21,01,101,,24,23,285,47,7*7A
$GAGSV,3,3,11,26,45,079,37,31,72,301,42,33,37,147,39,7*43
$GAGSV,3,1,11,01,48,095,42,04,01,207,,05,21,306,45,09,22,253,48,2*70
$GAGSV,3,2,11,12,01,183,,13,12,030,,21,01,101,,24,23,285,50,2*72
$GAGSV,3,3,11,26,45,079,32,31,72,301,48,33,37,147,46,2*41
$GBGSV,3,1,10,02,04,106,,05,18,128,,10,04,083,20,12,36,190,43,1*76
$GBGSV,3,2,10,13,32,086,31,24,81,271,44,25,23,301,47,26,45,131,40,1*77
$GBGSV,3,3,10,29,04,039,20,35,48,064,40,1*7C
$GBGSV,3,1,10,02,04,106,,05,18,128,,10,04,083,24,12,36,190,47,3*74
$GBGSV,3,2,10,13,32,086,28,24,81,271,,25,23,301,,26,45,131,,3*7A
$GBGSV,3,3,10,29,04,039,,35,48,064,,3*78
$GNGLL,5025.4459182,N,01411.3823436,E,214000.00,A,A*7B
$GNRMC,214001.00,A,5025.4462683,N,01411.3825423,E,0.012,,241021,,,A,V*12
$GNVTG,,T,,M,0.012,N,0.022,K,A*3E
$GNGGA,214001.00,5025.4462683,N,01411.3825423,E,1,12,0.78,219.896,M,44.078,M,,*4D
$GNGSA,A,3,33,24,26,01,31,05,09,13,,,,,1.55,0.78,1.34,3*04
$GNGSA,A,3,12,13,25,24,26,35,,,,,,,1.55,0.78,1.34,4*0E
$GAGSV,3,1,11,01,48,095,38,04,01,207,,05,21,306,47,09,22,253,46,7*74
$GAGSV,3,2,11,12,01,183,,13,12,030,29,21,01,101,,24,23,285,47,7*7A
$GAGSV,3,3,11,26,45,079,37,31,72,301,42,33,37,147,40,7*4D
$GAGSV,3,1,11,01,48,095,42,04,01,207,,05,21,306,44,09,22,253,47,2*7E
$GAGSV,3,2,11,12,01,183,,13,12,030,,21,01,101,,24,23,285,49,2*7A
$GAGSV,3,3,11,26,45,079,31,31,72,301,47,33,37,147,45,2*4E
$GBGSV,3,1,10,02,04,106,,05,18,128,,10,04,083,20,12,36,190,43,1*76
$GBGSV,3,2,10,13,32,086,31,24,81,271,44,25,23,301,47,26,45,131,40,1*77
$GBGSV,3,3,10,29,04,039,20,35,48,064,40,1*7C
$GBGSV,3,1,10,02,04,106,,05,18,128,,10,04,083,24,12,36,190,47,3*74
$GBGSV,3,2,10,13,32,086,28,24,81,271,,25,23,301,,26,45,131,,3*7A
$GBGSV,3,3,10,29,04,039,,35,48,064,,3*78
$GNGLL,5025.4462683,N,01411.3825423,E,214001.00,A,A*76
$GNRMC,214002.00,A,5025.4463684,N,01411.3825773,E,0.007,,241021,,,A,V*15
$GNVTG,,T,,M,0.007,N,0.013,K,A*38
$GNGGA,214002.00,5025.4463684,N,01411.3825773,E,1,12,0.78,219.514,M,44.078,M,,*49
$GNGSA,A,3,33,24,26,01,31,05,09,13,,,,,1.55,0.78,1.34,3*04
$GNGSA,A,3,12,13,25,24,26,35,,,,,,,1.55,0.78,1.34,4*0E
$GAGSV,3,1,11,01,48,095,38,04,01,207,,05,21,306,47,09,22,253,46,7*74
$GAGSV,3,2,11,12,01,183,,13,12,030,29,21,01,101,,24,23,285,47,7*7A
$GAGSV,3,3,11,26,45,079,37,31,72,301,42,33,37,147,40,7*4D
$GAGSV,3,1,11,01,48,095,42,04,01,207,,05,21,306,45,09,22,253,48,2*70
$GAGSV,3,2,11,12,01,183,,13,12,030,,21,01,101,,24,23,285,49,2*7A
$GAGSV,3,3,11,26,45,079,32,31,72,301,48,33,37,147,45,2*42
$GBGSV,3,1,10,02,04,106,,05,18,128,,10,04,083,20,12,36,190,43,1*76
$GBGSV,3,2,10,13,32,086,30,24,81,271,44,25,23,301,47,26,45,131,39,1*78
$GBGSV,3,3,10,29,04,039,20,35,48,064,40,1*7C
$GBGSV,3,1,10,02,04,106,,05,18,128,,10,04,083,25,12,36,190,48,3*7A
$GBGSV,3,2,10,13,32,086,28,24,81,271,,25,23,301,,26,45,131,,3*7A
$GBGSV,3,3,10,29,04,039,,35,48,064,,3*78
$GNGLL,5025.4463684,N,01411.3825773,E,214002.00,A,A*75
$GNRMC,214003.00,A,5025.4464203,N,01411.3825876,E,0.004,,241021,,,A,V*11
$GNVTG,,T,,M,0.004,N,0.007,K,A*3E
$GNGGA,214003.00,5025.4464203,N,01411.3825876,E,1,12,0.78,219.330,M,44.078,M,,*4E
$GNGSA,A,3,33,24,26,01,31,05,09,13,,,,,1.55,0.78,1.34,3*04
$GNGSA,A,3,12,13,25,24,26,35,,,,,,,1.55,0.78,1.34,4*0E
$GAGSV,3,1,11,01,48,095,38,04,01,207,,05,21,306,47,09,22,253,46,7*74
$GAGSV,3,2,11,12,01,183,,13,12,030,29,21,01,101,,24,23,285,47,7*7A
$GAGSV,3,3,11,26,45,079,36,31,72,301,42,33,37,147,41,7*4D
$GAGSV,3,1,11,01,48,095,42,04,01,207,,05,21,306,44,09,22,253,48,2*71
$GAGSV,3,2,11,12,01,183,,13,12,030,23,21,01,101,,24,23,285,49,2*7B
$GAGSV,3,3,11,26,45,079,32,31,72,301,48,33,37,147,45,2*42
$GBGSV,3,1,10,02,04,106,,05,18,128,,10,04,083,21,12,36,190,43,1*77
$GBGSV,3,2,10,13,32,086,31,24,81,271,43,25,23,301,47,26,45,131,39,1*7E
$GBGSV,3,3,10,29,04,039,20,35,48,064,40,1*7C
$GBGSV,3,1,10,02,04,106,,05,18,128,,10,04,083,25,12,36,190,48,3*7A
$GBGSV,3,2,10,13,32,086,28,24,81,271,,25,23,301,,26,45,131,,3*7A
$GBGSV,3,3,10,29,04,039,,35,48,064,,3*78
$GNGLL,5025.4464203,N,01411.3825876,E,214003.00,A,A*72
$GNRMC,214004.00,A,5025.4464870,N,01411.3825695,E,0.012,,241021,,,A,V*1C
$GNVTG,,T,,M,0.012,N,0.022,K,A*3E
$GNGGA,214004.00,5025.4464870,N,01411.3825695,E,1,12,0.78,219.141,M,44.078,M,,*40
$GNGSA,A,3,33,24,26,01,31,05,09,13,,,,,1.55,0.78,1.34,3*04
$GNGSA,A,3,12,13,25,24,26,35,,,,,,,1.55,0.78,1.34,4*0E
$GAGSV,3,1,11,01,48,095,38,04,01,207,,05,21,306,47,09,22,253,46,7*74
$GAGSV,3,2,11,12,01,183,,13,12,030,28,21,01,101,,24,23,285,47,7*7B
$GAGSV,3,3,11,26,45,079,37,31,72,301,42,33,37,147,41,7*4C
$GAGSV,3,1,11,01,48,095,42,04,01,207,,05,21,306,44,09,22,253,48,2*71
$GAGSV,3,2,11,12,01,183,,13,12,030,22,21,01,101,,24,23,285,49,2*7A
$GAGSV,3,3,11,26,45,079,31,31,72,301,48,33,37,147,45,2*41
$GBGSV,3,1,10,02,04,106,,05,18,128,,10,04,083,22,12,36,190,43,1*74
$GBGSV,3,2,10,13,32,086,31,24,81,271,43,25,23,301,47,26,45,131,39,1*7E
$GBGSV,3,3,10,29,04,039,20,35,48,064,40,1*7C
$GBGSV,3,1,10,02,04,106,,05,18,128,,10,04,083,24,12,36,190,48,3*7B
$GBGSV,3,2,10,13,32,086,29,24,81,271,,25,23,301,,26,45,131,,3*7B
$GBGSV,3,3,10,29,04,039,,35,48,064,,3*78
$GNGLL,5025.4464870,N,01411.3825695,E,214004.00,A,A*78
$GNRMC,214005.00,A,5025.4465611,N,01411.3825211,E,0.001,,241021,,,A,V*1F
$GNVTG,,T,,M,0.001,N,0.002,K,A*3E
$GNGGA,214005.00,5025.4465611,N,01411.3825211,E,1,12,0.78,218.995,M,44.078,M,,*41
$GNGSA,A,3,33,24,26,01,31,05,09,13,,,,,1.55,0.78,1.34,3*04
$GNGSA,A,3,12,13,25,24,26,35,,,,,,,1.55,0.78,1.34,4*0E
$GAGSV,3,1,11,01,48,095,38,04,01,207,,05,21,306,47,09,22,253,46,7*74
$GAGSV,3,2,11,12,01,183,,13,12,030,28,21,01,101,,24,23,285,47,7*7B
$GAGSV,3,3,11,26,45,079,36,31,72,301,42,33,37,147,42,7*4E
$GAGSV,3,1,11,01,48,095,42,04,01,207,,05,21,306,44,09,22,253,48,2*71
$GAGSV,3,2,11,12,01,183,,13,12,030,21,21,01,101,,24,23,285,49,2*79
$GAGSV,3,3,11,26,45,079,31,31,72,301,48,33,37,147,45,2*41
$GBGSV,3,1,10,02,04,106,,05,18,128,,10,04,083,22,12,36,190,43,1*74
$GBGSV,3,2,10,13,32,086,31,24,81,271,43,25,23,301,47,26,45,131,39,1*7E
$GBGSV,3,3,10,29,04,039,19,35,48,064,40,1*76
$GBGSV,3,1,10,02,04,106,,05,18,128,,10,04,083,24,12,36,190,48,3*7B
$GBGSV,3,2,10,13,32,086,28,24,81,271,,25,23,301,,26,45,131,,3*7A
$GBGSV,3,3,10,29,04,039,,35,48,064,,3*78
$GNGLL,5025.4465611,N,01411.3825211,E,214005.00,A,A*79
$GNRMC,214006.00,A,5025.4466236,N,01411.3824635,E,0.006,,241021,,,A,V*1A
$GNVTG,,T,,M,0.006,N,0.011,K,A*3B
$GNGGA,214006.00,5025.4466236,N,01411.3824635,E,1,12,0.78,218.849,M,44.078,M,,*43
$GNGSA,A,3,33,24,26,01,31,05,09,13,,,,,1.55,0.78,1.34,3*04
$GNGSA,A,3,12,13,25,24,26,35,,,,,,,1.55,0.78,1.34,4*0E
$GAGSV,3,1,11,01,48,095,38,04,01,207,,05,21,306,47,09,22,253,46,7*74
$GAGSV,3,2,11,12,01,183,,13,12,030,28,21,01,101,,24,23,285,47,7*7B
$GAGSV,3,3,11,26,45,079,36,31,72,301,42,33,37,147,42,7*4E
$GAGSV,3,1,11,01,48,095,42,04,01,207,,05,21,306,44,09,22,253,48,2*71
$GAGSV,3,2,11,12,01,183,,13,12,030,21,21,01,101,,24,23,285,49,2*79
$GAGSV,3,3,11,26,45,079,31,31,72,301,48,33,37,147,45,2*41
$GBGSV,3,1,10,02,04,106,,05,18,128,,10,04,083,22,12,36,190,43,1*74
$GBGSV,3,2,10,13,32,086,31,24,81,271,43,25,23,301,47,26,45,131,39,1*7E
$GBGSV,3,3,10,29,04,039,19,35,48,064,40,1*76
$GBGSV,3,1,10,02,04,106,,05,18,128,,10,04,083,24,12,36,190,48,3*7B
$GBGSV,3,2,10,13,32,086,29,24,81,271,,25,23,301,,26,45,131,,3*7B
$GBGSV,3,3,10,29,04,039,,35,48,064,,3*78
$GNGLL,5025.4466236,N,01411.3824635,E,214006.00,A,A*7B
$GNRMC,214007.00,A,5025.4466643,N,01411.3824096,E,0.021,,241021,,,A,V*17
$GNVTG,,T,,M,0.021,N,0.038,K,A*35
$GNGGA,214007.00,5025.4466643,N,01411.3824096,E,1,12,0.78,218.828,M,44.078,M,,*4C
$GNGSA,A,3,33,24,26,01,31,05,09,13,,,,,1.55,0.78,1.34,3*04
$GNGSA,A,3,12,13,25,24,26,35,,,,,,,1.55,0.78,1.34,4*0E
$GAGSV,3,1,11,01,48,095,38,04,01,207,,05,21,306,46,09,22,253,46,7*75
$GAGSV,3,2,11,12,01,183,,13,12,030,28,21,01,101,,24,23,285,47,7*7B
$GAGSV,3,3,11,26,45,079,36,31,72,301,42,33,37,147,43,7*4F
$GAGSV,3,1,11,01,48,095,42,04,01,207,,05,21,306,44,09,22,253,48,2*71
$GAGSV,3,2,11,12,01,183,,13,12,030,21,21,01,101,,24,23,285,49,2*79
$GAGSV,3,3,11,26,45,079,31,31,72,301,48,33,37,147,45,2*41
$GBGSV,3,1,10,02,04,106,,05,18,128,,10,04,083,22,12,36,190,43,1*74
$GBGSV,3,2,10,13,32,086,31,24,81,271,43,25,23,301,47,26,45,131,39,1*7E
$GBGSV,3,3,10,29,04,039,17,35,48,064,40,1*78
$GBGSV,3,1,10,02,04,106,,05,18,128,,10,04,083,24,12,36,190,48,3*7B
$GBGSV,3,2,10,13,32,086,28,24,81,271,,25,23,301,,26,45,131,,3*7A
$GBGSV,3,3,10,29,04,039,,35,48,064,,3*78
$GNGLL,5025.4466643,N,01411.3824096,E,214007.00,A,A*73
$GNRMC,214008.00,A,5025.4467003,N,01411.3823596,E,0.008,,241021,,,A,V*12
$GNVTG,,T,,M,0.008,N,0.014,K,A*30
$GNGGA,214008.00,5025.4467003,N,01411.3823596,E,1,12,0.78,218.857,M,44.078,M,,*4A
$GNGSA,A,3,33,24,26,01,31,05,09,13,,,,,1.55,0.78,1.34,3*04
$GNGSA,A,3,12,13,25,24,26,35,,,,,,,1.55,0.78,1.34,4*0E
$GAGSV,3,1,11,01,48,095,39,04,01,207,,05,21,306,46,09,22,253,46,7*74
$GAGSV,3,2,11,12,01,183,,13,12,030,28,21,01,101,,24,23,285,47,7*7B
$GAGSV,3,3,11,26,45,079,36,31,72,301,42,33,37,147,43,7*4F
$GAGSV,3,1,11,01,48,095,42,04,01,207,,05,21,306,44,09,22,253,48,2*71
$GAGSV,3,2,11,12,01,183,,13,12,030,20,21,01,101,,24,23,285,49,2*78
$GAGSV,3,3,11,26,45,079,31,31,72,301,48,33,37,147,45,2*41
$GBGSV,3,1,10,02,04,106,,05,18,128,,10,04,083,21,12,36,190,43,1*77
$GBGSV,3,2,10,13,32,086,31,24,81,271,43,25,23,301,47,26,45,131,39,1*7E
$GBGSV,3,3,10,29,04,039,17,35,48,064,41,1*79
$GBGSV,3,1,10,02,04,106,,05,18,128,,10,04,083,24,12,36,190,48,3*7B
$GBGSV,3,2,10,13,32,086,29,24,81,271,,25,23,301,,26,45,131,,3*7B
$GBGSV,3,3,10,29,04,039,,35,48,064,,3*78
$GNGLL,5025.4467003,N,01411.3823596,E,214008.00,A,A*7D
$GNRMC,214009.00,A,5025.4467179,N,01411.3823195,E,0.006,,241021,,,A,V*16
$GNVTG,,T,,M,0.006,N,0.012,K,A*38
$GNGGA,214009.00,5025.4467179,N,01411.3823195,E,1,12,0.78,218.868,M,44.078,M,,*4C
$GNGSA,A,3,33,24,26,01,31,05,09,13,,,,,1.55,0.78,1.34,3*04
$GNGSA,A,3,12,13,25,24,26,35,,,,,,,1.55,0.78,1.34,4*0E
$GAGSV,3,1,11,01,48,095,39,04,01,207,,05,21,306,46,09,22,253,46,7*74
$GAGSV,3,2,11,12,01,183,,13,12,030,28,21,01,101,,24,23,285,47,7*7B
$GAGSV,3,3,11,26,45,079,36,31,72,301,42,33,37,147,44,7*48
$GAGSV,3,1,11,01,48,095,42,04,01,207,,05,21,306,44,09,22,253,48,2*71
$GAGSV,3,2,11,12,01,183,,13,12,030,21,21,01,101,,24,23,285,49,2*79
$GAGSV,3,3,11,26,45,079,31,31,72,301,48,33,37,147,44,2*40
$GBGSV,3,1,10,02,04,106,,05,18,128,,10,04,083,22,12,36,190,43,1*74
$GBGSV,3,2,10,13,32,086,31,24,81,271,43,25,23,301,47,26,45,131,39,1*7E
$GBGSV,3,3,10,29,04,039,17,35,48,064,41,1*79
$GBGSV,3,1,10,02,04,106,,05,18,128,,10,04,083,23,12,36,190,48,3*7C
$GBGSV,3,2,10,13,32,086,29,24,81,271,,25,23,301,,26,45,131,,3*7B
$GBGSV,3,3,10,29,04,039,,35,48,064,,3*78
$GNGLL,5025.4467179,N,01411.3823195,E,214009.00,A,A*77
$GNRMC,214010.00,A,5025.4467232,N,01411.3822769,E,0.011,,241021,,,A,V*10
$GNVTG,,T,,M,0.011,N,0.020,K,A*3F
$GNGGA,214010.00,5025.4467232,N,01411.3822769,E,1,12,0.78,218.904,M,44.078,M,,*47
$GNGSA,A,3,33,24,26,01,31,05,09,13,,,,,1.55,0.78,1.34,3*04
$GNGSA,A,3,12,13,25,24,26,35,,,,,,,1.55,0.78,1.34,4*0E
$GAGSV,3,1,11,01,48,095,39,04,01,207,,05,21,306,46,09,22,253,46,7*74
$GAGSV,3,2,11,12,01,183,,13,12,030,28,21,01,101,,24,23,285,47,7*7B
$GAGSV,3,3,11,26,45,079,36,31,72,301,42,33,37,147,44,7*48
$GAGSV,3,1,11,01,48,095,42,04,01,207,,05,21,306,44,09,22,253,48,2*71
$GAGSV,3,2,11,12,01,183,,13,12,030,21,21,01,101,,24,23,285,49,2*79
$GAGSV,3,3,11,26,45,079,31,31,72,301,48,33,37,147,44,2*40
$GBGSV,3,1,10,02,04,106,,05,18,128,,10,04,083,22,12,36,190,43,1*74
$GBGSV,3,2,10,13,32,086,31,24,81,271,43,25,23,301,47,26,45,131,39,1*7E
$GBGSV,3,3,10,29,04,039,18,35,48,064,41,1*76
$GBGSV,3,1,10,02,04,106,,05,18,128,,10,04,083,23,12,36,190,48,3*7C
$GBGSV,3,2,10,13,32,086,29,24,81,271,,25,23,301,,26,45,131,,3*7B
$GBGSV,3,3,10,29,04,039,,35,48,064,,3*78
$GNGLL,5025.4467232,N,01411.3822769,E,214010.00,A,A*77
$GNRMC,214011.00,A,5025.4467262,N,01411.3822420,E,0.004,,241021,,,A,V*1E
$GNVTG,,T,,M,0.004,N,0.007,K,A*3E
$GNGGA,214011.00,5025.4467262,N,01411.3822420,E,1,12,0.78,218.950,M,44.078,M,,*4C
$GNGSA,A,3,33,24,26,01,31,05,09,13,,,,,1.55,0.78,1.34,3*04
$GNGSA,A,3,12,13,25,24,26,35,,,,,,,1.55,0.78,1.34,4*0E
$GAGSV,3,1,11,01,48,095,39,04,01,207,,05,21,306,46,09,22,253,46,7*74
$GAGSV,3,2,11,12,01,183,,13,12,030,28,21,01,101,,24,23,285,47,7*7B
$GAGSV,3,3,11,26,45,079,36,31,72,301,42,33,37,147,44,7*48
$GAGSV,3,1,11,01,48,095,42,04,01,207,,05,21,306,44,09,22,253,48,2*71
$GAGSV,3,2,11,12,01,183,,13,12,030,21,21,01,101,,24,23,285,49,2*79
$GAGSV,3,3,11,26,45,079,31,31,72,301,48,33,37,147,44,2*40
$GBGSV,3,1,10,02,04,106,,05,18,128,,10,04,083,23,12,36,190,43,1*75
$GBGSV,3,2,10,13,32,086,31,24,81,271,43,25,23,301,47,26,45,131,39,1*7E
$GBGSV,3,3,10,29,04,039,19,35,48,064,41,1*77
$GBGSV,3,1,10,02,04,106,,05,18,128,,10,04,083,23,12,36,190,48,3*7C
$GBGSV,3,2,10,13,32,086,29,24,81,271,,25,23,301,,26,45,131,,3*7B
$GBGSV,3,3,10,29,04,039,,35,48,064,,3*78
$GNGLL,5025.4467262,N,01411.3822420,E,214011.00,A,A*7D
$GNRMC,214012.00,A,5025.4467275,N,01411.3822110,E,0.005,,241021,,,A,V*1C
$GNVTG,,T,,M,0.005,N,0.009,K,A*31
$GNGGA,214012.00,5025.4467275,N,01411.3822110,E,1,12,0.78,219.002,M,44.078,M,,*40
$GNGSA,A,3,33,24,26,01,31,05,09,13,,,,,1.55,0.78,1.34,3*04
$GNGSA,A,3,12,13,25,24,26,35,,,,,,,1.55,0.78,1.34,4*0E
$GAGSV,3,1,11,01,48,095,39,04,01,207,05,05,21,306,46,09,22,253,46,7*71
$GAGSV,3,2,11,12,01,183,,13,12,030,28,21,01,101,,24,23,285,47,7*7B
$GAGSV,3,3,11,26,45,079,36,31,72,301,42,33,37,147,45,7*49
$GAGSV,3,1,11,01,48,095,42,04,01,207,,05,21,306,44,09,22,253,48,2*71
$GAGSV,3,2,11,12,01,183,,13,12,030,20,21,01,101,,24,23,285,49,2*78
$GAGSV,3,3,11,26,45,079,31,31,72,301,48,33,37,147,44,2*40
$GBGSV,3,1,10,02,04,106,,05,18,128,,10,04,083,23,12,36,190,43,1*75
$GBGSV,3,2,10,13,32,086,31,24,81,271,43,25,23,301,47,26,45,131,39,1*7E
$GBGSV,3,3,10,29,04,039,19,35,48,064,40,1*76
$GBGSV,3,1,10,02,04,106,,05,18,128,,10,04,083,22,12,36,190,48,3*7D
$GBGSV,3,2,10,13,32,086,29,24,81,271,,25,23,301,,26,45,131,,3*7B
$GBGSV,3,3,10,29,04,039,,35,48,064,,3*78
$GNGLL,5025.4467275,N,01411.3822110,E,214012.00,A,A*7E
$GNRMC,214013.00,A,5025.4467210,N,01411.3821800,E,0.011,,241021,,,A,V*10
$GNVTG,,T,,M,0.011,N,0.021,K,A*3E
$GNGGA,214013.00,5025.4467210,N,01411.3821800,E,1,12,0.78,219.046,M,44.078,M,,*49
$GNGSA,A,3,33,24,26,01,31,05,09,13,,,,,1.55,0.78,1.34,3*04
$GNGSA,A,3,12,13,25,24,26,35,,,,,,,1.55,0.78,1.34,4*0E
$GAGSV,3,1,11,01,48,095,39,04,01,207,08,05,21,306,46,09,22,253,46,7*7C
$GAGSV,3,2,11,12,01,183,,13,12,030,28,21,01,101,,24,23,285,47,7*7B
$GAGSV,3,3,11,26,45,079,36,31,72,301,42,33,37,147,45,7*49
$GAGSV,3,1,11,01,48,095,42,04,01,207,,05,21,306,44,09,22,253,48,2*71
$GAGSV,3,2,11,12,01,183,,13,12,030,19,21,01,101,,24,23,285,49,2*72
$GAGSV,3,3,11,26,45,079,31,31,72,301,48,33,37,147,44,2*40
$GBGSV,3,1,10,02,04,106,,05,18,128,,10,04,083,23,12,36,190,43,1*75
$GBGSV,3,2,10,13,32,086,31,24,81,271,43,25,23,301,47,26,45,131,39,1*7E
$GBGSV,3,3,10,29,04,039,19,35,48,064,40,1*76
$GBGSV,3,1,10,02,04,106,,05,18,128,,10,04,083,23,12,36,190,48,3*7C
$GBGSV,3,2,10,13,32,086,29,24,81,271,,25,23,301,,26,45,131,,3*7B
$GBGSV,3,3,10,29,04,039,,35,48,064,,3*78
$GNGLL,5025.4467210,N,01411.3821800,E,214013.00,A,A*77
$GNRMC,214014.00,A,5025.4467227,N,01411.3821546,E,0.006,,241021,,,A,V*1A
$GNVTG,,T,,M,0.006,N,0.011,K,A*3B
$GNGGA,214014.00,5025.4467227,N,01411.3821546,E,1,12,0.78,219.109,M,44.078,M,,*4F
$GNGSA,A,3,33,24,26,01,31,05,09,13,,,,,1.55,0.78,1.34,3*04
$GNGSA,A,3,12,13,25,24,26,35,,,,,,,1.55,0.78,1.34,4*0E
$GAGSV,3,1,11,01,48,095,39,04,01,207,11,05,21,306,46,09,22,253,46,7*74
$GAGSV,3,2,11,12,01,183,,13,12,030,28,21,01,101,,24,23,285,47,7*7B
$GAGSV,3,3,11,26,45,079,36,31,72,301,42,33,37,147,45,7*49
$GAGSV,3,1,11,01,48,095,42,04,01,207,,05,21,306,44,09,22,253,48,2*71
$GAGSV,3,2,11,12,01,183,,13,12,030,19,21,01,101,,24,23,285,49,2*72
$GAGSV,3,3,11,26,45,079,31,31,72,301,48,33,37,147,44,2*40
$GBGSV,3,1,10,02,04,106,,05,18,128,,10,04,083,24,12,36,190,43,1*72
$GBGSV,3,2,10,13,32,086,31,24,81,271,43,25,23,301,48,26,45,131,39,1*71
$GBGSV,3,3,10,29,04,039,20,35,48,064,40,1*7C
$GBGSV,3,1,10,02,04,106,,05,18,128,,10,04,083,22,12,36,190,48,3*7D
$GBGSV,3,2,10,13,32,086,29,24,81,271,,25,23,301,,26,45,131,,3*7B
$GBGSV,3,3,10,29,04,039,,35,48,064,,3*78
$GNGLL,5025.4467227,N,01411.3821546,E,214014.00,A,A*7B
$GNRMC,214015.00,A,5025.4467198,N,01411.3821462,E,0.007,,241021,,,A,V*1A
$GNVTG,,T,,M,0.007,N,0.013,K,A*38
$GNGGA,214015.00,5025.4467198,N,01411.3821462,E,1,12,0.78,219.165,M,44.078,M,,*44
$GNGSA,A,3,33,24,26,01,31,05,09,13,,,,,1.55,0.78,1.34,3*04
$GNGSA,A,3,12,13,25,24,26,35,,,,,,,1.55,0.78,1.34,4*0E
$GAGSV,3,1,11,01,48,095,39,04,01,207,13,05,21,306,46,09,22,253,46,7*76
$GAGSV,3,2,11,12,01,183,,13,12,030,28,21,01,101,,24,23,285,47,7*7B
$GAGSV,3,3,11,26,45,079,36,31,72,301,42,33,37,147,45,7*49
$GAGSV,3,1,11,01,48,095,42,04,01,207,,05,21,306,44,09,22,253,48,2*71
$GAGSV,3,2,11,12,01,183,,13,12,030,19,21,01,101,,24,23,285,49,2*72
$GAGSV,3,3,11,26,45,079,31,31,72,301,48,33,37,147,43,2*47
$GBGSV,3,1,10,02,04,106,,05,18,128,,10,04,083,25,12,36,190,43,1*73
$GBGSV,3,2,10,13,32,086,31,24,81,271,43,25,23,301,48,26,45,131,40,1*7F
$GBGSV,3,3,10,29,04,039,20,35,48,064,40,1*7C
$GBGSV,3,1,10,02,04,106,,05,18,128,,10,04,083,22,12,36,190,48,3*7D
$GBGSV,3,2,10,13,32,086,29,24,81,271,,25,23,301,,26,45,131,,3*7B
$GBGSV,3,3,10,29,04,039,,35,48,064,,3*78
$GNGLL,5025.4467198,N,01411.3821462,E,214015.00,A,A*7A
$GNRMC,214016.00,A,5025.4467222,N,01411.3821415,E,0.007,,241021,,,A,V*1B
$GNVTG,,T,,M,0.007,N,0.014,K,A*3F
$GNGGA,214016.00,5025.4467222,N,01411.3821415,E,1,12,0.78,219.197,M,44.078,M,,*48
$GNGSA,A,3,33,24,26,01,31,05,09,13,,,,,1.55,0.78,1.34,3*04
$GNGSA,A,3,12,13,25,24,26,35,,,,,,,1.55,0.78,1.34,4*0E
$GAGSV,3,1,11,01,48,095,39,04,01,207,15,05,21,306,46,09,22,253,46,7*70
$GAGSV,3,2,11,12,01,183,,13,12,030,28,21,01,101,,24,23,285,46,7*7A
$GAGSV,3,3,11,26,45,079,36,31,72,301,42,33,37,147,46,7*4A
$GAGSV,3,1,11,01,48,095,41,04,01,207,,05,21,306,44,09,22,253,48,2*72
$GAGSV,3,2,11,12,01,183,,13,12,030,18,21,01,101,,24,23,285,49,2*73
$GAGSV,3,3,11,26,45,079,30,31,72,301,48,33,37,147,43,2*46
$GBGSV,3,1,10,02,04,106,,05,18,128,,10,04,083,25,12,36,190,43,1*73
$GBGSV,3,2,10,13,32,086,31,24,81,271,43,25,23,301,48,26,45,131,40,1*7F
$GBGSV,3,3,10,29,04,039,20,35,48,064,40,1*7C
$GBGSV,3,1,10,02,04,106,,05,18,128,,10,04,083,22,12,36,190,48,3*7D
$GBGSV,3,2,10,13,32,086,29,24,81,271,,25,23,301,,26,45,131,,3*7B
$GBGSV,3,3,10,29,04,039,,35,48,064,,3*78
$GNGLL,5025.4467222,N,01411.3821415,E,214016.00,A,A*7B
$GNRMC,214017.00,A,5025.4467282,N,01411.3821400,E,0.007,,241021,,,A,V*14
$GNVTG,,T,,M,0.007,N,0.013,K,A*38
$GNGGA,214017.00,5025.4467282,N,01411.3821400,E,1,12,0.78,219.232,M,44.078,M,,*4B
$GNGSA,A,3,33,24,26,01,31,05,09,13,,,,,1.55,0.78,1.34,3*04
$GNGSA,A,3,12,13,25,24,26,35,,,,,,,1.55,0.78,1.34,4*0E
$GAGSV,3,1,11,01,48,095,39,04,01,207,15,05,21,306,46,09,22,253,46,7*70
$GAGSV,3,2,11,12,01,183,,13,12,030,28,21,01,101,,24,23,285,46,7*7A
$GAGSV,3,3,11,26,45,079,36,31,72,301,42,33,37,147,46,7*4A
$GAGSV,3,1,11,01,48,095,41,04,01,207,,05,21,306,44,09,22,253,48,2*72
$GAGSV,3,2,11,12,01,183,,13,12,030,19,21,01,101,,24,23,285,49,2*72
$GAGSV,3,3,11,26,45,079,30,31,72,301,48,33,37,147,43,2*46
$GBGSV,3,1,10,02,04,106,,05,18,128,,10,04,083,25,12,36,190,43,1*73
$GBGSV,3,2,10,13,32,086,31,24,81,271,43,25,23,301,48,26,45,131,40,1*7F
$GBGSV,3,3,10,29,04,039,19,35,48,064,40,1*76
$GBGSV,3,1,10,02,04,106,,05,18,128,,10,04,083,22,12,36,190,49,3*7C
$GBGSV,3,2,10,13,32,086,28,24,81,271,,25,23,301,,26,45,131,,3*7A
$GBGSV,3,3,10,29,04,039,,35,48,064,,3*78
$GNGLL,5025.4467282,N,01411.3821400,E,214017.00,A,A*74
$GNRMC,214018.00,A,5025.4467408,N,01411.3821320,E,0.002,,241021,,,A,V*1F
$GNVTG,,T,,M,0.002,N,0.004,K,A*3B
$GNGGA,214018.00,5025.4467408,N,01411.3821320,E,1,12,0.78,219.276,M,44.078,M,,*45
$GNGSA,A,3,33,24,26,01,31,05,09,13,,,,,1.55,0.78,1.34,3*04
$GNGSA,A,3,12,13,25,24,26,35,,,,,,,1.55,0.78,1.34,4*0E
$GAGSV,3,1,11,01,48,095,39,04,01,207,16,05,21,306,46,09,22,253,46,7*73
$GAGSV,3,2,11,12,01,183,,13,12,030,28,21,01,101,16,24,23,285,46,7*7D
$GAGSV,3,3,11,26,45,079,36,31,72,301,42,33,37,147,46,7*4A
$GAGSV,3,1,11,01,48,095,41,04,01,207,,05,21,306,44,09,22,253,48,2*72
$GAGSV,3,2,11,12,01,183,,13,12,030,19,21,01,101,,24,23,285,49,2*72
$GAGSV,3,3,11,26,45,079,30,31,72,301,48,33,37,147,43,2*46
$GBGSV,3,1,10,02,04,106,,05,18,128,,10,04,083,26,12,36,190,43,1*70
$GBGSV,3,2,10,13,32,086,31,24,81,271,43,25,23,301,48,26,45,131,40,1*7F
$GBGSV,3,3,10,29,04,039,20,35,48,064,41,1*7D
$GBGSV,3,1,10,02,04,106,,05,18,128,,10,04,083,21,12,36,190,49,3*7F
$GBGSV,3,2,10,13,32,086,28,24,81,271,,25,23,301,,26,45,131,,3*7A
$GBGSV,3,3,10,29,04,039,,35,48,064,,3*78
$GNGLL,5025.4467408,N,01411.3821320,E,214018.00,A,A*7A
$GNRMC,214019.00,A,5025.4467503,N,01411.3821171,E,0.009,,241021,,,A,V*19
$GNVTG,,T,,M,0.009,N,0.017,K,A*32
$GNGGA,214019.00,5025.4467503,N,01411.3821171,E,1,12,0.78,219.324,M,44.078,M,,*4E
$GNGSA,A,3,33,24,26,01,31,05,09,13,,,,,1.55,0.78,1.34,3*04
$GNGSA,A,3,12,13,25,24,26,35,,,,,,,1.55,0.78,1.34,4*0E
$GAGSV,3,1,11,01,48,095,39,04,01,207,17,05,21,306,46,09,22,253,46,7*72
$GAGSV,3,2,11,12,01,183,,13,12,030,28,21,01,101,15,24,23,285,46,7*7E
$GAGSV,3,3,11,26,45,079,36,31,72,301,42,33,37,147,46,7*4A
$GAGSV,3,1,11,01,48,095,41,04,01,207,,05,21,306,44,09,22,253,48,2*72
$GAGSV,3,2,11,12,01,183,,13,12,030,19,21,01,101,,24,23,285,49,2*72
$GAGSV,3,3,11,26,45,079,30,31,72,301,48,33,37,147,43,2*46
$GBGSV,3,1,10,02,04,106,,05,18,128,,10,04,083,26,12,36,190,43,1*70
$GBGSV,3,2,10,13,32,086,31,24,81,271,43,25,23,301,48,26,45,131,41,1*7E
$GBGSV,3,3,10,29,04,039,20,35,48,064,41,1*7D
$GBGSV,3,1,10,02,04,106,,05,18,128,,10,04,083,21,12,36,190,49,3*7F
$GBGSV,3,2,10,13,32,086,29,24,81,271,,25,23,301,,26,45,131,,3*7B
$GBGSV,3,3,10,29,04,039,,35,48,064,,3*78
$GNGLL,5025.4467503,N,01411.3821171,E,214019.00,A,A*77
$GNRMC,214020.00,A,5025.4467635,N,01411.3821138,E,0.010,,241021,,,A,V*10
$GNVTG,,T,,M,0.010,N,0.018,K,A*35
$GNGGA,214020.00,5025.4467635,N,01411.3821138,E,1,12,0.78,219.344,M,44.078,M,,*49
$GNGSA,A,3,33,24,26,01,31,05,09,13,,,,,1.55,0.78,1.34,3*04
$GNGSA,A,3,12,13,25,24,26,35,,,,,,,1.55,0.78,1.34,4*0E
$GAGSV,3,1,11,01,48,095,39,04,01,207,17,05,21,306,46,09,22,253,46,7*72
$GAGSV,3,2,11,12,01,183,,13,12,030,27,21,01,101,14,24,23,285,46,7*70
$GAGSV,3,3,11,26,45,079,36,31,72,301,42,33,37,147,46,7*4A
$GAGSV,3,1,11,01,48,095,41,04,01,207,,05,21,306,44,09,22,253,48,2*72
$GAGSV,3,2,11,12,01,183,,13,12,030,19,21,01,101,,24,23,285,49,2*72
$GAGSV,3,3,11,26,45,079,30,31,72,301,48,33,37,147,43,2*46
$GBGSV,3,1,10,02,04,106,,05,18,128,,10,04,083,26,12,36,190,44,1*77
$GBGSV,3,2,10,13,32,086,31,24,81,271,43,25,23,301,48,26,45,131,41,1*7E
$GBGSV,3,3,10,29,04,039,21,35,48,064,41,1*7C
$GBGSV,3,1,10,02,04,106,,05,18,128,,10,04,083,20,12,36,190,49,3*7E
$GBGSV,3,2,10,13,32,086,29,24,81,271,,25,23,301,,26,45,131,,3*7B
$GBGSV,3,3,10,29,04,039,,35,48,064,,3*78
$GNGLL,5025.4467635,N,01411.3821138,E,214020.00,A,A*76
$GNRMC,214021.00,A,5025.4467793,N,01411.3821142,E,0.006,,241021,,,A,V*16
$GNVTG,,T,,M,0.006,N,0.011,K,A*3B
$GNGGA,214021.00,5025.4467793,N,01411.3821142,E,1,12,0.78,219.369,M,44.078,M,,*47
$GNGSA,A,3,33,24,26,01,31,05,09,13,,,,,1.55,0.78,1.34,3*04
$GNGSA,A,3,12,13,25,24,26,35,,,,,,,1.55,0.78,1.34,4*0E
$GAGSV,3,1,11,01,48,095,39,04,01,207,18,05,21,306,46,09,22,253,46,7*7D
$GAGSV,3,2,11,12,01,183,,13,12,030,27,21,01,101,13,24,23,285,46,7*77
$GAGSV,3,3,11,26,45,079,36,31,72,301,42,33,37,147,47,7*4B
$GAGSV,3,1,11,01,48,095,41,04,01,207,,05,21,306,44,09,22,253,48,2*72
$GAGSV,3,2,11,12,01,183,,13,12,030,20,21,01,101,,24,23,285,49,2*78
$GAGSV,3,3,11,26,45,079,30,31,72,301,48,33,37,147,42,2*47
$GBGSV,3,1,10,02,04,106,,05,18,128,,10,04,083,26,12,36,190,44,1*77
$GBGSV,3,2,10,13,32,086,31,24,81,271,43,25,23,301,48,26,45,131,41,1*7E
$GBGSV,3,3,10,29,04,039,,35,48,064,41,1*7F
$GBGSV,3,1,10,02,04,106,,05,18,128,,10,04,083,20,12,36,190,49,3*7E
$GBGSV,3,2,10,13,32,086,28,24,81,271,,25,23,301,,26,45,131,,3*7A
$GBGSV,3,3,10,29,04,039,,35,48,064,,3*78
$GNGLL,5025.4467793,N,01411.3821142,E,214021.00,A,A*77
$GNRMC,214022.00,A,5025.4467950,N,01411.3821148,E,0.016,,241021,,,A,V*1F
$GNVTG,,T,,M,0.016,N,0.029,K,A*31
$GNGGA,214022.00,5025.4467950,N,01411.3821148,E,1,12,0.78,219.399,M,44.078,M,,*40
$GNGSA,A,3,33,24,26,01,31,05,09,13,,,,,1.55,0.78,1.34,3*04
$GNGSA,A,3,12,13,25,24,26,35,,,,,,,1.55,0.78,1.34,4*0E
$GAGSV,3,1,11,01,48,095,38,04,01,207,18,05,21,306,46,09,22,253,46,7*7C
$GAGSV,3,2,11,12,01,183,,13,12,030,27,21,01,101,14,24,23,285,46,7*70
$GAGSV,3,3,11,26,45,079,36,31,72,301,41,33,37,147,47,7*48
$GAGSV,3,1,11,01,48,095,41,04,01,207,,05,21,306,44,09,22,253,48,2*72
$GAGSV,3,2,11,12,01,183,,13,12,030,19,21,01,101,,24,23,285,49,2*72
$GAGSV,3,3,11,26,45,079,30,31,72,301,48,33,37,147,42,2*47
$GBGSV,3,1,10,02,04,106,,05,18,128,,10,04,083,26,12,36,190,44,1*77
$GBGSV,3,2,10,13,32,086,31,24,81,271,43,25,23,301,48,26,45,131,41,1*7E
$GBGSV,3,3,10,29,04,039,21,35,48,064,40,1*7D
$GBGSV,3,1,10,02,04,106,,05,18,128,,10,04,083,20,12,36,190,49,3*7E
$GBGSV,3,2,10,13,32,086,28,24,81,271,,25,23,301,,26,45,131,,3*7A
$GBGSV,3,3,10,29,04,039,,35,48,064,,3*78
$GNGLL,5025.4467950,N,01411.3821148,E,214022.00,A,A*7F
$GNRMC,214023.00,A,5025.4468106,N,01411.3821183,E,0.004,,241021,,,A,V*1E
$GNVTG,,T,,M,0.004,N,0.008,K,A*31
$GNGGA,214023.00,5025.4468106,N,01411.3821183,E,1,12,0.78,219.425,M,44.078,M,,*42
$GNGSA,A,3,33,24,26,01,31,05,09,13,,,,,1.55,0.78,1.34,3*04
$GNGSA,A,3,12,13,25,24,26,35,,,,,,,1.55,0.78,1.34,4*0E
$GAGSV,3,1,11,01,48,095,38,04,01,207,18,05,21,306,46,09,22,253,46,7*7C
$GAGSV,3,2,11,12,01,183,,13,12,030,27,21,01,101,15,24,23,285,46,7*71
$GAGSV,3,3,11,26,45,079,36,31,72,301,41,33,37,147,47,7*48
$GAGSV,3,1,11,01,48,095,41,04,01,207,,05,21,306,44,09,22,253,48,2*72
$GAGSV,3,2,11,12,01,183,,13,12,030,19,21,01,101,,24,23,285,49,2*72
$GAGSV,3,3,11,26,45,079,30,31,72,301,48,33,37,147,42,2*47
$GBGSV,3,1,10,02,04,106,,05,18,128,,10,04,083,26,12,36,190,44,1*77
$GBGSV,3,2,10,13,32,086,31,24,81,271,43,25,23,301,48,26,45,131,41,1*7E
$GBGSV,3,3,10,29,04,039,20,35,48,064,40,1*7C
$GBGSV,3,1,10,02,04,106,,05,18,128,,10,04,083,20,12,36,190,49,3*7E
$GBGSV,3,2,10,13,32,086,28,24,81,271,,25,23,301,,26,45,131,,3*7A
$GBGSV,3,3,10,29,04,039,,35,48,064,,3*78
$GNGLL,5025.4468106,N,01411.3821183,E,214023.00,A,A*7D
$GNRMC,214024.00,A,5025.4468258,N,01411.3821258,E,0.005,,241021,,,A,V*15
$GNVTG,,T,,M,0.005,N,0.009,K,A*31
$GNGGA,214024.00,5025.4468258,N,01411.3821258,E,1,12,0.78,219.428,M,44.078,M,,*45
$GNGSA,A,3,33,24,26,01,31,05,09,13,,,,,1.55,0.78,1.34,3*04
$GNGSA,A,3,12,13,25,24,26,35,,,,,,,1.55,0.78,1.34,4*0E
$GAGSV,3,1,11,01,48,095,38,04,01,207,18,05,21,306,46,09,22,253,46,7*7C
$GAGSV,3,2,11,12,01,183,,13,12,030,27,21,01,101,16,24,23,285,46,7*72
$GAGSV,3,3,11,26,45,079,36,31,72,301,41,33,37,147,47,7*48
$GAGSV,3,1,11,01,48,095,41,04,01,207,,05,21,306,44,09,22,253,48,2*72
$GAGSV,3,2,11,12,01,183,,13,12,030,18,21,01,101,,24,23,285,49,2*73
$GAGSV,3,3,11,26,45,079,30,31,72,301,48,33,37,147,42,2*47
$GBGSV,3,1,10,02,04,106,,05,18,128,,10,04,083,26,12,36,190,44,1*77
$GBGSV,3,2,10,13,32,086,31,24,81,271,43,25,23,301,48,26,45,131,41,1*7E
$GBGSV,3,3,10,29,04,039,19,35,48,064,40,1*76
$GBGSV,3,1,10,02,04,106,,05,18,128,,10,04,083,20,12,36,190,49,3*7E
$GBGSV,3,2,10,13,32,086,28,24,81,271,,25,23,301,,26,45,131,,3*7A
$GBGSV,3,3,10,29,04,039,,35,48,064,,3*78
$GNGLL,5025.4468258,N,01411.3821258,E,214024.00,A,A*77
$GNRMC,214025.00,A,5025.4468399,N,01411.3821309,E,0.009,,241021,,,A,V*11
$GNVTG,,T,,M,0.009,N,0.017,K,A*32
$GNGGA,214025.00,5025.4468399,N,01411.3821309,E,1,12,0.78,219.435,M,44.078,M,,*41
$GNGSA,A,3,33,24,26,01,31,05,09,13,,,,,1.55,0.78,1.34,3*04
$GNGSA,A,3,12,13,25,24,26,35,,,,,,,1.55,0.78,1.34,4*0E
$GAGSV,3,1,11,01,48,095,38,04,01,207,19,05,21,306,46,09,22,253,46,7*7D
$GAGSV,3,2,11,12,01,183,,13,12,030,27,21,01,101,15,24,23,285,46,7*71
$GAGSV,3,3,11,26,45,079,36,31,72,301,41,33,37,147,47,7*48
$GAGSV,3,1,11,01,48,095,41,04,01,207,,05,21,306,44,09,22,253,48,2*72
$GAGSV,3,2,11,12,01,183,,13,12,030,19,21,01,101,,24,23,285,49,2*72
$GAGSV,3,3,11,26,45,079,30,31,72,301,48,33,37,147,42,2*47
$GBGSV,3,1,10,02,04,106,,05,18,128,,10,04,083,26,12,36,190,44,1*77
$GBGSV,3,2,10,13,32,086,31,24,81,271,43,25,23,301,48,26,45,131,41,1*7E
$GBGSV,3,3,10,29,04,039,,35,48,064,40,1*7E
$GBGSV,3,1,10,02,04,106,,05,18,128,,10,04,083,19,12,36,190,49,3*74
$GBGSV,3,2,10,13,32,086,28,24,81,271,,25,23,301,,26,45,131,,3*7A
$GBGSV,3,3,10,29,04,039,,35,48,064,,3*78
$GNGLL,5025.4468399,N,01411.3821309,E,214025.00,A,A*7F
$GNRMC,214026.00,A,5025.4468544,N,01411.3821347,E,0.008,,241021,,,A,V*1F
$GNVTG,,T,,M,0.008,N,0.014,K,A*30
$GNGGA,214026.00,5025.4468544,N,01411.3821347,E,1,12,0.78,219.455,M,44.078,M,,*48
$GNGSA,A,3,33,24,26,01,31,05,09,13,,,,,1.55,0.78,1.34,3*04
$GNGSA,A,3,12,13,25,24,26,35,,,,,,,1.55,0.78,1.34,4*0E
$GAGSV,3,1,11,01,48,095,38,04,01,207,18,05,21,306,46,09,22,253,46,7*7C
$GAGSV,3,2,11,12,01,183,,13,12,030,27,21,01,101,15,24,23,285,46,7*71
$GAGSV,3,3,11,26,45,079,36,31,72,301,41,33,37,147,47,7*48
$GAGSV,3,1,11,01,48,095,41,04,01,207,,05,21,306,44,09,22,253,48,2*72
$GAGSV,3,2,11,12,01,183,,13,12,030,19,21,01,101,,24,23,285,49,2*72
$GAGSV,3,3,11,26,45,079,30,31,72,301,48,33,37,147,41,2*44
$GBGSV,3,1,10,02,04,106,,05,18,128,,10,04,083,26,12,36,190,44,1*77
$GBGSV,3,2,10,13,32,086,31,24,81,271,43,25,23,301,48,26,45,131,41,1*7E
$GBGSV,3,3,10,29,04,039,20,35,48,064,40,1*7C
$GBGSV,3,1,10,02,04,106,,05,18,128,,10,04,083,18,12,36,190,49,3*75
$GBGSV,3,2,10,13,32,086,28,24,81,271,,25,23,301,,26,45,131,,3*7A
$GBGSV,3,3,10,29,04,039,,35,48,064,,3*78
$GNGLL,5025.4468544,N,01411.3821347,E,214026.00,A,A*70
$GNRMC,214027.00,A,5025.4467914,N,01411.3822007,E,0.061,,241021,,,D,V*16
$GNVTG,,T,,M,0.061,N,0.114,K,D*3B
$GNGGA,214027.00,5025.4467914,N,01411.3822007,E,2,12,0.78,219.368,M,44.078,M,1.0,0084*62
$GNGSA,A,3,33,24,26,01,31,05,09,13,,,,,1.55,0.78,1.34,3*04
$GNGSA,A,3,12,13,25,24,26,35,,,,,,,1.55,0.78,1.34,4*0E
$GAGSV,3,1,11,01,48,095,38,04,01,207,19,05,21,306,46,09,22,253,46,7*7D
$GAGSV,3,2,11,12,01,183,,13,12,030,27,21,01,101,14,24,23,285,46,7*70
$GAGSV,3,3,11,26,45,079,36,31,72,301,41,33,37,147,47,7*48
$GAGSV,3,1,11,01,48,095,41,04,01,207,,05,21,306,44,09,22,253,48,2*72
$GAGSV,3,2,11,12,01,183,,13,12,030,19,21,01,101,,24,23,285,49,2*72
$GAGSV,3,3,11,26,45,079,30,31,72,301,48,33,37,147,41,2*44
$GBGSV,3,1,10,02,04,106,,05,18,128,,10,04,083,26,12,36,190,44,1*77
$GBGSV,3,2,10,13,32,086,32,24,81,271,43,25,23,301,47,26,45,131,41,1*72
$GBGSV,3,3,10,29,04,039,20,35,48,064,40,1*7C
$GBGSV,3,1,10,02,04,106,,05,18,128,,10,04,083,18,12,36,190,49,3*75
$GBGSV,3,2,10,13,32,086,28,24,81,271,,25,23,301,,26,45,131,,3*7A
$GBGSV,3,3,10,29,04,039,,35,48,064,,3*78
$GNGLL,5025.4467914,N,01411.3822007,E,214027.00,A,D*76
$GNRMC,214028.00,A,5025.4467291,N,01411.3821655,E,0.014,,241021,,,F,V*1D
$GNVTG,,T,,M,0.014,N,0.027,K,D*38
$GNGGA,214028.00,5025.4467291,N,01411.3821655,E,5,12,0.78,219.364,M,44.078,M,1.0,0084*62
$GNGSA,A,3,33,24,26,01,31,05,09,13,,,,,1.55,0.78,1.34,3*04
$GNGSA,A,3,12,13,25,24,26,35,,,,,,,1.55,0.78,1.34,4*0E
$GAGSV,3,1,11,01,48,095,38,04,01,207,19,05,21,306,46,09,22,253,46,7*7D
$GAGSV,3,2,11,12,01,183,,13,12,030,27,21,01,101,15,24,23,285,46,7*71
$GAGSV,3,3,11,26,45,079,36,31,72,301,42,33,37,147,47,7*4B
$GAGSV,3,1,11,01,48,095,41,04,01,207,,05,21,306,44,09,22,253,48,2*72
$GAGSV,3,2,11,12,01,183,,13,12,030,19,21,01,101,,24,23,285,49,2*72
$GAGSV,3,3,11,26,45,079,29,31,72,301,48,33,37,147,41,2*4C
$GBGSV,3,1,10,02,04,106,,05,18,128,,10,04,083,26,12,36,190,44,1*77
$GBGSV,3,2,10,13,32,086,31,24,81,271,43,25,23,301,47,26,45,131,41,1*71
$GBGSV,3,3,10,29,04,039,20,35,48,064,40,1*7C
$GBGSV,3,1,10,02,04,106,,05,18,128,,10,04,083,17,12,36,190,49,3*7A
$GBGSV,3,2,10,13,32,086,28,24,81,271,,25,23,301,,26,45,131,,3*7A
$GBGSV,3,3,10,29,04,039,,35,48,064,,3*78
$GNGLL,5025.4467291,N,01411.3821655,E,214028.00,A,D*7D
$GNRMC,214029.00,A,5025.4466788,N,01411.3821656,E,0.013,,241021,,,F,V*14
$GNVTG,,T,,M,0.013,N,0.025,K,D*3D
$GNGGA,214029.00,5025.4466788,N,01411.3821656,E,5,12,0.78,219.325,M,44.078,M,1.0,0084*69
$GNGSA,A,3,33,24,26,01,31,05,09,13,,,,,1.55,0.78,1.34,3*04
$GNGSA,A,3,12,13,25,24,26,35,,,,,,,1.55,0.78,1.34,4*0E
$GAGSV,3,1,11,01,48,095,38,04,01,207,18,05,21,306,46,09,22,253,46,7*7C
$GAGSV,3,2,11,12,01,183,,13,12,030,27,21,01,101,14,24,23,285,46,7*70
$GAGSV,3,3,11,26,45,079,36,31,72,301,42,33,37,147,48,7*44
$GAGSV,3,1,11,01,48,095,41,04,01,207,,05,21,306,44,09,22,253,48,2*72
$GAGSV,3,2,11,12,01,183,,13,12,030,18,21,01,101,,24,23,285,49,2*73
$GAGSV,3,3,11,26,45,079,29,31,72,301,48,33,37,147,40,2*4D
$GBGSV,3,1,10,02,04,106,,05,18,128,,10,04,083,26,12,36,190,44,1*77
$GBGSV,3,2,10,13,32,086,31,24,81,271,43,25,23,301,47,26,45,131,41,1*71
$GBGSV,3,3,10,29,04,039,20,35,48,064,40,1*7C
$GBGSV,3,1,10,02,04,106,,05,18,128,,10,04,083,16,12,36,190,49,3*7B
$GBGSV,3,2,10,13,32,086,28,24,81,271,,25,23,301,,26,45,131,,3*7A
$GBGSV,3,3,10,29,04,039,,35,48,064,,3*78
$GNGLL,5025.4466788,N,01411.3821656,E,214029.00,A,D*73
$GNRMC,214030.00,A,5025.4466279,N,01411.3821691,E,0.004,,241021,,,F,V*1A
$GNVTG,,T,,M,0.004,N,0.008,K,D*34
$GNGGA,214030.00,5025.4466279,N,01411.3821691,E,5,12,0.78,219.267,M,44.078,M,1.0,0084*66
$GNGSA,A,3,33,24,26,01,31,05,09,13,,,,,1.55,0.78,1.34,3*04
$GNGSA,A,3,12,13,25,24,26,35,,,,,,,1.55,0.78,1.34,4*0E
$GAGSV,3,1,11,01,48,095,38,04,01,207,16,05,21,306,46,09,22,253,46,7*72
$GAGSV,3,2,11,12,01,183,,13,12,030,26,21,01,101,13,24,23,285,46,7*76
$GAGSV,3,3,11,26,45,079,36,31,72,301,41,33,37,147,48,7*47
$GAGSV,3,1,11,01,48,095,41,04,01,207,24,05,21,306,44,09,22,253,48,2*74
$GAGSV,3,2,11,12,01,183,,13,12,030,18,21,01,101,,24,23,285,49,2*73
$GAGSV,3,3,11,26,45,079,30,31,72,301,48,33,37,147,40,2*45
$GBGSV,3,1,10,02,04,106,,05,18,128,,10,04,083,26,12,36,190,44,1*77
$GBGSV,3,2,10,13,32,086,32,24,81,271,43,25,23,301,47,26,45,131,41,1*72
$GBGSV,3,3,10,29,04,039,,35,48,064,40,1*7E
$GBGSV,3,1,10,02,04,106,,05,18,128,,10,04,083,14,12,36,190,49,3*79
$GBGSV,3,2,10,13,32,086,28,24,81,271,,25,23,301,,26,45,131,,3*7A
$GBGSV,3,3,10,29,04,039,,35,48,064,,3*78
$GNGLL,5025.4466279,N,01411.3821691,E,214030.00,A,D*7B
$GNRMC,214031.00,A,5025.4465737,N,01411.3821683,E,0.002,,241021,,,F,V*12
$GNVTG,,T,,M,0.002,N,0.004,K,D*3E
$GNGGA,214031.00,5025.4465737,N,01411.3821683,E,5,12,0.78,219.207,M,44.078,M,1.0,0084*6E
$GNGSA,A,3,33,24,26,01,31,05,09,13,,,,,1.55,0.78,1.34,3*04
$GNGSA,A,3,12,13,25,24,26,35,,,,,,,1.55,0.78,1.34,4*0E
$GAGSV,3,1,11,01,48,095,38,04,01,207,16,05,21,306,46,09,22,253,46,7*72
$GAGSV,3,2,11,12,01,183,,13,12,030,26,21,01,101,13,24,23,285,46,7*76
$GAGSV,3,3,11,26,45,079,36,31,72,301,41,33,37,147,48,7*47
$GAGSV,3,1,11,01,48,095,41,04,01,207,23,05,21,306,44,09,22,253,48,2*73
$GAGSV,3,2,11,12,01,183,,13,12,030,18,21,01,101,,24,23,285,49,2*73
$GAGSV,3,3,11,26,45,079,29,31,72,301,48,33,37,147,40,2*4D
$GBGSV,3,1,10,02,04,106,,05,18,128,,10,04,083,25,12,36,190,44,1*74
$GBGSV,3,2,10,13,32,086,32,24,81,271,43,25,23,301,47,26,45,131,40,1*73
$GBGSV,3,3,10,29,04,039,20,35,48,064,40,1*7C
$GBGSV,3,1,10,02,04,106,,05,18,128,,10,04,083,14,12,36,190,49,3*79
$GBGSV,3,2,10,13,32,086,27,24,81,271,,25,23,301,,26,45,131,,3*75
$GBGSV,3,3,10,29,04,039,,35,48,064,,3*78
$GNGLL,5025.4465737,N,01411.3821683,E,214031.00,A,D*75
$GNRMC,214032.00,A,5025.4465169,N,01411.3821678,E,0.012,,241021,,,F,V*19
$GNVTG,,T,,M,0.012,N,0.022,K,D*3B
$GNGGA,214032.00,5025.4465169,N,01411.3821678,E,5,12,0.78,219.146,M,44.078,M,1.0,0084*62
$GNGSA,A,3,33,24,26,01,31,05,09,13,,,,,1.55,0.78,1.34,3*04
$GNGSA,A,3,12,13,25,24,26,35,,,,,,,1.55,0.78,1.34,4*0E
$GAGSV,3,1,11,01,48,095,38,04,01,207,16,05,21,306,46,09,22,253,46,7*72
$GAGSV,3,2,11,12,01,183,,13,12,030,26,21,01,101,14,24,23,285,46,7*71
$GAGSV,3,3,11,26,45,079,36,31,72,301,41,33,37,147,48,7*47
$GAGSV,3,1,11,01,48,095,41,04,01,207,22,05,21,306,44,09,22,253,48,2*72
$GAGSV,3,2,11,12,01,183,,13,12,030,18,21,01,101,,24,23,285,49,2*73
$GAGSV,3,3,11,26,45,079,29,31,72,301,48,33,37,147,40,2*4D
$GBGSV,3,1,10,02,04,106,,05,18,128,,10,04,083,26,12,36,190,44,1*77
$GBGSV,3,2,10,13,32,086,32,24,81,271,43,25,23,301,47,26,45,131,41,1*72
$GBGSV,3,3,10,29,04,039,20,35,48,064,40,1*7C
$GBGSV,3,1,10,02,04,106,,05,18,128,,10,04,083,13,12,36,190,49,3*7E
$GBGSV,3,2,10,13,32,086,27,24,81,271,,25,23,301,,26,45,131,,3*75
$GBGSV,3,3,10,29,04,039,,35,48,064,,3*78
$GNGLL,5025.4465169,N,01411.3821678,E,214032.00,A,D*7F
$GNRMC,214033.00,A,5025.4464514,N,01411.3821656,E,0.008,,241021,,,F,V*10
$GNVTG,,T,,M,0.008,N,0.014,K,D*35
$GNGGA,214033.00,5025.4464514,N,01411.3821656,E,5,12,0.78,219.045,M,44.078,M,1.0,0084*62
$GNGSA,A,3,33,24,26,01,31,05,09,13,,,,,1.55,0.78,1.34,3*04
$GNGSA,A,3,12,13,25,24,26,35,,,,,,,1.55,0.78,1.34,4*0E
$GAGSV,3,1,11,01,48,095,39,04,01,207,15,05,21,306,46,09,22,253,46,7*70
$GAGSV,3,2,11,12,01,183,,13,12,030,26,21,01,101,14,24,23,285,46,7*71
$GAGSV,3,3,11,26,45,079,36,31,72,301,41,33,37,147,48,7*47
$GAGSV,3,1,11,01,48,095,41,04,01,207,22,05,21,306,44,09,22,253,48,2*72
$GAGSV,3,2,11,12,01,183,,13,12,030,19,21,01,101,,24,23,285,49,2*72
$GAGSV,3,3,11,26,45,079,29,31,72,301,48,33,37,147,39,2*43
$GBGSV,3,1,10,02,04,106,,05,18,128,,10,04,083,26,12,36,190,44,1*77
$GBGSV,3,2,10,13,32,086,32,24,81,271,43,25,23,301,47,26,45,131,40,1*73
$GBGSV,3,3,10,29,04,039,20,35,48,064,40,1*7C
$GBGSV,3,1,10,02,04,106,,05,18,128,,10,04,083,14,12,36,190,49,3*79
$GBGSV,3,2,10,13,32,086,27,24,81,271,,25,23,301,,26,45,131,,3*75
$GBGSV,3,3,10,29,04,039,,35,48,064,,3*78
$GNGLL,5025.4464514,N,01411.3821656,E,214033.00,A,D*7D
$GNRMC,214034.00,A,5025.4463811,N,01411.3821602,E,0.009,,241021,,,F,V*18
$GNVTG,,T,,M,0.009,N,0.016,K,D*36
$GNGGA,214034.00,5025.4463811,N,01411.3821602,E,5,12,0.78,218.934,M,44.078,M,1.0,0084*65
$GNGSA,A,3,33,24,26,01,31,05,09,13,,,,,1.55,0.78,1.34,3*04
$GNGSA,A,3,12,13,25,24,26,35,,,,,,,1.55,0.78,1.34,4*0E
$GAGSV,3,1,11,01,48,095,39,04,01,207,15,05,21,306,46,09,22,253,46,7*70
$GAGSV,3,2,11,12,01,183,,13,12,030,25,21,01,101,11,24,23,285,46,7*77
$GAGSV,3,3,11,26,45,079,36,31,72,301,41,33,37,147,48,7*47
$GAGSV,3,1,11,01,48,095,41,04,01,207,22,05,21,306,44,09,22,253,48,2*72
$GAGSV,3,2,11,12,01,183,,13,12,030,19,21,01,101,,24,23,285,49,2*72
$GAGSV,3,3,11,26,45,079,29,31,72,301,48,33,37,147,39,2*43
$GBGSV,3,1,10,02,04,106,,05,18,128,,10,04,083,25,12,36,190,44,1*74
$GBGSV,3,2,10,13,32,086,32,24,81,271,43,25,23,301,47,26,45,131,41,1*72
$GBGSV,3,3,10,29,04,039,20,35,48,064,40,1*7C
$GBGSV,3,1,10,02,04,106,,05,18,128,,10,04,083,14,12,36,190,49,3*79
$GBGSV,3,2,10,13,32,086,27,24,81,271,,25,23,301,,26,45,131,,3*75
$GBGSV,3,3,10,29,04,039,,35,48,064,,3*78
$GNGLL,5025.4463811,N,01411.3821602,E,214034.00,A,D*74
$GNRMC,214035.00,A,5025.4463089,N,01411.3821663,E,0.024,,241021,,,F,V*18
$GNVTG,,T,,M,0.024,N,0.045,K,D*3F
$GNGGA,214035.00,5025.4463089,N,01411.3821663,E,5,12,0.78,218.759,M,44.078,M,1.0,0084*6F
$GNGSA,A,3,33,24,26,01,31,05,09,13,,,,,1.55,0.78,1.34,3*04
$GNGSA,A,3,12,13,25,24,26,35,,,,,,,1.55,0.78,1.34,4*0E
$GAGSV,3,1,11,01,48,095,38,04,01,207,14,05,21,306,46,09,22,253,46,7*70
$GAGSV,3,2,11,12,01,183,,13,12,030,26,21,01,101,10,24,23,285,46,7*75
$GAGSV,3,3,11,26,45,079,36,31,72,301,41,33,37,147,48,7*47
$GAGSV,3,1,11,01,48,095,41,04,01,207,22,05,21,306,44,09,22,253,48,2*72
$GAGSV,3,2,11,12,01,183,,13,12,030,19,21,01,101,,24,23,285,49,2*72
$GAGSV,3,3,11,26,45,079,29,31,72,301,48,33,37,147,39,2*43
$GBGSV,3,1,10,02,04,106,,05,18,128,,10,04,083,25,12,36,190,45,1*75
$GBGSV,3,2,10,13,32,086,32,24,81,271,43,25,23,301,47,26,45,131,41,1*72
$GBGSV,3,3,10,29,04,039,21,35,48,064,40,1*7D
$GBGSV,3,1,10,02,04,106,,05,18,128,,10,04,083,15,12,36,190,49,3*78
$GBGSV,3,2,10,13,32,086,27,24,81,271,,25,23,301,,26,45,131,,3*75
$GBGSV,3,3,10,29,04,039,,35,48,064,,3*78
$GNGLL,5025.4463089,N,01411.3821663,E,214035.00,A,D*7B
$GNRMC,214036.00,A,5025.4462333,N,01411.3821820,E,0.023,,241021,,,F,V*16
$GNVTG,,T,,M,0.023,N,0.043,K,D*3E
$GNGGA,214036.00,5025.4462333,N,01411.3821820,E,5,12,0.78,218.532,M,44.078,M,1.0,0084*69
$GNGSA,A,3,33,24,26,01,31,05,09,13,,,,,1.55,0.78,1.34,3*04
$GNGSA,A,3,12,13,25,24,26,35,,,,,,,1.55,0.78,1.34,4*0E
$GAGSV,3,1,11,01,48,095,39,04,01,207,13,05,21,306,46,09,22,253,46,7*76
$GAGSV,3,2,11,12,01,183,,13,12,030,26,21,01,101,09,24,23,285,46,7*7D
$GAGSV,3,3,11,26,45,079,36,31,72,301,41,33,37,147,48,7*47
$GAGSV,3,1,11,01,48,095,41,04,01,207,21,05,21,306,44,09,22,253,48,2*71
$GAGSV,3,2,11,12,01,183,,13,12,030,19,21,01,101,,24,23,285,49,2*72
$GAGSV,3,3,11,26,45,079,29,31,72,301,48,33,37,147,39,2*43
$GBGSV,3,1,10,02,04,106,,05,18,128,,10,04,083,25,12,36,190,45,1*75
$GBGSV,3,2,10,13,32,086,32,24,81,271,43,25,23,301,47,26,45,131,41,1*72
$GBGSV,3,3,10,29,04,039,21,35,48,064,39,1*73
$GBGSV,3,1,10,02,04,106,,05,18,128,,10,04,083,14,12,36,190,49,3*79
$GBGSV,3,2,10,13,32,086,27,24,81,271,,25,23,301,,26,45,131,,3*75
$GBGSV,3,3,10,29,04,039,,35,48,064,,3*78
$GNGLL,5025.4462333,N,01411.3821820,E,214036.00,A,D*72
$GNRMC,214037.00,A,5025.4461561,N,01411.3821930,E,0.021,,241021,,,F,V*17
$GNVTG,,T,,M,0.021,N,0.038,K,D*30
$GNGGA,214037.00,5025.4461561,N,01411.3821930,E,5,12,0.78,218.316,M,44.078,M,1.0,0084*6A
$GNGSA,A,3,33,24,26,01,31,05,09,13,,,,,1.55,0.78,1.34,3*04
$GNGSA,A,3,12,13,25,24,26,35,,,,,,,1.55,0.78,1.34,4*0E
$GAGSV,3,1,11,01,48,095,38,04,01,207,12,05,21,306,46,09,22,253,46,7*76
$GAGSV,3,2,11,12,01,183,,13,12,030,26,21,01,101,15,24,23,285,46,7*70
$GAGSV,3,3,11,26,45,079,36,31,72,301,41,33,37,147,48,7*47
$GAGSV,3,1,11,01,48,095,41,04,01,207,21,05,21,306,44,09,22,253,48,2*71
$GAGSV,3,2,11,12,01,183,,13,12,030,18,21,01,101,,24,23,285,49,2*73
$GAGSV,3,3,11,26,45,079,29,31,72,301,48,33,37,147,39,2*43
$GBGSV,3,1,10,02,04,106,,05,18,128,,10,04,083,25,12,36,190,45,1*75
$GBGSV,3,2,10,13,32,086,32,24,81,271,43,25,23,301,47,26,45,131,41,1*72
$GBGSV,3,3,10,29,04,039,21,35,48,064,39,1*73
$GBGSV,3,1,10,02,04,106,,05,18,128,,10,04,083,14,12,36,190,49,3*79
$GBGSV,3,2,10,13,32,086,27,24,81,271,,25,23,301,,26,45,131,,3*75
$GBGSV,3,3,10,29,04,039,,35,48,064,,3*78
$GNGLL,5025.4461561,N,01411.3821930,E,214037.00,A,D*71
$GNRMC,214038.00,A,5025.4460767,N,01411.3822079,E,0.008,,241021,,,F,V*11
$GNVTG,,T,,M,0.008,N,0.015,K,D*34
$GNGGA,214038.00,5025.4460767,N,01411.3822079,E,5,12,0.78,218.065,M,44.078,M,1.0,0084*60
$GNGSA,A,3,33,24,26,01,31,05,09,13,,,,,1.55,0.78,1.34,3*04
$GNGSA,A,3,12,13,25,24,26,35,,,,,,,1.55,0.78,1.34,4*0E
$GAGSV,3,1,11,01,48,095,38,04,01,207,11,05,21,306,46,09,22,253,46,7*75
$GAGSV,3,2,11,12,01,183,,13,12,030,25,21,01,101,08,24,23,285,46,7*7F
$GAGSV,3,3,11,26,45,079,36,31,72,301,41,33,37,147,47,7*48
$GAGSV,3,1,11,01,48,095,41,04,01,207,21,05,21,306,44,09,22,253,48,2*71
$GAGSV,3,2,11,12,01,183,,13,12,030,18,21,01,101,,24,23,285,49,2*73
$GAGSV,3,3,11,26,45,079,29,31,72,301,48,33,37,147,38,2*42
$GBGSV,3,1,10,02,04,106,,05,18,128,,10,04,083,25,12,36,190,45,1*75
$GBGSV,3,2,10,13,32,086,32,24,81,271,43,25,23,301,47,26,45,131,41,1*72
$GBGSV,3,3,10,29,04,039,21,35,48,064,39,1*73
$GBGSV,3,1,10,02,04,106,,05,18,128,,10,04,083,13,12,36,190,49,3*7E
$GBGSV,3,2,10,13,32,086,27,24,81,271,,25,23,301,,26,45,131,,3*75
$GBGSV,3,3,10,29,04,039,,35,48,064,,3*78
$GNGLL,5025.4460767,N,01411.3822079,E,214038.00,A,D*7C
$GNRMC,214039.00,A,5025.4460002,N,01411.3822196,E,0.013,,241021,,,F,V*1E
$GNVTG,,T,,M,0.013,N,0.024,K,D*3C
$GNGGA,214039.00,5025.4460002,N,01411.3822196,E,5,12,0.78,217.828,M,44.078,M,1.0,0084*6B
$GNGSA,A,3,33,24,26,01,31,05,09,13,,,,,1.55,0.78,1.34,3*04
$GNGSA,A,3,12,13,25,24,26,35,,,,,,,1.55,0.78,1.34,4*0E
$GAGSV,3,1,11,01,48,095,38,04,01,207,09,05,21,306,46,09,22,253,46,7*7C
$GAGSV,3,2,11,12,01,183,,13,12,030,25,21,01,101,09,24,23,285,46,7*7E
$GAGSV,3,3,11,26,45,079,36,31,72,301,41,33,37,147,47,7*48
$GAGSV,3,1,11,01,48,095,41,04,01,207,21,05,21,306,44,09,22,253,48,2*71
$GAGSV,3,2,11,12,01,183,,13,12,030,18,21,01,101,,24,23,285,49,2*73
$GAGSV,3,3,11,26,45,079,29,31,72,301,48,33,37,147,38,2*42
$GBGSV,3,1,10,02,04,106,,05,18,128,,10,04,083,25,12,36,190,45,1*75
$GBGSV,3,2,10,13,32,086,32,24,81,271,43,25,23,301,47,26,45,131,41,1*72
$GBGSV,3,3,10,29,04,039,21,35,48,064,39,1*73
$GBGSV,3,1,10,02,04,106,,05,18,128,,10,04,083,13,12,36,190,49,3*7E
$GBGSV,3,2,10,13,32,086,27,24,81,271,,25,23,301,,26,45,131,,3*75
$GBGSV,3,3,10,29,04,039,,35,48,064,,3*78
$GNGLL,5025.4460002,N,01411.3822196,E,214039.00,A,D*79
$GNRMC,214040.00,A,5025.4459259,N,01411.3822332,E,0.022,,241021,,,F,V*18
$GNVTG,,T,,M,0.022,N,0.040,K,D*3C
$GNGGA,214040.00,5025.4459259,N,01411.3822332,E,5,12,0.78,217.580,M,44.078,M,1.0,0084*60
$GNGSA,A,3,33,24,26,01,31,05,09,13,,,,,1.55,0.78,1.34,3*04
$GNGSA,A,3,12,13,25,24,26,35,,,,,,,1.55,0.78,1.34,4*0E
$GAGSV,3,1,11,01,48,095,38,04,01,207,08,05,21,306,46,09,22,253,46,7*7D
$GAGSV,3,2,11,12,01,183,,13,12,030,25,21,01,101,10,24,23,285,46,7*76
$GAGSV,3,3,11,26,45,079,36,31,72,301,41,33,37,147,47,7*48
$GAGSV,3,1,11,01,48,095,41,04,01,207,21,05,21,306,44,09,22,253,48,2*71
$GAGSV,3,2,11,12,01,183,,13,12,030,18,21,01,101,,24,23,285,49,2*73
$GAGSV,3,3,11,26,45,079,29,31,72,301,48,33,37,147,38,2*42
$GBGSV,3,1,10,02,04,106,,05,18,128,,10,04,083,25,12,36,190,45,1*75
$GBGSV,3,2,10,13,32,086,32,24,81,271,43,25,23,301,47,26,45,131,41,1*72
$GBGSV,3,3,10,29,04,039,20,35,48,064,39,1*72
$GBGSV,3,1,10,02,04,106,,05,18,128,,10,04,083,12,12,36,190,49,3*7F
$GBGSV,3,2,10,13,32,086,27,24,81,271,,25,23,301,,26,45,131,,3*75
$GBGSV,3,3,10,29,04,039,,35,48,064,,3*78
$GNGLL,5025.4459259,N,01411.3822332,E,214040.00,A,D*7D
$GNRMC,214041.00,A,5025.4458611,N,01411.3822356,E,0.011,,241021,,,F,V*12
$GNVTG,,T,,M,0.011,N,0.020,K,D*3A
$GNGGA,214041.00,5025.4458611,N,01411.3822356,E,5,12,0.78,217.424,M,44.078,M,1.0,0084*65
$GNGSA,A,3,33,24,26,01,31,05,09,13,,,,,1.55,0.78,1.34,3*04
$GNGSA,A,3,12,13,25,24,26,35,,,,,,,1.55,0.78,1.34,4*0E
$GAGSV,3,1,11,01,48,095,38,04,01,207,08,05,21,306,46,09,22,253,46,7*7D
$GAGSV,3,2,11,12,01,183,,13,12,030,24,21,01,101,10,24,23,285,46,7*77
$GAGSV,3,3,11,26,45,079,36,31,72,301,41,33,37,147,47,7*48
$GAGSV,3,1,11,01,48,095,41,04,01,207,20,05,21,306,44,09,22,253,48,2*70
$GAGSV,3,2,11,12,01,183,,13,12,030,17,21,01,101,,24,23,285,49,2*7C
$GAGSV,3,3,11,26,45,079,29,31,72,301,48,33,37,147,38,2*42
$GBGSV,3,1,10,02,04,106,,05,18,128,,10,04,083,25,12,36,190,45,1*75
$GBGSV,3,2,10,13,32,086,32,24,81,270,43,25,23,301,47,26,45,131,41,1*73
$GBGSV,3,3,10,29,04,039,20,35,48,064,39,1*72
$GBGSV,3,1,10,02,04,106,,05,18,128,,10,04,083,11,12,36,190,49,3*7C
$GBGSV,3,2,10,13,32,086,27,24,81,270,,25,23,301,,26,45,131,,3*74
$GBGSV,3,3,10,29,04,039,,35,48,064,,3*78
$GNGLL,5025.4458611,N,01411.3822356,E,214041.00,A,D*77
$GNRMC,214042.00,A,5025.4457960,N,01411.3822336,E,0.020,,241021,,,F,V*13
$GNVTG,,T,,M,0.020,N,0.036,K,D*3F
$GNGGA,214042.00,5025.4457960,N,01411.3822336,E,5,12,0.78,217.289,M,44.078,M,1.0,0084*67
$GNGSA,A,3,33,24,26,01,31,05,09,13,,,,,1.55,0.78,1.34,3*04
$GNGSA,A,3,12,13,25,24,26,35,,,,,,,1.55,0.78,1.34,4*0E
$GAGSV,3,1,11,01,48,095,38,04,01,207,15,05,21,306,46,09,22,253,46,7*71
$GAGSV,3,2,11,12,01,183,,13,12,030,24,21,01,101,07,24,23,285,46,7*71
$GAGSV,3,3,11,26,45,079,37,31,72,301,41,33,37,147,47,7*49
$GAGSV,3,1,11,01,48,095,41,04,01,207,20,05,21,306,44,09,22,253,48,2*70
$GAGSV,3,2,11,12,01,183,,13,12,030,18,21,01,101,,24,23,285,49,2*73
$GAGSV,3,3,11,26,45,079,29,31,72,301,48,33,37,147,37,2*4D
$GBGSV,3,1,10,02,04,106,,05,18,128,,10,04,083,25,12,36,190,45,1*75
$GBGSV,3,2,10,13,32,086,32,24,81,270,43,25,24,302,47,26,45,131,41,1*77
$GBGSV,3,3,10,29,04,039,20,35,48,064,39,1*72
$GBGSV,3,1,10,02,04,106,,05,18,128,,10,04,083,13,12,36,190,49,3*7E
$GBGSV,3,2,10,13,32,086,27,24,81,270,,25,24,302,,26,45,131,,3*70
$GBGSV,3,3,10,29,04,039,,35,48,064,,3*78
$GNGLL,5025.4457960,N,01411.3822336,E,214042.00,A,D*74
$GNRMC,214043.00,A,5025.4457336,N,01411.3822159,E,0.017,,241021,,,F,V*14
$GNVTG,,T,,M,0.017,N,0.032,K,D*3F
$GNGGA,214043.00,5025.4457336,N,01411.3822159,E,5,12,0.78,217.216,M,44.078,M,1.0,0084*62
$GNGSA,A,3,33,24,26,01,31,05,09,13,,,,,1.55,0.78,1.34,3*04
$GNGSA,A,3,12,13,25,24,26,35,,,,,,,1.55,0.78,1.34,4*0E
$GAGSV,3,1,11,01,48,095,38,04,01,207,10,05,21,306,46,09,22,253,46,7*74
$GAGSV,3,2,11,12,01,183,,13,12,030,24,21,01,101,09,24,23,285,46,7*7F
$GAGSV,3,3,11,26,45,079,36,31,72,301,41,33,37,147,47,7*48
$GAGSV,3,1,11,01,48,095,41,04,01,207,20,05,21,306,44,09,22,253,48,2*70
$GAGSV,3,2,11,12,01,183,,13,12,030,19,21,01,101,,24,23,285,49,2*72
$GAGSV,3,3,11,26,45,079,29,31,72,301,48,33,37,147,37,2*4D
$GBGSV,3,1,10,02,04,106,,05,18,128,,10,04,083,25,12,36,190,45,1*75
$GBGSV,3,2,10,13,32,086,32,24,81,270,43,25,24,302,47,26,45,131,41,1*77
$GBGSV,3,3,10,29,04,039,,35,48,064,39,1*70
$GBGSV,3,1,10,02,04,106,,05,18,128,,10,04,083,14,12,36,190,49,3*79
$GBGSV,3,2,10,13,32,086,27,24,81,270,,25,24,302,,26,45,131,,3*70
$GBGSV,3,3,10,29,04,039,,35,48,064,,3*78
$GNGLL,5025.4457336,N,01411.3822159,E,214043.00,A,D*77
$GNRMC,214044.00,A,5025.4456764,N,01411.3822033,E,0.007,,241021,,,F,V*1D
$GNVTG,,T,,M,0.007,N,0.013,K,D*3D
$GNGGA,214044.00,5025.4456764,N,01411.3822033,E,5,12,0.78,217.147,M,44.078,M,1.0,0084*6D
$GNGSA,A,3,33,24,26,01,31,05,09,13,,,,,1.55,0.78,1.34,3*04
$GNGSA,A,3,12,13,25,24,26,35,,,,,,,1.55,0.78,1.34,4*0E
$GAGSV,3,1,11,01,48,095,38,04,01,207,10,05,21,306,46,09,22,253,46,7*74
$GAGSV,3,2,11,12,01,183,,13,12,030,24,21,01,101,10,24,23,285,46,7*77
$GAGSV,3,3,11,26,45,079,36,31,72,301,41,33,37,147,46,7*49
$GAGSV,3,1,11,01,48,095,41,04,01,207,20,05,21,306,44,09,22,253,48,2*70
$GAGSV,3,2,11,12,01,183,,13,12,030,19,21,01,101,,24,23,285,49,2*72
$GAGSV,3,3,11,26,45,079,29,31,72,301,48,33,37,147,37,2*4D
$GBGSV,3,1,10,02,04,106,,05,18,128,,10,04,083,24,12,36,190,45,1*74
$GBGSV,3,2,10,13,32,086,32,24,81,270,43,25,24,302,47,26,45,131,41,1*77
$GBGSV,3,3,10,29,04,039,22,35,48,064,39,1*70
$GBGSV,3,1,10,02,04,106,,05,18,128,,10,04,083,15,12,36,190,49,3*78
$GBGSV,3,2,10,13,32,086,27,24,81,270,,25,24,302,,26,45,131,,3*70
$GBGSV,3,3,10,29,04,039,,35,48,064,,3*78
$GNGLL,5025.4456764,N,01411.3822033,E,214044.00,A,D*7F
$GNRMC,214045.00,A,5025.4456243,N,01411.3821871,E,0.007,,241021,,,F,V*11
$GNVTG,,T,,M,0.007,N,0.014,K,D*3A
$GNGGA,214045.00,5025.4456243,N,01411.3821871,E,5,12,0.88,217.114,M,44.078,M,1.0,0084*68
$GNGSA,A,3,33,24,26,01,31,05,09,13,,,,,1.80,0.88,1.57,3*06
$GNGSA,A,3,12,13,25,24,26,35,,,,,,,1.80,0.88,1.57,4*0C
$GAGSV,3,1,11,01,48,095,38,04,01,207,08,05,21,306,46,09,22,253,46,7*7D
$GAGSV,3,2,11,12,01,183,,13,12,030,23,21,01,101,10,24,23,285,46,7*70
$GAGSV,3,3,11,26,45,079,36,31,72,301,41,33,37,147,46,7*49
$GAGSV,3,1,11,01,48,095,41,04,01,207,19,05,21,306,44,09,22,253,48,2*7A
$GAGSV,3,2,11,12,01,183,,13,12,030,19,21,01,101,,24,23,285,49,2*72
$GAGSV,3,3,11,26,45,079,28,31,72,301,48,33,37,147,37,2*4C
$GBGSV,3,1,10,02,04,106,,05,18,128,,10,04,083,24,12,36,190,45,1*74
$GBGSV,3,2,10,13,32,086,32,24,81,270,43,25,24,302,47,26,45,131,41,1*77
$GBGSV,3,3,10,29,04,039,21,35,48,064,39,1*73
$GBGSV,3,1,10,02,04,106,,05,18,128,,10,04,083,15,12,36,190,49,3*78
$GBGSV,3,2,10,13,32,086,27,24,81,270,,25,24,302,,26,45,131,,3*70
$GBGSV,3,3,10,29,04,039,,35,48,064,,3*78
$GNGLL,5025.4456243,N,01411.3821871,E,214045.00,A,D*73
$GNRMC,214046.00,A,5025.4455664,N,01411.3821565,E,0.006,,241021,,,F,V*19
$GNVTG,,T,,M,0.006,N,0.011,K,D*3E
$GNGGA,214046.00,5025.4455664,N,01411.3821565,E,5,12,0.88,217.134,M,44.078,M,1.0,0084*63
$GNGSA,A,3,33,24,26,01,31,05,09,13,,,,,1.80,0.88,1.57,3*06
$GNGSA,A,3,12,13,25,24,26,35,,,,,,,1.80,0.88,1.57,4*0C
$GAGSV,3,1,11,01,48,095,38,04,01,207,09,05,21,306,46,09,22,253,46,7*7C
$GAGSV,3,2,11,12,01,183,,13,12,030,23,21,01,101,12,24,23,285,46,7*72
$GAGSV,3,3,11,26,45,079,36,31,72,301,41,33,37,147,46,7*49
$GAGSV,3,1,11,01,48,095,41,04,01,207,19,05,21,306,44,09,22,253,48,2*7A
$GAGSV,3,2,11,12,01,183,,13,12,030,18,21,01,101,,24,23,285,49,2*73
$GAGSV,3,3,11,26,45,079,28,31,72,301,48,33,37,147,37,2*4C
$GBGSV,3,1,10,02,04,106,,05,18,128,,10,04,083,24,12,36,190,45,1*74
$GBGSV,3,2,10,13,32,086,33,24,81,270,43,25,24,302,47,26,45,131,41,1*76
$GBGSV,3,3,10,29,04,039,20,35,48,064,39,1*72
$GBGSV,3,1,10,02,04,106,,05,18,128,,10,04,083,15,12,36,190,49,3*78
$GBGSV,3,2,10,13,32,086,27,24,81,270,,25,24,302,,26,45,131,,3*70
$GBGSV,3,3,10,29,04,039,,35,48,064,,3*78
$GNGLL,5025.4455664,N,01411.3821565,E,214046.00,A,D*7A
$GNRMC,214047.00,A,5025.4455029,N,01411.3821279,E,0.007,,241021,,,F,V*1C
$GNVTG,,T,,M,0.007,N,0.013,K,D*3D
$GNGGA,214047.00,5025.4455029,N,01411.3821279,E,5,12,0.88,217.136,M,44.078,M,1.0,0084*65
$GNGSA,A,3,33,24,26,01,31,05,09,13,,,,,1.80,0.88,1.57,3*06
$GNGSA,A,3,12,13,25,24,26,35,,,,,,,1.80,0.88,1.57,4*0C
$GAGSV,3,1,11,01,48,095,38,04,01,207,08,05,21,306,46,09,22,253,46,7*7D
$GAGSV,3,2,11,12,01,183,,13,12,030,23,21,01,101,10,24,23,285,46,7*70
$GAGSV,3,3,11,26,45,079,36,31,72,301,41,33,37,147,45,7*4A
$GAGSV,3,1,11,01,48,095,41,04,01,207,20,05,21,306,44,09,22,253,48,2*70
$GAGSV,3,2,11,12,01,183,,13,12,030,18,21,01,101,,24,23,285,49,2*73
$GAGSV,3,3,11,26,45,079,28,31,72,301,48,33,37,147,37,2*4C
$GBGSV,3,1,10,02,04,106,,05,18,128,,10,04,083,24,12,36,190,45,1*74
$GBGSV,3,2,10,13,32,086,33,24,81,270,43,25,24,302,47,26,45,131,41,1*76
$GBGSV,3,3,10,29,04,039,20,35,48,064,39,1*72
$GBGSV,3,1,10,02,04,106,,05,18,128,,10,04,083,15,12,36,190,49,3*78
$GBGSV,3,2,10,13,32,086,27,24,81,270,,25,24,302,,26,45,131,,3*70
$GBGSV,3,3,10,29,04,039,,35,48,064,,3*78
$GNGLL,5025.4455029,N,01411.3821279,E,214047.00,A,D*7E
$GNRMC,214048.00,A,5025.4454488,N,01411.3820980,E,0.009,,241021,,,F,V*1F
$GNVTG,,T,,M,0.009,N,0.017,K,D*37
$GNGGA,214048.00,5025.4454488,N,01411.3820980,E,5,12,0.88,217.169,M,44.078,M,1.0,0084*62
$GNGSA,A,3,33,24,26,01,31,05,09,13,,,,,1.80,0.88,1.57,3*06
$GNGSA,A,3,12,13,25,24,26,35,,,,,,,1.80,0.88,1.57,4*0C
$GAGSV,3,1,11,01,48,095,38,04,01,207,09,05,21,306,46,09,22,253,45,7*7F
$GAGSV,3,2,11,12,01,183,,13,12,030,23,21,01,101,11,24,23,285,46,7*71
$GAGSV,3,3,11,26,45,079,36,31,72,301,41,33,37,147,45,7*4A
$GAGSV,3,1,11,01,48,095,41,04,01,207,20,05,21,306,44,09,22,253,48,2*70
$GAGSV,3,2,11,12,01,183,,13,12,030,18,21,01,101,,24,23,285,49,2*73
$GAGSV,3,3,11,26,45,079,28,31,72,301,48,33,37,147,37,2*4C
$GBGSV,3,1,10,02,04,106,,05,18,128,,10,04,083,24,12,36,190,45,1*74
$GBGSV,3,2,10,13,32,086,33,24,81,270,43,25,24,302,47,26,45,131,41,1*76
$GBGSV,3,3,10,29,04,039,20,35,48,064,38,1*73
$GBGSV,3,1,10,02,04,106,,05,18,128,,10,04,083,16,12,36,190,49,3*7B
$GBGSV,3,2,10,13,32,086,27,24,81,270,,25,24,302,,26,45,131,,3*70
$GBGSV,3,3,10,29,04,039,,35,48,064,,3*78
$GNGLL,5025.4454488,N,01411.3820980,E,214048.00,A,D*73
$GNRMC,214049.00,A,5025.4453965,N,01411.3820686,E,0.021,,241021,,,F,V*14
$GNVTG,,T,,M,0.021,N,0.039,K,D*31
$GNGGA,214049.00,5025.4453965,N,01411.3820686,E,5,12,0.88,217.185,M,44.078,M,1.0,0084*61
$GNGSA,A,3,33,24,26,01,31,05,09,13,,,,,1.80,0.88,1.57,3*06
$GNGSA,A,3,12,13,25,24,26,35,,,,,,,1.80,0.88,1.57,4*0C
$GAGSV,3,1,11,01,48,095,38,04,01,207,10,05,21,306,46,09,22,253,45,7*77
$GAGSV,3,2,11,12,01,183,,13,12,030,23,21,01,101,12,24,23,285,46,7*72
$GAGSV,3,3,11,26,45,079,36,31,72,301,41,33,37,147,45,7*4A
$GAGSV,3,1,11,01,48,095,41,04,01,207,20,05,21,306,44,09,22,253,48,2*70
$GAGSV,3,2,11,12,01,183,,13,12,030,19,21,01,101,,24,23,285,49,2*72
$GAGSV,3,3,11,26,45,079,28,31,72,301,48,33,37,147,37,2*4C
$GBGSV,3,1,10,02,04,106,,05,18,128,,10,04,083,23,12,36,190,45,1*73
$GBGSV,3,2,10,13,32,086,33,24,81,270,43,25,24,302,47,26,45,131,41,1*76
$GBGSV,3,3,10,29,04,039,20,35,48,063,38,1*74
$GBGSV,3,1,10,02,04,106,,05,18,128,,10,04,083,17,12,36,190,49,3*7A
$GBGSV,3,2,10,13,32,086,27,24,81,270,,25,24,302,,26,45,131,,3*70
$GBGSV,3,3,10,29,04,039,,35,48,063,,3*7F
$GNGLL,5025.4453965,N,01411.3820686,E,214049.00,A,D*72
$GNRMC,214050.00,A,5025.4453609,N,01411.3820373,E,0.062,,241021,,,F,V*11
$GNVTG,,T,,M,0.062,N,0.115,K,D*39
$GNGGA,214050.00,5025.4453609,N,01411.3820373,E,5,12,0.88,217.224,M,44.078,M,1.0,0084*6B
