$GNGGA,205242.00,5025.4447579,N,01411.3818134,E,4,12,0.66,217.795,M,44.078,M,1.0,0084*6F
$GNGSA,A,3,29,25,24,32,12,02,19,06,,,,,1.12,0.66,0.90,1*0E
$GNGSA,A,3,33,05,09,13,21,31,01,04,,,,,1.12,0.66,0.90,3*02
$GNGSA,A,3,35,26,24,33,,,,,,,,,1.12,0.66,0.90,4*0B
$GPGSV,3,1,11,02,30,116,26,03,02,004,16,06,28,069,23,12,83,012,48,1*62
$GPGSV,3,2,11,19,17,044,20,22,00,345,,24,46,150,46,25,56,274,48,1*60
$GPGSV,3,3,11,29,20,206,35,31,03,308,42,32,35,287,48,1*55
$GPGSV,3,1,11,02,30,116,,03,02,004,23,06,28,069,17,12,83,012,42,6*6A
$GPGSV,3,2,11,19,17,044,,22,00,345,,24,46,150,44,25,56,274,42,6*6D
$GPGSV,3,3,11,29,20,206,39,31,03,308,37,32,35,287,45,6*51
$GAGSV,3,1,10,01,63,078,47,04,17,213,38,05,17,322,39,09,33,269,44,7*7F
$GAGSV,3,2,10,13,23,040,28,21,14,089,30,24,09,274,40,26,38,102,27,7*79
$GAGSV,3,3,10,31,57,283,47,33,19,153,47,7*74
$GAGSV,3,1,10,01,63,078,48,04,17,213,46,05,17,322,34,09,33,269,46,2*73
$GAGSV,3,2,10,13,23,040,26,21,14,089,27,24,09,274,41,26,38,102,,2*70
$GAGSV,3,3,10,31,57,283,47,33,19,153,47,2*71
$GBGSV,2,1,05,24,62,294,48,25,07,295,48,26,65,117,46,33,10,268,46,1*7E
$GBGSV,2,2,05,35,56,093,44,1*4C
$GBGSV,2,1,06,12,,,45,24,62,294,,25,07,295,,26,65,117,,3*40
$GBGSV,2,2,06,33,10,268,,35,56,093,,3*70
$GNGLL,5025.4447579,N,01411.3818134,E,205242.00,A,D*7A
$GNTXT,01,01,02,Starting GNSS*5A
$GNRMC,205242.23,V,,,,,,,241021,,,N,V*1F
$GNVTG,,,,,,,,,N*2E
$GNGGA,205242.23,,,,,0,00,99.99,,,,,,*7A
$GNGSA,A,1,,,,,,,,,,,,,99.99,99.99,99.99,2*30
$GNGSA,A,1,,,,,,,,,,,,,99.99,99.99,99.99,4*36
$GLGSV,1,1,00,1*78
$GLGSV,1,1,00,3*7A
$GBGSV,1,1,00,1*76
$GBGSV,1,1,00,3*74
$GNGLL,,,,,205242.23,V,N*56
$GNRMC,205243.00,V,,,,,,,241021,,,N,V*1F
$GNVTG,,,,,,,,,N*2E
$GNGGA,205243.00,,,,,0,11,1.38,,,,,,*40
$GNGSA,A,1,87,88,69,79,77,78,68,,,,,,2.33,1.38,1.88,2*06
$GNGSA,A,1,24,26,33,35,,,,,,,,,2.33,1.38,1.88,4*0B
$GLGSV,3,1,10,68,17,251,42,69,26,304,45,70,05,359,,77,44,093,31,1*7B
$GLGSV,3,2,10,78,67,330,48,79,18,297,45,81,00,182,,86,13,022,,1*7E
$GLGSV,3,3,10,87,57,083,46,88,40,152,43,1*78
$GLGSV,3,1,10,68,17,251,43,69,26,304,41,70,05,359,,77,44,093,25,3*79
$GLGSV,3,2,10,78,67,330,44,79,18,297,41,81,00,182,,86,13,022,,3*74
$GLGSV,3,3,10,87,57,083,,88,40,152,35,3*79
$GBGSV,2,1,05,24,62,294,48,25,07,296,48,26,65,117,46,33,10,268,46,1*7D
$GBGSV,2,2,05,35,56,093,43,1*4B
$GBGSV,2,1,06,12,,,44,24,62,294,,25,07,296,,26,65,117,,3*42
$GBGSV,2,2,06,33,10,268,,35,56,093,,3*70
$GNGLL,,,,,205243.00,V,N*56
$GNRMC,205244.00,A,5025.4412668,N,01411.3728294,E,0.029,,241021,,,A,V*13
$GNVTG,,T,,M,0.029,N,0.053,K,A*30
$GNGGA,205244.00,5025.4412668,N,01411.3728294,E,1,11,1.38,244.557,M,44.078,M,,*4A
$GNGSA,A,3,87,88,69,79,77,78,68,,,,,,2.33,1.38,1.88,2*04
$GNGSA,A,3,24,26,33,35,,,,,,,,,2.33,1.38,1.88,4*09
$GLGSV,3,1,10,68,17,251,43,69,26,304,46,70,05,359,,77,44,093,32,1*7A
$GLGSV,3,2,10,78,67,330,48,79,18,297,46,81,00,182,,86,13,022,,1*7D
$GLGSV,3,3,10,87,57,083,46,88,40,152,43,1*78
$GLGSV,3,1,10,68,17,251,43,69,26,304,41,70,05,359,,77,44,093,25,3*79
$GLGSV,3,2,10,78,67,330,45,79,18,297,41,81,00,182,,86,13,022,,3*75
$GLGSV,3,3,10,87,57,083,,88,40,152,35,3*79
$GBGSV,2,1,05,24,62,294,48,25,07,296,48,26,65,117,46,33,10,268,46,1*7D
$GBGSV,2,2,05,35,56,093,43,1*4B
$GBGSV,2,1,06,12,,,44,24,62,294,,25,07,296,,26,65,117,,3*42
$GBGSV,2,2,06,33,10,268,,35,56,093,,3*70
$GNGLL,5025.4412668,N,01411.3728294,E,205244.00,A,A*7F
$GNRMC,205245.00,A,5025.4426549,N,01411.3764221,E,0.030,,241021,,,A,V*1B
$GNVTG,,T,,M,0.030,N,0.055,K,A*3E
$GNGGA,205245.00,5025.4426549,N,01411.3764221,E,1,11,1.38,235.584,M,44.078,M,,*42
$GNGSA,A,3,87,88,69,79,77,78,68,,,,,,2.33,1.38,1.88,2*04
$GNGSA,A,3,24,26,33,35,,,,,,,,,2.33,1.38,1.88,4*09
$GLGSV,3,1,10,68,17,251,43,69,26,304,47,70,05,359,,77,44,093,33,1*7A
$GLGSV,3,2,10,78,67,330,48,79,18,297,46,81,00,182,,86,13,022,,1*7D
$GLGSV,3,3,10,87,57,083,47,88,40,152,44,1*7E
$GLGSV,3,1,10,68,17,251,43,69,26,304,41,70,05,359,,77,44,093,26,3*7A
$GLGSV,3,2,10,78,67,330,45,79,18,297,41,81,00,182,,86,13,022,,3*75
$GLGSV,3,3,10,87,57,083,,88,40,152,36,3*7A
$GBGSV,2,1,05,24,62,294,48,25,07,296,48,26,65,117,46,33,10,268,46,1*7D
$GBGSV,2,2,05,35,56,093,43,1*4B
$GBGSV,2,1,06,12,,,45,24,62,294,,25,07,296,,26,65,117,,3*43
$GBGSV,2,2,06,33,10,268,,35,56,093,,3*70
$GNGLL,5025.4426549,N,01411.3764221,E,205245.00,A,A*7F
$GNRMC,205246.00,A,5025.4434631,N,01411.3788731,E,0.051,,241021,,,A,V*16
$GNVTG,,T,,M,0.051,N,0.094,K,A*34
$GNGGA,205246.00,5025.4434631,N,01411.3788731,E,1,11,1.38,228.806,M,44.078,M,,*43
$GNGSA,A,3,87,88,69,79,77,78,68,,,,,,2.33,1.38,1.88,2*04
$GNGSA,A,3,24,26,33,35,,,,,,,,,2.33,1.38,1.88,4*09
$GLGSV,3,1,10,68,17,251,43,69,26,304,47,70,05,359,,77,44,093,33,1*7A
$GLGSV,3,2,10,78,67,330,48,79,18,297,47,81,00,182,,86,13,022,,1*7C
$GLGSV,3,3,10,87,57,083,47,88,40,152,44,1*7E
$GLGSV,3,1,10,68,17,251,43,69,26,304,42,70,05,359,,77,44,093,26,3*79
$GLGSV,3,2,10,78,67,330,45,79,18,297,42,81,00,182,,86,13,022,,3*76
$GLGSV,3,3,10,87,57,083,,88,40,152,37,3*7B
$GBGSV,2,1,05,24,62,294,48,25,07,296,48,26,65,117,46,33,10,268,46,1*7D
$GBGSV,2,2,05,35,56,093,43,1*4B
$GBGSV,2,1,06,12,,,44,24,62,294,,25,07,296,,26,65,117,,3*42
$GBGSV,2,2,06,33,10,268,,35,56,093,,3*70
$GNGLL,5025.4434631,N,01411.3788731,E,205246.00,A,A*75
$GNRMC,205247.00,A,5025.4438276,N,01411.3799398,E,0.021,,241021,,,A,V*1C
$GNVTG,,T,,M,0.021,N,0.039,K,A*34
$GNGGA,205247.00,5025.4438276,N,01411.3799398,E,1,11,1.38,226.578,M,44.078,M,,*44
$GNGSA,A,3,87,88,69,79,77,78,68,,,,,,2.33,1.38,1.88,2*04
$GNGSA,A,3,24,26,33,35,,,,,,,,,2.33,1.38,1.88,4*09
$GLGSV,3,1,10,68,17,251,43,69,26,304,47,70,05,359,,77,44,093,33,1*7A
$GLGSV,3,2,10,78,67,330,48,79,18,297,47,81,00,182,,86,13,022,,1*7C
$GLGSV,3,3,10,87,57,083,47,88,40,152,45,1*7F
$GLGSV,3,1,10,68,17,251,43,69,26,304,42,70,05,359,,77,44,093,26,3*79
$GLGSV,3,2,10,78,67,330,45,79,18,297,42,81,00,182,,86,13,022,,3*76
$GLGSV,3,3,10,87,57,083,,88,40,152,37,3*7B
$GBGSV,2,1,05,24,62,294,48,25,07,296,48,26,65,117,47,33,10,268,46,1*7C
$GBGSV,2,2,05,35,56,093,44,1*4C
$GBGSV,2,1,06,12,,,44,24,62,294,,25,07,296,,26,65,117,,3*42
$GBGSV,2,2,06,33,10,268,,35,56,093,,3*70
$GNGLL,5025.4438276,N,01411.3799398,E,205247.00,A,A*78
$GNRMC,205248.00,A,5025.4438475,N,01411.3801942,E,0.005,,241021,,,A,V*13
$GNVTG,,T,,M,0.005,N,0.009,K,A*31
$GNGGA,205248.00,5025.4438475,N,01411.3801942,E,1,11,1.38,226.171,M,44.078,M,,*40
$GNGSA,A,3,87,88,69,79,77,78,68,,,,,,2.33,1.38,1.88,2*04
$GNGSA,A,3,24,26,33,35,,,,,,,,,2.33,1.38,1.88,4*09
$GLGSV,3,1,10,68,17,251,43,69,26,304,47,70,05,359,,77,44,093,33,1*7A
$GLGSV,3,2,10,78,67,330,48,79,18,297,47,81,00,182,,86,13,022,,1*7C
$GLGSV,3,3,10,87,57,083,47,88,40,152,45,1*7F
$GLGSV,3,1,10,68,17,251,43,69,26,304,42,70,05,359,,77,44,093,26,3*79
$GLGSV,3,2,10,78,67,330,45,79,18,297,42,81,00,182,,86,13,022,,3*76
$GLGSV,3,3,10,87,57,083,,88,40,152,37,3*7B
$GBGSV,2,1,05,24,62,294,48,25,07,296,48,26,65,117,47,33,10,268,46,1*7C
$GBGSV,2,2,05,35,56,093,43,1*4B
$GBGSV,2,1,06,12,,,44,24,62,294,,25,07,296,,26,65,117,,3*42
$GBGSV,2,2,06,33,10,268,,35,56,093,,3*70
$GNGLL,5025.4438475,N,01411.3801942,E,205248.00,A,A*71
$GNRMC,205249.00,A,5025.4437722,N,01411.3803349,E,0.014,,241021,,,A,V*1F
$GNVTG,,T,,M,0.014,N,0.026,K,A*3C
$GNGGA,205249.00,5025.4437722,N,01411.3803349,E,1,11,1.38,226.031,M,44.078,M,,*49
$GNGSA,A,3,87,88,69,79,77,78,68,,,,,,2.33,1.38,1.88,2*04
$GNGSA,A,3,24,26,33,35,,,,,,,,,2.33,1.38,1.88,4*09
$GLGSV,3,1,10,68,17,251,43,69,26,304,47,70,05,359,,77,44,093,33,1*7A
$GLGSV,3,2,10,78,67,330,48,79,18,297,47,81,00,182,,86,13,022,,1*7C
$GLGSV,3,3,10,87,57,083,47,88,40,152,45,1*7F
$GLGSV,3,1,10,68,17,251,43,69,26,304,42,70,05,359,,77,44,093,26,3*79
$GLGSV,3,2,10,78,67,330,45,79,18,297,43,81,00,182,,86,13,022,,3*77
$GLGSV,3,3,10,87,57,083,,88,40,152,38,3*74
$GBGSV,2,1,05,24,62,294,48,25,07,296,48,26,65,117,47,33,10,268,46,1*7C
$GBGSV,2,2,05,35,56,093,43,1*4B
$GBGSV,2,1,06,12,,,44,24,62,294,,25,07,296,,26,65,117,,3*42
$GBGSV,2,2,06,33,10,268,,35,56,093,,3*70
$GNGLL,5025.4437722,N,01411.3803349,E,205249.00,A,A*7D
$GNRMC,205250.00,A,5025.4437476,N,01411.3804527,E,0.021,,241021,,,A,V*1A
$GNVTG,,T,,M,0.021,N,0.040,K,A*3A
$GNGGA,205250.00,5025.4437476,N,01411.3804527,E,1,11,1.38,225.845,M,44.078,M,,*42
$GNGSA,A,3,87,88,69,79,77,78,68,,,,,,2.33,1.38,1.88,2*04
$GNGSA,A,3,24,26,33,35,,,,,,,,,2.33,1.38,1.88,4*09
$GLGSV,3,1,10,68,17,251,43,69,26,304,47,70,05,359,,77,44,093,32,1*7B
$GLGSV,3,2,10,78,67,330,48,79,18,297,47,81,00,182,,86,13,022,,1*7C
$GLGSV,3,3,10,87,57,083,47,88,40,152,46,1*7C
$GLGSV,3,1,10,68,17,251,43,69,26,304,42,70,05,359,,77,44,093,26,3*79
$GLGSV,3,2,10,78,67,330,45,79,18,297,43,81,00,182,,86,13,022,,3*77
$GLGSV,3,3,10,87,57,083,,88,40,152,39,3*75
$GBGSV,2,1,05,24,62,294,48,25,07,296,48,26,65,117,47,33,10,268,46,1*7C
$GBGSV,2,2,05,35,56,093,43,1*4B
$GBGSV,2,1,06,12,,,45,24,62,294,,25,07,296,,26,65,117,,3*43
$GBGSV,2,2,06,33,10,268,,35,56,093,,3*70
$GNGLL,5025.4437476,N,01411.3804527,E,205250.00,A,A*7E
$GNRMC,205251.00,A,5025.4437611,N,01411.3805375,E,0.026,,241021,,,A,V*1F
$GNVTG,,T,,M,0.026,N,0.048,K,A*35
$GNGGA,205251.00,5025.4437611,N,01411.3805375,E,1,11,1.38,225.700,M,44.078,M,,*4E
$GNGSA,A,3,87,88,69,79,77,78,68,,,,,,2.33,1.38,1.88,2*04
$GNGSA,A,3,24,26,33,35,,,,,,,,,2.33,1.38,1.88,4*09
$GLGSV,3,1,10,68,17,251,43,69,26,304,47,70,05,359,,77,44,093,32,1*7B
$GLGSV,3,2,10,78,67,330,48,79,18,297,47,81,00,182,,86,13,022,,1*7C
$GLGSV,3,3,10,87,57,083,47,88,40,152,47,1*7D
$GLGSV,3,1,10,68,17,251,42,69,26,304,42,70,05,359,,77,44,093,27,3*79
$GLGSV,3,2,10,78,67,330,45,79,18,297,43,81,00,182,,86,13,022,,3*77
$GLGSV,3,3,10,87,57,083,,88,40,152,39,3*75
$GBGSV,2,1,05,24,62,294,48,25,07,296,48,26,65,117,47,33,10,268,46,1*7C
$GBGSV,2,2,05,35,56,093,43,1*4B
$GBGSV,2,1,06,12,,,45,24,62,294,,25,07,296,,26,65,117,,3*43
$GBGSV,2,2,06,33,10,268,,35,56,093,,3*70
$GNGLL,5025.4437611,N,01411.3805375,E,205251.00,A,A*7C
$GNRMC,205252.00,A,5025.4438019,N,01411.3806122,E,0.016,,241021,,,A,V*1D
$GNVTG,,T,,M,0.016,N,0.029,K,A*31
$GNGGA,205252.00,5025.4438019,N,01411.3806122,E,1,11,1.38,225.595,M,44.078,M,,*41
$GNGSA,A,3,87,88,69,79,77,78,68,,,,,,2.33,1.38,1.88,2*04
$GNGSA,A,3,24,26,33,35,,,,,,,,,2.33,1.38,1.88,4*09
$GLGSV,3,1,10,68,17,251,43,69,26,304,47,70,05,359,,77,44,093,32,1*7B
$GLGSV,3,2,10,78,67,330,49,79,18,297,47,81,00,182,,86,13,022,,1*7D
$GLGSV,3,3,10,87,57,083,47,88,40,152,47,1*7D
$GLGSV,3,1,10,68,17,251,42,69,26,304,43,70,05,359,,77,44,093,26,3*79
$GLGSV,3,2,10,78,67,330,45,79,18,297,43,81,00,182,,86,13,022,,3*77
$GLGSV,3,3,10,87,57,083,,88,40,152,39,3*75
$GBGSV,2,1,05,24,62,294,48,25,07,296,48,26,65,117,46,33,10,268,46,1*7D
$GBGSV,2,2,05,35,56,093,43,1*4B
$GBGSV,2,1,06,12,,,45,24,62,294,,25,07,296,,26,65,117,,3*43
$GBGSV,2,2,06,33,10,268,,35,56,093,,3*70
$GNGLL,5025.4438019,N,01411.3806122,E,205252.00,A,A*7D
$GNRMC,205253.00,A,5025.4438569,N,01411.3806681,E,0.009,,241021,,,A,V*1E
$GNVTG,,T,,M,0.009,N,0.017,K,A*32
$GNGGA,205253.00,5025.4438569,N,01411.3806681,E,1,11,1.38,225.501,M,44.078,M,,*41
$GNGSA,A,3,87,88,69,79,77,78,68,,,,,,2.33,1.38,1.88,2*04
$GNGSA,A,3,24,26,33,35,,,,,,,,,2.33,1.38,1.88,4*09
$GLGSV,3,1,10,68,17,251,43,69,26,304,48,70,05,359,,77,44,093,32,1*74
$GLGSV,3,2,10,78,67,330,49,79,18,297,48,81,00,182,,86,13,022,,1*72
$GLGSV,3,3,10,87,57,083,47,88,40,152,47,1*7D
$GLGSV,3,1,10,68,17,251,43,69,26,304,43,70,05,359,,77,44,093,26,3*78
$GLGSV,3,2,10,78,67,330,45,79,18,297,43,81,00,182,,86,13,022,,3*77
$GLGSV,3,3,10,87,57,083,,88,40,152,39,3*75
$GBGSV,2,1,05,24,62,294,48,25,07,296,48,26,65,117,46,33,10,268,46,1*7D
$GBGSV,2,2,05,35,56,093,43,1*4B
$GBGSV,2,1,06,12,,,45,24,62,294,,25,07,296,,26,65,117,,3*43
$GBGSV,2,2,06,33,10,268,,35,56,093,,3*70
$GNGLL,5025.4438569,N,01411.3806681,E,205253.00,A,A*70
$GNRMC,205254.00,A,5025.4439299,N,01411.3807367,E,0.007,,241021,,,A,V*12
$GNVTG,,T,,M,0.007,N,0.012,K,A*39
$GNGGA,205254.00,5025.4439299,N,01411.3807367,E,1,11,1.38,225.394,M,44.078,M,,*49
$GNGSA,A,3,87,88,69,79,77,78,68,,,,,,2.33,1.38,1.87,2*0B
$GNGSA,A,3,24,26,33,35,,,,,,,,,2.33,1.38,1.87,4*06
$GLGSV,3,1,10,68,17,251,43,69,26,304,48,70,05,359,,77,44,093,31,1*77
$GLGSV,3,2,10,78,67,330,49,79,18,297,48,81,00,182,,86,13,022,,1*72
$GLGSV,3,3,10,87,57,083,48,88,40,152,48,1*7D
$GLGSV,3,1,10,68,17,251,43,69,26,304,43,70,05,359,,77,44,093,26,3*78
$GLGSV,3,2,10,78,67,330,45,79,18,297,43,81,00,182,,86,13,022,,3*77
$GLGSV,3,3,10,87,57,083,,88,40,152,40,3*7B
$GBGSV,2,1,05,24,62,294,48,25,07,296,48,26,65,117,47,33,10,268,46,1*7C
$GBGSV,2,2,05,35,56,093,43,1*4B
$GBGSV,2,1,06,12,,,45,24,62,294,,25,07,296,,26,65,117,,3*43
$GBGSV,2,2,06,33,10,268,,35,56,093,,3*70
$GNGLL,5025.4439299,N,01411.3807367,E,205254.00,A,A*72
$GNRMC,205255.00,A,5025.4440104,N,01411.3807963,E,0.021,,241021,,,A,V*10
$GNVTG,,T,,M,0.021,N,0.038,K,A*35
$GNGGA,205255.00,5025.4440104,N,01411.3807963,E,1,11,1.38,225.279,M,44.078,M,,*4D
$GNGSA,A,3,87,88,69,79,77,78,68,,,,,,2.33,1.38,1.87,2*0B
$GNGSA,A,3,24,26,33,35,,,,,,,,,2.33,1.38,1.87,4*06
$GLGSV,3,1,10,68,17,251,43,69,26,304,48,70,05,359,,77,44,093,31,1*77
$GLGSV,3,2,10,78,67,330,49,79,18,297,48,81,00,182,,86,13,022,,1*72
$GLGSV,3,3,10,87,57,083,48,88,40,152,48,1*7D
$GLGSV,3,1,10,68,17,251,43,69,26,304,43,70,05,359,,77,44,093,26,3*78
$GLGSV,3,2,10,78,67,330,45,79,18,297,43,81,00,182,,86,13,022,,3*77
$GLGSV,3,3,10,87,57,083,,88,40,152,40,3*7B
$GBGSV,2,1,05,24,62,294,48,25,07,296,48,26,65,117,47,33,10,268,46,1*7C
$GBGSV,2,2,05,35,56,093,43,1*4B
$GBGSV,2,1,06,12,,,45,24,62,294,,25,07,296,,26,65,117,,3*43
$GBGSV,2,2,06,33,10,268,,35,56,093,,3*70
$GNGLL,5025.4440104,N,01411.3807963,E,205255.00,A,A*74
$GNRMC,205256.00,A,5025.4440982,N,01411.3808526,E,0.035,,241021,,,A,V*12
$GNVTG,,T,,M,0.035,N,0.064,K,A*39
$GNGGA,205256.00,5025.4440982,N,01411.3808526,E,1,11,1.38,225.180,M,44.078,M,,*4F
$GNGSA,A,3,87,88,69,79,77,78,68,,,,,,2.33,1.38,1.87,2*0B
$GNGSA,A,3,24,26,33,35,,,,,,,,,2.33,1.38,1.87,4*06
$GLGSV,3,1,10,68,17,251,43,69,26,304,48,70,05,359,,77,44,093,31,1*77
$GLGSV,3,2,10,78,67,330,49,79,18,297,48,81,00,182,,86,13,022,22,1*72
$GLGSV,3,3,10,87,57,083,48,88,40,152,49,1*7C
$GLGSV,3,1,10,68,17,251,43,69,26,304,42,70,05,359,,77,44,093,25,3*7A
$GLGSV,3,2,10,78,67,330,45,79,18,297,43,81,00,182,,86,13,022,,3*77
$GLGSV,3,3,10,87,57,083,,88,40,152,40,3*7B
$GBGSV,2,1,05,24,62,294,48,25,07,296,48,26,65,117,47,33,10,268,46,1*7C
$GBGSV,2,2,05,35,56,093,43,1*4B
$GBGSV,2,1,06,12,,,45,24,62,294,,25,07,296,,26,65,117,,3*43
$GBGSV,2,2,06,33,10,268,,35,56,093,,3*70
$GNGLL,5025.4440982,N,01411.3808526,E,205256.00,A,A*73
$GNRMC,205257.00,A,5025.4441881,N,01411.3808880,E,0.017,,241021,,,A,V*11
$GNVTG,,T,,M,0.017,N,0.032,K,A*3A
$GNGGA,205257.00,5025.4441881,N,01411.3808880,E,1,11,1.38,225.105,M,44.078,M,,*41
$GNGSA,A,3,87,88,69,79,77,78,68,,,,,,2.33,1.38,1.87,2*0B
$GNGSA,A,3,24,26,33,35,,,,,,,,,2.33,1.38,1.87,4*06
$GLGSV,3,1,10,68,17,251,43,69,26,304,48,70,05,359,,77,44,093,31,1*77
$GLGSV,3,2,10,78,67,330,49,79,18,297,49,81,00,182,,86,13,022,22,1*73
$GLGSV,3,3,10,87,57,083,48,88,40,152,49,1*7C
$GLGSV,3,1,10,68,17,251,43,69,26,304,42,70,05,359,,77,44,093,25,3*7A
$GLGSV,3,2,10,78,67,330,45,79,18,297,43,81,00,182,,86,13,022,,3*77
$GLGSV,3,3,10,87,57,083,,88,40,152,41,3*7A
$GBGSV,2,1,05,24,62,294,48,25,07,296,48,26,65,117,47,33,10,268,46,1*7C
$GBGSV,2,2,05,35,56,093,43,1*4B
$GBGSV,2,1,06,12,,,45,24,62,294,,25,07,296,,26,65,117,,3*43
$GBGSV,2,2,06,33,10,268,,35,56,093,,3*70
$GNGLL,5025.4441881,N,01411.3808880,E,205257.00,A,A*70
$GNRMC,205258.00,A,5025.4442766,N,01411.3809134,E,0.019,,241021,,,A,V*12
$GNVTG,,T,,M,0.019,N,0.035,K,A*33
$GNGGA,205258.00,5025.4442766,N,01411.3809134,E,1,11,1.38,225.061,M,44.078,M,,*4F
$GNGSA,A,3,87,88,69,79,77,78,68,,,,,,2.33,1.38,1.87,2*0B
$GNGSA,A,3,24,26,33,35,,,,,,,,,2.33,1.38,1.87,4*06
$GLGSV,3,1,10,68,17,251,42,69,26,304,48,70,05,359,21,77,44,093,30,1*74
$GLGSV,3,2,10,78,67,330,49,79,18,297,49,81,00,182,,86,13,022,23,1*72
$GLGSV,3,3,10,87,57,083,48,88,40,152,50,1*74
$GLGSV,3,1,10,68,17,251,43,69,26,304,42,70,05,359,,77,44,093,25,3*7A
$GLGSV,3,2,10,78,67,330,45,79,18,297,43,81,00,182,,86,13,022,,3*77
$GLGSV,3,3,10,87,57,083,,88,40,152,41,3*7A
$GBGSV,2,1,05,24,62,294,48,25,07,296,48,26,65,117,47,33,10,268,46,1*7C
$GBGSV,2,2,05,35,56,093,43,1*4B
$GBGSV,2,1,06,12,,,45,24,62,294,,25,07,296,,26,65,117,,3*43
$GBGSV,2,2,06,33,10,268,,35,56,093,,3*70
$GNGLL,5025.4442766,N,01411.3809134,E,205258.00,A,A*7D
$GNRMC,205259.00,A,5025.4443668,N,01411.3809431,E,0.012,,241021,,,A,V*16
$GNVTG,,T,,M,0.012,N,0.022,K,A*3E
$GNGGA,205259.00,5025.4443668,N,01411.3809431,E,1,11,1.38,225.004,M,44.078,M,,*43
$GNGSA,A,3,87,88,69,79,77,78,68,,,,,,2.33,1.38,1.87,2*0B
$GNGSA,A,3,24,26,33,35,,,,,,,,,2.33,1.38,1.87,4*06
$GLGSV,3,1,10,68,17,251,42,69,26,304,48,70,05,359,21,77,44,093,30,1*74
$GLGSV,3,2,10,78,67,330,49,79,18,297,49,81,00,182,,86,13,022,24,1*75
$GLGSV,3,3,10,87,57,083,48,88,40,152,50,1*74
$GLGSV,3,1,10,68,17,251,43,69,26,304,42,70,05,359,,77,44,093,25,3*7A
$GLGSV,3,2,10,78,67,330,45,79,18,297,43,81,00,182,,86,13,022,,3*77
$GLGSV,3,3,10,87,57,083,,88,40,152,41,3*7A
$GBGSV,2,1,05,24,62,294,48,25,07,296,47,26,65,117,47,33,10,268,47,1*72
$GBGSV,2,2,05,35,56,093,43,1*4B
$GBGSV,2,1,06,12,,,45,24,62,294,,25,07,296,,26,65,117,,3*43
$GBGSV,2,2,06,33,10,268,,35,56,093,,3*70
$GNGLL,5025.4443668,N,01411.3809431,E,205259.00,A,A*72
$GNRMC,205300.00,A,5025.4444480,N,01411.3809701,E,0.013,,241021,,,A,V*19
$GNVTG,,T,,M,0.013,N,0.023,K,A*3E
$GNGGA,205300.00,5025.4444480,N,01411.3809701,E,1,11,1.38,224.950,M,44.078,M,,*44
$GNGSA,A,3,87,88,69,79,77,78,68,,,,,,2.33,1.38,1.87,2*0B
$GNGSA,A,3,24,26,33,35,,,,,,,,,2.33,1.38,1.87,4*06
$GLGSV,3,1,10,68,17,251,42,69,26,304,48,70,05,359,21,77,44,093,30,1*74
$GLGSV,3,2,10,78,67,330,49,79,18,297,49,81,00,182,,86,13,022,25,1*74
$GLGSV,3,3,10,87,57,083,48,88,40,152,50,1*74
$GLGSV,3,1,10,68,17,251,43,69,26,304,42,70,05,359,,77,44,093,24,3*7B
$GLGSV,3,2,10,78,67,330,45,79,18,297,44,81,00,182,,86,13,022,,3*70
$GLGSV,3,3,10,87,57,083,,88,40,152,41,3*7A
$GBGSV,2,1,05,24,62,294,48,25,07,296,47,26,65,117,47,33,10,268,47,1*72
$GBGSV,2,2,05,35,56,093,43,1*4B
$GBGSV,2,1,06,12,,,45,24,62,294,,25,07,296,,26,65,117,,3*43
$GBGSV,2,2,06,33,10,268,,35,56,093,,3*70
$GNGLL,5025.4444480,N,01411.3809701,E,205300.00,A,A*7C
$GNRMC,205301.00,A,5025.4445296,N,01411.3809974,E,0.027,,241021,,,A,V*13
$GNVTG,,T,,M,0.027,N,0.049,K,A*35
$GNGGA,205301.00,5025.4445296,N,01411.3809974,E,1,11,1.38,224.892,M,44.078,M,,*46
$GNGSA,A,3,87,88,69,79,77,78,68,,,,,,2.32,1.38,1.87,2*0A
$GNGSA,A,3,24,26,33,35,,,,,,,,,2.32,1.38,1.87,4*07
$GLGSV,3,1,10,68,17,251,42,69,26,304,48,70,05,359,21,77,44,093,30,1*74
$GLGSV,3,2,10,78,67,330,49,79,18,297,49,81,00,182,,86,13,022,24,1*75
$GLGSV,3,3,10,87,57,083,49,88,40,152,50,1*75
$GLGSV,3,1,10,68,17,251,43,69,26,304,42,70,05,359,,77,44,093,24,3*7B
$GLGSV,3,2,10,78,67,330,45,79,18,297,44,81,00,182,,86,13,022,,3*70
$GLGSV,3,3,10,87,57,083,,88,40,152,41,3*7A
$GBGSV,2,1,05,24,62,294,48,25,07,296,47,26,65,117,47,33,10,268,47,1*72
$GBGSV,2,2,05,35,56,093,43,1*4B
$GBGSV,2,1,06,12,,,45,24,62,294,,25,07,296,,26,65,117,,3*43
$GBGSV,2,2,06,33,10,268,,35,56,093,,3*70
$GNGLL,5025.4445296,N,01411.3809974,E,205301.00,A,A*71
$GNRMC,205302.00,A,5025.4446042,N,01411.3810174,E,0.017,,241021,,,A,V*1B
$GNVTG,,T,,M,0.017,N,0.031,K,A*39
$GNGGA,205302.00,5025.4446042,N,01411.3810174,E,1,11,1.38,224.866,M,44.078,M,,*46
$GNGSA,A,3,87,88,69,79,77,78,68,,,,,,2.32,1.38,1.87,2*0A
$GNGSA,A,3,24,26,33,35,,,,,,,,,2.32,1.38,1.87,4*07
$GLGSV,3,1,10,68,17,251,42,69,26,304,48,70,05,359,20,77,44,093,30,1*75
$GLGSV,3,2,10,78,67,330,49,79,18,297,49,81,00,182,,86,13,022,25,1*74
$GLGSV,3,3,10,87,57,083,49,88,40,152,51,1*74
$GLGSV,3,1,10,68,17,251,43,69,26,304,42,70,05,359,,77,44,093,24,3*7B
$GLGSV,3,2,10,78,67,330,45,79,18,297,44,81,00,182,,86,13,022,,3*70
$GLGSV,3,3,10,87,57,083,,88,40,152,41,3*7A
$GBGSV,2,1,05,24,62,294,48,25,07,296,47,26,65,117,47,33,10,268,47,1*72
$GBGSV,2,2,05,35,56,093,43,1*4B
$GBGSV,2,1,06,12,,,45,24,62,294,,25,07,296,,26,65,117,,3*43
$GBGSV,2,2,06,33,10,268,,35,56,093,,3*70
$GNGLL,5025.4446042,N,01411.3810174,E,205302.00,A,A*7A
$GNRMC,205303.00,A,5025.4446767,N,01411.3810322,E,0.016,,241021,,,A,V*1A
$GNVTG,,T,,M,0.016,N,0.030,K,A*39
$GNGGA,205303.00,5025.4446767,N,01411.3810322,E,1,11,1.38,224.846,M,44.078,M,,*44
$GNGSA,A,3,87,88,69,79,77,78,68,,,,,,2.32,1.38,1.87,2*0A
$GNGSA,A,3,24,26,33,35,,,,,,,,,2.32,1.38,1.87,4*07
$GLGSV,3,1,10,68,17,251,42,69,26,304,48,70,05,359,20,77,44,093,30,1*75
$GLGSV,3,2,10,78,67,330,49,79,18,297,49,81,00,182,,86,13,022,25,1*74
$GLGSV,3,3,10,87,57,083,49,88,40,152,51,1*74
$GLGSV,3,1,10,68,17,251,43,69,26,304,42,70,05,359,,77,44,093,24,3*7B
$GLGSV,3,2,10,78,67,330,45,79,18,297,44,81,00,182,,86,13,022,,3*70
$GLGSV,3,3,10,87,57,083,,88,40,152,41,3*7A
$GBGSV,2,1,05,24,62,294,48,25,07,296,47,26,65,117,47,33,10,268,47,1*72
$GBGSV,2,2,05,35,56,093,43,1*4B
$GBGSV,2,1,06,12,,,45,24,62,294,,25,07,296,,26,65,117,,3*43
$GBGSV,2,2,06,33,10,268,,35,56,093,,3*70
$GNGLL,5025.4446767,N,01411.3810322,E,205303.00,A,A*7A
$GNRMC,205304.00,A,5025.4447420,N,01411.3810352,E,0.008,,241021,,,A,V*14
$GNVTG,,T,,M,0.008,N,0.015,K,A*31
$GNGGA,205304.00,5025.4447420,N,01411.3810352,E,1,11,1.38,224.850,M,44.078,M,,*42
$GNGSA,A,3,87,88,69,79,77,78,68,,,,,,2.32,1.38,1.87,2*0A
$GNGSA,A,3,24,26,33,35,,,,,,,,,2.32,1.38,1.87,4*07
$GLGSV,3,1,10,68,17,251,42,69,26,304,48,70,05,359,20,77,44,093,30,1*75
$GLGSV,3,2,10,78,67,330,49,79,18,297,49,81,00,182,,86,13,022,25,1*74
$GLGSV,3,3,10,87,57,083,49,88,40,152,51,1*74
$GLGSV,3,1,10,68,17,251,43,69,26,304,42,70,05,359,,77,44,093,24,3*7B
$GLGSV,3,2,10,78,67,330,45,79,18,297,44,81,00,182,,86,13,022,,3*70
$GLGSV,3,3,10,87,57,083,,88,40,152,42,3*79
$GBGSV,2,1,05,24,62,294,48,25,07,296,47,26,65,117,47,33,10,268,47,1*72
$GBGSV,2,2,05,35,56,093,43,1*4B
$GBGSV,2,1,06,12,,,45,24,62,294,,25,07,296,,26,65,117,,3*43
$GBGSV,2,2,06,33,10,268,,35,56,093,,3*70
$GNGLL,5025.4447420,N,01411.3810352,E,205304.00,A,A*7B
$GNRMC,205305.00,A,5025.4448057,N,01411.3810437,E,0.008,,241021,,,A,V*1A
$GNVTG,,T,,M,0.008,N,0.015,K,A*31
$GNGGA,205305.00,5025.4448057,N,01411.3810437,E,1,11,1.38,224.838,M,44.078,M,,*42
$GNGSA,A,3,87,88,69,79,77,78,68,,,,,,2.32,1.38,1.87,2*0A
$GNGSA,A,3,24,26,33,35,,,,,,,,,2.32,1.38,1.87,4*07
$GLGSV,3,1,10,68,17,251,42,69,26,304,48,70,05,359,21,77,44,093,30,1*74
$GLGSV,3,2,10,78,67,330,49,79,18,297,49,81,00,182,,86,13,022,25,1*74
$GLGSV,3,3,10,87,57,083,49,88,40,152,51,1*74
$GLGSV,3,1,10,68,17,251,43,69,26,304,42,70,05,359,,77,44,093,24,3*7B
$GLGSV,3,2,10,78,67,330,45,79,18,297,44,81,00,182,,86,13,022,,3*70
$GLGSV,3,3,10,87,57,083,,88,40,152,42,3*79
$GBGSV,2,1,05,24,62,294,48,25,07,296,47,26,65,117,47,33,10,268,47,1*72
$GBGSV,2,2,05,35,56,093,43,1*4B
$GBGSV,2,1,06,12,,,45,24,62,294,,25,07,296,,26,65,117,,3*43
$GBGSV,2,2,06,33,10,268,,35,56,093,,3*70
$GNGLL,5025.4448057,N,01411.3810437,E,205305.00,A,A*75
$GNRMC,205306.00,A,5025.4448688,N,01411.3810515,E,0.008,,241021,,,A,V*1C
$GNVTG,,T,,M,0.008,N,0.014,K,A*30
$GNGGA,205306.00,5025.4448688,N,01411.3810515,E,1,11,1.38,224.818,M,44.078,M,,*46
$GNGSA,A,3,87,88,69,79,77,78,68,,,,,,2.32,1.38,1.87,2*0A
$GNGSA,A,3,24,26,33,35,,,,,,,,,2.32,1.38,1.87,4*07
$GLGSV,3,1,10,68,17,251,42,69,26,304,47,70,05,359,21,77,44,093,30,1*7B
$GLGSV,3,2,10,78,67,330,49,79,18,297,49,81,00,182,,86,13,022,25,1*74
$GLGSV,3,3,10,87,57,083,49,88,40,152,51,1*74
$GLGSV,3,1,10,68,17,251,43,69,26,304,42,70,05,359,,77,44,093,25,3*7A
$GLGSV,3,2,10,78,67,330,45,79,18,297,44,81,00,182,,86,13,022,,3*70
$GLGSV,3,3,10,87,57,083,,88,40,152,42,3*79
$GBGSV,2,1,05,24,62,294,48,25,07,296,47,26,65,117,47,33,10,268,47,1*72
$GBGSV,2,2,05,35,56,093,43,1*4B
$GBGSV,2,1,06,12,,,45,24,62,294,,25,07,296,,26,65,117,,3*43
$GBGSV,2,2,06,33,10,268,,35,56,093,,3*70
$GNGLL,5025.4448688,N,01411.3810515,E,205306.00,A,A*73
$GNRMC,205307.00,A,5025.4449321,N,01411.3810582,E,0.016,,241021,,,A,V*1B
$GNVTG,,T,,M,0.016,N,0.030,K,A*39
$GNGGA,205307.00,5025.4449321,N,01411.3810582,E,1,11,1.38,224.790,M,44.078,M,,*41
$GNGSA,A,3,87,88,69,79,77,78,68,,,,,,2.32,1.38,1.87,2*0A
$GNGSA,A,3,24,26,33,35,,,,,,,,,2.32,1.38,1.87,4*07
$GLGSV,3,1,10,68,17,251,42,69,26,304,47,70,05,359,21,77,44,093,31,1*7A
$GLGSV,3,2,10,78,67,331,49,79,18,297,49,81,00,182,,86,13,022,25,1*75
$GLGSV,3,3,10,87,57,083,49,88,40,152,51,1*74
$GLGSV,3,1,10,68,17,251,43,69,26,304,42,70,05,359,,77,44,093,25,3*7A
$GLGSV,3,2,10,78,67,331,45,79,18,297,44,81,00,182,,86,13,022,,3*71
$GLGSV,3,3,10,87,57,083,,88,40,152,42,3*79
$GBGSV,2,1,05,24,62,294,48,25,07,296,47,26,65,117,47,33,10,268,47,1*72
$GBGSV,2,2,05,35,56,093,43,1*4B
$GBGSV,2,1,06,12,,,45,24,62,294,,25,07,296,,26,65,117,,3*43
$GBGSV,2,2,06,33,10,268,,35,56,093,,3*70
$GNGLL,5025.4449321,N,01411.3810582,E,205307.00,A,A*7B
$GNRMC,205308.00,A,5025.4449966,N,01411.3810648,E,0.020,,241021,,,A,V*1D
$GNVTG,,T,,M,0.020,N,0.038,K,A*34
$GNGGA,205308.00,5025.4449966,N,01411.3810648,E,1,11,1.38,224.758,M,44.078,M,,*46
$GNGSA,A,3,87,88,69,79,77,78,68,,,,,,2.32,1.38,1.87,2*0A
$GNGSA,A,3,24,26,33,35,,,,,,,,,2.32,1.38,1.87,4*07
$GLGSV,3,1,10,68,17,251,42,69,26,304,47,70,05,359,21,77,44,093,31,1*7A
$GLGSV,3,2,10,78,67,331,49,79,18,297,49,81,00,182,,86,13,022,25,1*75
$GLGSV,3,3,10,87,57,083,49,88,40,152,51,1*74
$GLGSV,3,1,10,68,17,251,43,69,26,304,42,70,05,359,,77,44,093,24,3*7B
$GLGSV,3,2,10,78,67,331,44,79,18,297,43,81,00,182,,86,13,022,,3*77
$GLGSV,3,3,10,87,57,083,,88,40,152,42,3*79
$GBGSV,2,1,05,24,62,294,48,25,07,296,47,26,65,117,47,33,10,268,47,1*72
$GBGSV,2,2,05,35,56,093,43,1*4B
$GBGSV,2,1,06,12,,,45,24,62,294,,25,07,296,,26,65,117,,3*43
$GBGSV,2,2,06,33,10,268,,35,56,093,,3*70
$GNGLL,5025.4449966,N,01411.3810648,E,205308.00,A,A*78
$GNRMC,205309.00,A,5025.4450598,N,01411.3810698,E,0.032,,241021,,,A,V*17
$GNVTG,,T,,M,0.032,N,0.059,K,A*30
$GNGGA,205309.00,5025.4450598,N,01411.3810698,E,1,11,1.38,224.724,M,44.078,M,,*44
$GNGSA,A,3,87,88,69,79,77,78,68,,,,,,2.32,1.38,1.87,2*0A
$GNGSA,A,3,24,26,33,35,,,,,,,,,2.32,1.38,1.87,4*07
$GLGSV,3,1,10,68,17,251,42,69,26,304,47,70,05,359,21,77,44,093,31,1*7A
$GLGSV,3,2,10,78,67,331,49,79,18,297,49,81,00,182,,86,13,022,25,1*75
$GLGSV,3,3,10,87,57,083,49,88,40,152,51,1*74
$GLGSV,3,1,10,68,17,251,43,69,26,304,42,70,05,359,,77,44,093,24,3*7B
$GLGSV,3,2,10,78,67,331,44,79,18,297,43,81,00,182,,86,13,022,,3*77
$GLGSV,3,3,10,87,57,083,,88,40,152,42,3*79
$GBGSV,2,1,05,24,62,294,48,25,07,296,47,26,65,117,47,33,10,268,46,1*73
$GBGSV,2,2,05,35,56,093,43,1*4B
$GBGSV,2,1,06,12,,,45,24,62,294,,25,07,296,,26,65,117,,3*43
$GBGSV,2,2,06,33,10,268,,35,56,093,,3*70
$GNGLL,5025.4450598,N,01411.3810698,E,205309.00,A,A*71
$GNRMC,205310.00,A,5025.4451213,N,01411.3810755,E,0.034,,241021,,,A,V*1C
$GNVTG,,T,,M,0.034,N,0.063,K,A*3F
$GNGGA,205310.00,5025.4451213,N,01411.3810755,E,1,11,1.38,224.695,M,44.078,M,,*42
$GNGSA,A,3,87,88,69,79,77,78,68,,,,,,2.32,1.38,1.87,2*0A
$GNGSA,A,3,24,26,33,35,,,,,,,,,2.32,1.38,1.87,4*07
$GLGSV,3,1,10,68,17,251,42,69,26,304,47,70,05,359,21,77,44,093,31,1*7A
$GLGSV,3,2,10,78,67,331,49,79,18,297,49,81,00,182,,86,13,022,25,1*75
$GLGSV,3,3,10,87,57,083,49,88,40,152,52,1*77
$GLGSV,3,1,10,68,17,251,43,69,26,304,42,70,05,359,,77,44,093,24,3*7B
$GLGSV,3,2,10,78,67,331,44,79,18,297,43,81,00,182,,86,13,022,,3*77
$GLGSV,3,3,10,87,57,083,,88,40,152,42,3*79
$GBGSV,2,1,05,24,62,294,48,25,07,296,47,26,65,117,47,33,10,268,47,1*72
$GBGSV,2,2,05,35,56,093,43,1*4B
$GBGSV,2,1,06,12,,,45,24,62,294,,25,07,296,,26,65,117,,3*43
$GBGSV,2,2,06,33,10,268,,35,56,093,,3*70
$GNGLL,5025.4451213,N,01411.3810755,E,205310.00,A,A*7C
$GNRMC,205311.00,A,5025.4451749,N,01411.3810812,E,0.002,,241021,,,A,V*1E
$GNVTG,,T,,M,0.002,N,0.004,K,A*3B
$GNGGA,205311.00,5025.4451749,N,01411.3810812,E,1,11,1.38,224.675,M,44.078,M,,*4B
$GNGSA,A,3,87,88,69,79,77,78,68,,,,,,2.32,1.38,1.87,2*0A
$GNGSA,A,3,24,26,33,35,,,,,,,,,2.32,1.38,1.87,4*07
$GLGSV,3,1,10,68,17,251,42,69,26,304,47,70,05,359,21,77,44,093,32,1*79
$GLGSV,3,2,10,78,67,331,49,79,18,297,49,81,00,182,,86,13,022,25,1*75
$GLGSV,3,3,10,87,57,083,49,88,40,152,52,1*77
$GLGSV,3,1,10,68,17,251,43,69,26,304,42,70,05,359,,77,44,093,24,3*7B
$GLGSV,3,2,10,78,67,331,44,79,18,297,43,81,00,182,,86,13,022,,3*77
$GLGSV,3,3,10,87,57,083,,88,40,152,42,3*79
$GBGSV,2,1,05,24,62,294,48,25,07,296,47,26,65,117,47,33,10,268,47,1*72
$GBGSV,2,2,05,35,56,093,43,1*4B
$GBGSV,2,1,06,12,,,45,24,62,294,,25,07,296,,26,65,117,,3*43
$GBGSV,2,2,06,33,10,268,,35,56,093,,3*70
$GNGLL,5025.4451749,N,01411.3810812,E,205311.00,A,A*7B
$GNRMC,205312.00,A,5025.4451388,N,01411.3810138,E,0.039,,241021,,,D,V*18
$GNVTG,,T,,M,0.039,N,0.072,K,D*37
$GNGGA,205312.00,5025.4451388,N,01411.3810138,E,2,11,1.38,224.664,M,44.078,M,1.0,0084*60
$GNGSA,A,3,87,88,69,79,77,78,68,,,,,,2.32,1.38,1.87,2*0A
$GNGSA,A,3,24,26,33,35,,,,,,,,,2.32,1.38,1.87,4*07
$GLGSV,3,1,10,68,17,251,42,69,26,304,47,70,05,359,21,77,44,093,32,1*79
$GLGSV,3,2,10,78,67,331,49,79,18,297,49,81,00,182,,86,13,022,25,1*75
$GLGSV,3,3,10,87,57,083,48,88,40,152,52,1*76
$GLGSV,3,1,10,68,17,251,43,69,26,304,42,70,05,359,,77,44,093,23,3*7C
$GLGSV,3,2,10,78,67,331,44,79,18,297,43,81,00,182,,86,13,022,,3*77
$GLGSV,3,3,10,87,57,083,,88,40,152,42,3*79
$GBGSV,2,1,05,24,62,294,48,25,07,296,46,26,65,117,47,33,10,268,46,1*72
$GBGSV,2,2,05,35,56,093,43,1*4B
$GBGSV,2,1,06,12,,,45,24,62,294,,25,07,296,,26,65,117,,3*43
$GBGSV,2,2,06,33,10,268,,35,56,093,,3*70
$GNGLL,5025.4451388,N,01411.3810138,E,205312.00,A,D*75
$GNRMC,205313.00,A,5025.4451327,N,01411.3809971,E,0.008,,241021,,,F,V*11
$GNVTG,,T,,M,0.008,N,0.015,K,D*34
$GNGGA,205313.00,5025.4451327,N,01411.3809971,E,5,11,1.38,224.598,M,44.078,M,1.0,0084*6E
$GNGSA,A,3,87,88,69,79,77,78,68,,,,,,2.32,1.38,1.87,2*0A
$GNGSA,A,3,24,26,33,35,,,,,,,,,2.32,1.38,1.87,4*07
$GLGSV,3,1,10,68,17,251,42,69,26,304,47,70,05,359,22,77,44,093,32,1*7A
$GLGSV,3,2,10,78,67,331,49,79,18,297,49,81,00,182,,86,13,022,25,1*75
$GLGSV,3,3,10,87,57,083,48,88,40,152,52,1*76
$GLGSV,3,1,10,68,17,251,43,69,26,304,42,70,05,359,,77,44,093,23,3*7C
$GLGSV,3,2,10,78,67,331,44,79,18,297,43,81,00,182,,86,13,022,,3*77
$GLGSV,3,3,10,87,57,083,,88,40,152,42,3*79
$GBGSV,2,1,05,24,62,294,48,25,07,296,46,26,65,117,47,33,10,268,46,1*72
$GBGSV,2,2,05,35,56,093,43,1*4B
$GBGSV,2,1,06,12,,,45,24,62,294,,25,07,296,,26,65,117,,3*43
$GBGSV,2,2,06,33,10,268,,35,56,093,,3*70
$GNGLL,5025.4451327,N,01411.3809971,E,205313.00,A,D*7C
$GNRMC,205314.00,A,5025.4451266,N,01411.3809627,E,0.010,,241021,,,F,V*17
$GNVTG,,T,,M,0.010,N,0.019,K,D*31
$GNGGA,205314.00,5025.4451266,N,01411.3809627,E,5,11,1.38,224.572,M,44.078,M,1.0,0084*65
$GNGSA,A,3,87,88,69,79,77,78,68,,,,,,2.32,1.38,1.87,2*0A
$GNGSA,A,3,24,26,33,35,,,,,,,,,2.32,1.38,1.87,4*07
$GLGSV,3,1,10,68,17,251,42,69,26,304,47,70,05,359,23,77,44,093,32,1*7B
$GLGSV,3,2,10,78,67,331,49,79,18,297,49,81,00,182,,86,13,022,25,1*75
$GLGSV,3,3,10,87,57,083,48,88,40,152,52,1*76
$GLGSV,3,1,10,68,17,251,43,69,26,304,42,70,05,359,,77,44,093,22,3*7D
$GLGSV,3,2,10,78,67,331,44,79,18,297,43,81,00,182,,86,13,022,,3*77
$GLGSV,3,3,10,87,57,083,,88,40,152,42,3*79
$GBGSV,2,1,05,24,62,294,48,25,07,296,46,26,65,117,47,33,10,268,46,1*72
$GBGSV,2,2,05,35,56,093,43,1*4B
$GBGSV,2,1,06,12,,,45,24,62,294,,25,07,296,,26,65,117,,3*43
$GBGSV,2,2,06,33,10,268,,35,56,093,,3*70
$GNGLL,5025.4451266,N,01411.3809627,E,205314.00,A,D*73
$GNRMC,205315.00,A,5025.4451285,N,01411.3809568,E,0.015,,241021,,,F,V*16
$GNVTG,,T,,M,0.015,N,0.029,K,D*37
$GNGGA,205315.00,5025.4451285,N,01411.3809568,E,5,11,1.38,224.467,M,44.078,M,1.0,0084*64
$GNGSA,A,3,87,88,69,79,77,78,68,,,,,,2.32,1.38,1.87,2*0A
$GNGSA,A,3,24,26,33,35,,,,,,,,,2.32,1.38,1.87,4*07
$GLGSV,3,1,10,68,17,251,43,69,26,304,47,70,05,359,25,77,44,093,32,1*7C
$GLGSV,3,2,10,78,67,331,49,79,18,297,49,81,00,182,,86,12,022,25,1*74
$GLGSV,3,3,10,87,57,083,48,88,40,152,52,1*76
$GLGSV,3,1,10,68,17,251,43,69,26,304,41,70,05,359,,77,44,093,22,3*7E
$GLGSV,3,2,10,78,67,331,44,79,18,297,43,81,00,182,,86,12,022,,3*76
$GLGSV,3,3,10,87,57,083,,88,40,152,42,3*79
$GBGSV,2,1,05,24,62,294,48,25,07,296,46,26,65,117,47,33,10,268,46,1*72
$GBGSV,2,2,05,35,56,093,43,1*4B
$GBGSV,2,1,06,12,,,45,24,62,294,,25,07,296,,26,65,117,,3*43
$GBGSV,2,2,06,33,10,268,,35,56,093,,3*70
$GNGLL,5025.4451285,N,01411.3809568,E,205315.00,A,D*77
$GNRMC,205316.00,A,5025.4451401,N,01411.3809842,E,0.008,,241021,,,F,V*16
$GNVTG,,T,,M,0.008,N,0.014,K,D*35
$GNGGA,205316.00,5025.4451401,N,01411.3809842,E,5,10,1.38,224.273,M,44.078,M,1.0,0084*6A
$GNGSA,A,3,87,88,69,79,77,78,68,,,,,,2.41,1.38,1.98,2*00
$GNGSA,A,3,24,26,35,,,,,,,,,,2.41,1.38,1.98,4*0D
$GLGSV,3,1,10,68,17,251,43,69,26,304,47,70,05,359,25,77,44,093,33,1*7D
$GLGSV,3,2,10,78,67,331,49,79,18,297,49,81,00,182,,86,12,022,25,1*74
$GLGSV,3,3,10,87,57,083,48,88,40,152,52,1*76
$GLGSV,3,1,10,68,17,251,43,69,26,304,41,70,05,359,,77,44,093,21,3*7D
$GLGSV,3,2,10,78,67,331,44,79,18,297,43,81,00,182,,86,12,022,,3*76
$GLGSV,3,3,10,87,57,083,,88,40,152,42,3*79
$GBGSV,2,1,05,24,62,294,48,25,07,296,46,26,65,117,47,33,10,268,46,1*72
$GBGSV,2,2,05,35,56,093,44,1*4C
$GBGSV,2,1,06,12,,,45,24,62,294,,25,07,296,,26,65,117,,3*43
$GBGSV,2,2,06,33,10,268,,35,56,093,,3*70
$GNGLL,5025.4451401,N,01411.3809842,E,205316.00,A,D*7B
$GNRMC,205317.00,A,5025.4451626,N,01411.3810393,E,0.006,,241021,,,F,V*11
$GNVTG,,T,,M,0.006,N,0.012,K,D*3D
$GNGGA,205317.00,5025.4451626,N,01411.3810393,E,5,10,1.38,224.007,M,44.078,M,1.0,0084*62
$GNGSA,A,3,87,88,69,79,77,78,68,,,,,,2.41,1.38,1.98,2*00
$GNGSA,A,3,24,26,35,,,,,,,,,,2.41,1.38,1.98,4*0D
$GLGSV,3,1,10,68,17,251,43,69,26,304,47,70,05,359,25,77,44,093,33,1*7D
$GLGSV,3,2,10,78,67,331,49,79,18,297,49,81,00,182,,86,12,022,26,1*77
$GLGSV,3,3,10,87,57,083,48,88,41,152,51,1*74
$GLGSV,3,1,10,68,17,251,43,69,26,304,41,70,05,359,,77,44,093,20,3*7C
$GLGSV,3,2,10,78,67,331,44,79,18,297,43,81,00,182,,86,12,022,,3*76
$GLGSV,3,3,10,87,57,083,,88,41,152,42,3*78
$GBGSV,2,1,05,24,62,294,48,25,07,296,46,26,65,117,47,33,10,268,46,1*72
$GBGSV,2,2,05,35,56,093,44,1*4C
$GBGSV,2,1,06,12,,,45,24,62,294,,25,07,296,,26,65,117,,3*43
$GBGSV,2,2,06,33,10,268,,35,56,093,,3*70
$GNGLL,5025.4451626,N,01411.3810393,E,205317.00,A,D*72
$GNRMC,205318.00,A,5025.4451772,N,01411.3810782,E,0.006,,241021,,,F,V*1A
$GNVTG,,T,,M,0.006,N,0.012,K,D*3D
$GNGGA,205318.00,5025.4451772,N,01411.3810782,E,5,10,1.38,223.774,M,44.078,M,1.0,0084*6D
$GNGSA,A,3,87,88,69,79,77,78,68,,,,,,2.41,1.38,1.98,2*00
$GNGSA,A,3,24,26,35,,,,,,,,,,2.41,1.38,1.98,4*0D
$GLGSV,3,1,10,68,17,251,43,69,26,304,47,70,05,359,26,77,44,093,33,1*7E
$GLGSV,3,2,10,78,67,331,49,79,18,297,49,81,00,182,,86,12,022,25,1*74
$GLGSV,3,3,10,87,57,083,48,88,41,152,51,1*74
$GLGSV,3,1,10,68,17,251,43,69,26,304,41,70,05,359,,77,44,093,20,3*7C
$GLGSV,3,2,10,78,67,331,44,79,18,297,43,81,00,182,,86,12,022,,3*76
$GLGSV,3,3,10,87,57,083,,88,41,152,42,3*78
$GBGSV,2,1,05,24,62,294,48,25,07,296,46,26,65,117,47,33,10,268,46,1*72
$GBGSV,2,2,05,35,56,093,44,1*4C
$GBGSV,2,1,06,12,,,45,24,62,294,,25,07,296,,26,65,117,,3*43
$GBGSV,2,2,06,33,10,268,,35,56,093,,3*70
$GNGLL,5025.4451772,N,01411.3810782,E,205318.00,A,D*79
$GNRMC,205319.00,A,5025.4451920,N,01411.3811192,E,0.021,,241021,,,F,V*11
$GNVTG,,T,,M,0.021,N,0.039,K,D*31
$GNGGA,205319.00,5025.4451920,N,01411.3811192,E,5,10,1.38,223.510,M,44.078,M,1.0,0084*63
$GNGSA,A,3,87,88,69,79,77,78,68,,,,,,2.41,1.38,1.98,2*00
$GNGSA,A,3,24,26,35,,,,,,,,,,2.41,1.38,1.98,4*0D
$GLGSV,3,1,10,68,17,251,43,69,26,304,47,70,05,359,26,77,44,093,34,1*79
$GLGSV,3,2,10,78,67,331,49,79,18,297,48,81,00,182,,86,12,022,25,1*75
$GLGSV,3,3,10,87,57,083,48,88,41,152,51,1*74
$GLGSV,3,1,10,68,17,251,43,69,26,304,41,70,05,359,,77,44,093,20,3*7C
$GLGSV,3,2,10,78,67,331,44,79,18,297,43,81,00,182,,86,12,022,,3*76
$GLGSV,3,3,10,87,57,083,,88,41,152,41,3*7B
$GBGSV,2,1,05,24,62,294,48,25,07,296,46,26,65,117,47,33,10,268,46,1*72
$GBGSV,2,2,05,35,56,093,44,1*4C
$GBGSV,2,1,06,12,,,45,24,62,294,,25,07,296,,26,65,117,,3*43
$GBGSV,2,2,06,33,10,268,,35,56,093,,3*70
$GNGLL,5025.4451920,N,01411.3811192,E,205319.00,A,D*77
$GNRMC,205320.00,A,5025.4451977,N,01411.3811782,E,0.030,,241021,,,F,V*1E
$GNVTG,,T,,M,0.030,N,0.056,K,D*38
$GNGGA,205320.00,5025.4451977,N,01411.3811782,E,5,10,1.38,223.105,M,44.078,M,1.0,0084*6C
$GNGSA,A,3,87,88,69,79,77,78,68,,,,,,2.41,1.38,1.98,2*00
$GNGSA,A,3,24,26,35,,,,,,,,,,2.41,1.38,1.98,4*0D
$GLGSV,3,1,10,68,17,251,43,69,26,304,47,70,05,359,26,77,44,093,34,1*79
$GLGSV,3,2,10,78,67,331,49,79,18,297,48,81,00,182,,86,12,022,25,1*75
$GLGSV,3,3,10,87,57,083,48,88,41,152,51,1*74
$GLGSV,3,1,10,68,17,251,43,69,26,304,41,70,05,359,,77,44,093,20,3*7C
$GLGSV,3,2,10,78,67,331,44,79,18,297,43,81,00,182,,86,12,022,,3*76
$GLGSV,3,3,10,87,57,083,,88,41,152,41,3*7B
$GBGSV,2,1,05,24,62,294,48,25,07,296,46,26,65,117,47,33,10,268,46,1*72
$GBGSV,2,2,05,35,56,093,44,1*4C
$GBGSV,2,1,06,12,,,45,24,62,294,,25,07,296,,26,65,117,,3*43
$GBGSV,2,2,06,33,10,268,,35,56,093,,3*70
$GNGLL,5025.4451977,N,01411.3811782,E,205320.00,A,D*78
$GNRMC,205321.00,A,5025.4452134,N,01411.3812789,E,0.030,,241021,,,F,V*1B
$GNVTG,,T,,M,0.030,N,0.056,K,D*38
$GNGGA,205321.00,5025.4452134,N,01411.3812789,E,5,10,1.38,222.550,M,44.078,M,1.0,0084*6C
$GNGSA,A,3,87,88,69,79,77,78,68,,,,,,2.41,1.38,1.98,2*00
$GNGSA,A,3,24,26,35,,,,,,,,,,2.41,1.38,1.98,4*0D
$GLGSV,3,1,10,68,17,251,43,69,26,304,48,70,05,359,27,77,44,093,34,1*77
$GLGSV,3,2,10,78,67,331,50,79,18,297,48,81,00,182,,86,12,022,24,1*7C
$GLGSV,3,3,10,87,57,083,48,88,41,152,51,1*74
$GLGSV,3,1,10,68,17,251,43,69,26,304,41,70,05,359,,77,44,093,20,3*7C
$GLGSV,3,2,10,78,67,331,44,79,18,297,43,81,00,182,,86,12,022,,3*76
$GLGSV,3,3,10,87,57,083,,88,41,152,41,3*7B
$GBGSV,2,1,05,24,62,294,48,25,07,296,46,26,65,117,47,33,10,268,46,1*72
$GBGSV,2,2,05,35,56,093,44,1*4C
$GBGSV,2,1,06,12,,,45,24,62,294,,25,07,296,,26,65,117,,3*43
$GBGSV,2,2,06,33,10,268,,35,56,093,,3*70
$GNGLL,5025.4452134,N,01411.3812789,E,205321.00,A,D*7D
$GNRMC,205322.00,A,5025.4452638,N,01411.3814805,E,0.057,,241021,,,F,V*1F
$GNVTG,,T,,M,0.057,N,0.106,K,D*3D
$GNGGA,205322.00,5025.4452638,N,01411.3814805,E,5,10,1.38,221.731,M,44.078,M,1.0,0084*6F
$GNGSA,A,3,87,88,69,79,77,78,68,,,,,,2.41,1.38,1.98,2*00
$GNGSA,A,3,24,26,35,,,,,,,,,,2.41,1.38,1.98,4*0D
$GLGSV,3,1,10,68,17,251,43,69,26,304,48,70,05,359,27,77,44,093,34,1*77
$GLGSV,3,2,10,78,67,331,50,79,18,297,48,81,00,182,,86,12,022,24,1*7C
$GLGSV,3,3,10,87,57,083,48,88,41,152,51,1*74
$GLGSV,3,1,10,68,17,251,43,69,26,304,41,70,05,359,,77,44,093,20,3*7C
$GLGSV,3,2,10,78,67,331,44,79,18,297,43,81,00,182,,86,12,022,,3*76
$GLGSV,3,3,10,87,57,083,,88,41,152,41,3*7B
$GBGSV,2,1,05,24,62,294,48,25,07,296,46,26,65,117,47,33,10,268,46,1*72
$GBGSV,2,2,05,35,56,093,44,1*4C
$GBGSV,2,1,06,12,,,45,24,62,294,,25,07,296,,26,65,117,,3*43
$GBGSV,2,2,06,33,10,268,,35,56,093,,3*70
$GNGLL,5025.4452638,N,01411.3814805,E,205322.00,A,D*78
$GNRMC,205323.00,A,5025.4453276,N,01411.3817116,E,0.073,,241021,,,F,V*1F
$GNVTG,,T,,M,0.073,N,0.135,K,D*3B
$GNGGA,205323.00,5025.4453276,N,01411.3817116,E,5,10,1.38,220.882,M,44.078,M,1.0,0084*6F
$GNGSA,A,3,87,88,69,79,77,78,68,,,,,,2.41,1.38,1.98,2*00
$GNGSA,A,3,24,26,35,,,,,,,,,,2.41,1.38,1.98,4*0D
$GLGSV,3,1,10,68,17,251,43,69,26,304,48,70,05,359,27,77,44,093,34,1*77
$GLGSV,3,2,10,78,67,331,50,79,18,297,48,81,00,182,,86,12,022,25,1*7D
$GLGSV,3,3,10,87,57,083,48,88,41,152,50,1*75
$GLGSV,3,1,10,68,17,251,43,69,26,304,41,70,05,359,,77,44,093,20,3*7C
$GLGSV,3,2,10,78,67,331,44,79,18,297,43,81,00,182,,86,12,022,,3*76
$GLGSV,3,3,10,87,57,083,,88,41,152,40,3*7A
$GBGSV,2,1,05,24,62,294,48,25,07,296,46,26,65,117,47,33,10,268,46,1*72
$GBGSV,2,2,05,35,56,093,44,1*4C
$GBGSV,2,1,06,12,,,46,24,62,294,,25,07,296,,26,65,117,,3*40
$GBGSV,2,2,06,33,10,268,,35,56,093,,3*70
$GNGLL,5025.4453276,N,01411.3817116,E,205323.00,A,D*7E
$GNRMC,205324.00,A,5025.4453629,N,01411.3818562,E,0.075,,241021,,,F,V*18
$GNVTG,,T,,M,0.075,N,0.139,K,D*31
$GNGGA,205324.00,5025.4453629,N,01411.3818562,E,5,10,1.38,220.277,M,44.078,M,1.0,0084*6E
$GNGSA,A,3,87,88,69,79,77,78,68,,,,,,2.41,1.38,1.98,2*00
$GNGSA,A,3,24,26,35,,,,,,,,,,2.41,1.38,1.98,4*0D
$GLGSV,3,1,10,68,17,251,43,69,26,304,48,70,05,359,27,77,44,093,34,1*77
$GLGSV,3,2,10,78,67,331,50,79,18,297,48,81,00,182,,86,12,022,25,1*7D
$GLGSV,3,3,10,87,57,083,48,88,41,152,50,1*75
$GLGSV,3,1,10,68,17,251,43,69,26,304,41,70,05,359,,77,44,093,21,3*7D
$GLGSV,3,2,10,78,67,331,45,79,18,297,43,81,00,182,,86,12,022,,3*77
$GLGSV,3,3,10,87,57,083,,88,41,152,40,3*7A
$GBGSV,2,1,05,24,63,294,48,25,07,296,45,26,65,117,47,33,10,268,46,1*70
$GBGSV,2,2,05,35,56,093,44,1*4C
$GBGSV,2,1,06,12,,,46,24,63,294,,25,07,296,,26,65,117,,3*41
$GBGSV,2,2,06,33,10,268,,35,56,093,,3*70
$GNGLL,5025.4453629,N,01411.3818562,E,205324.00,A,D*7F
$GNRMC,205325.00,A,5025.4453916,N,01411.3819729,E,0.070,,241021,,,F,V*13
$GNVTG,,T,,M,0.070,N,0.129,K,D*35
$GNGGA,205325.00,5025.4453916,N,01411.3819729,E,5,10,1.38,219.760,M,44.078,M,1.0,0084*69
$GNGSA,A,3,87,88,69,79,77,78,68,,,,,,2.41,1.38,1.98,2*00
$GNGSA,A,3,24,26,35,,,,,,,,,,2.41,1.38,1.98,4*0D
$GLGSV,3,1,10,68,17,251,43,69,26,304,48,70,05,359,27,77,44,093,35,1*76
$GLGSV,3,2,10,78,67,331,50,79,18,297,48,81,00,182,,86,12,022,24,1*7C
$GLGSV,3,3,10,87,57,083,48,88,41,152,50,1*75
$GLGSV,3,1,10,68,17,251,43,69,26,304,41,70,05,359,,77,44,093,21,3*7D
$GLGSV,3,2,10,78,67,331,45,79,18,297,43,81,00,182,,86,12,022,,3*77
$GLGSV,3,3,10,87,57,083,,88,41,152,40,3*7A
$GBGSV,2,1,05,24,63,294,48,25,07,296,45,26,65,117,47,33,10,268,46,1*70
$GBGSV,2,2,05,35,56,093,44,1*4C
$GBGSV,2,1,06,12,,,46,24,63,294,,25,07,296,,26,65,117,,3*41
$GBGSV,2,2,06,33,10,268,,35,56,093,,3*70
$GNGLL,5025.4453916,N,01411.3819729,E,205325.00,A,D*71
$GNRMC,205326.00,A,5025.4454172,N,01411.3820670,E,0.042,,241021,,,F,V*1B
$GNVTG,,T,,M,0.042,N,0.077,K,D*3E
$GNGGA,205326.00,5025.4454172,N,01411.3820670,E,5,10,1.38,219.336,M,44.078,M,1.0,0084*67
$GNGSA,A,3,87,88,69,79,77,78,68,,,,,,2.41,1.38,1.98,2*00
$GNGSA,A,3,24,26,35,,,,,,,,,,2.41,1.38,1.98,4*0D
$GLGSV,3,1,10,68,17,251,43,69,26,304,48,70,05,359,26,77,44,093,35,1*77
$GLGSV,3,2,10,78,67,331,50,79,18,297,48,81,00,182,,86,12,022,24,1*7C
$GLGSV,3,3,10,87,57,083,48,88,41,152,50,1*75
$GLGSV,3,1,10,68,17,251,43,69,26,304,41,70,05,359,,77,44,093,21,3*7D
$GLGSV,3,2,10,78,67,331,45,79,18,297,43,81,00,182,,86,12,022,,3*77
$GLGSV,3,3,10,87,57,083,,88,41,152,40,3*7A
$GBGSV,2,1,05,24,63,294,48,25,07,296,45,26,64,117,47,33,10,268,46,1*71
$GBGSV,2,2,05,35,56,093,44,1*4C
$GBGSV,2,1,06,12,,,46,24,63,294,,25,07,296,,26,64,117,,3*40
$GBGSV,2,2,06,33,10,268,,35,56,093,,3*70
$GNGLL,5025.4454172,N,01411.3820670,E,205326.00,A,D*78
$GNRMC,205327.00,A,5025.4454391,N,01411.3821418,E,0.038,,241021,,,F,V*15
$GNVTG,,T,,M,0.038,N,0.071,K,D*35
$GNGGA,205327.00,5025.4454391,N,01411.3821418,E,5,10,1.38,219.008,M,44.078,M,1.0,0084*6A
$GNGSA,A,3,87,88,69,79,77,78,68,,,,,,2.41,1.38,1.98,2*00
$GNGSA,A,3,24,26,35,,,,,,,,,,2.41,1.38,1.98,4*0D
$GLGSV,3,1,10,68,17,251,43,69,26,304,48,70,05,359,26,77,44,093,34,1*76
$GLGSV,3,2,10,78,67,331,50,79,18,297,48,81,00,182,,86,12,022,23,1*7B
$GLGSV,3,3,10,87,57,083,49,88,41,152,49,1*7C
$GLGSV,3,1,10,68,17,251,43,69,26,304,41,70,05,359,,77,44,093,21,3*7D
$GLGSV,3,2,10,78,67,331,45,79,18,297,43,81,00,182,,86,12,022,,3*77
$GLGSV,3,3,10,87,57,083,,88,41,152,39,3*74
$GBGSV,2,1,05,24,63,294,48,25,07,296,45,26,64,117,47,33,10,268,46,1*71
$GBGSV,2,2,05,35,56,093,44,1*4C
$GBGSV,2,1,06,12,,,46,24,63,294,,25,07,296,,26,64,117,,3*40
$GBGSV,2,2,06,33,10,268,,35,56,093,,3*70
$GNGLL,5025.4454391,N,01411.3821418,E,205327.00,A,D*7B
$GNRMC,205328.00,A,5025.4454553,N,01411.3821982,E,0.025,,241021,,,F,V*10
$GNVTG,,T,,M,0.025,N,0.047,K,D*3C
$GNGGA,205328.00,5025.4454553,N,01411.3821982,E,5,10,1.38,218.740,M,44.078,M,1.0,0084*69
$GNGSA,A,3,87,88,69,79,77,78,68,,,,,,2.41,1.38,1.98,2*00
$GNGSA,A,3,24,26,35,,,,,,,,,,2.41,1.38,1.98,4*0D
$GLGSV,3,1,10,68,17,251,43,69,26,304,48,70,05,359,25,77,44,093,35,1*74
$GLGSV,3,2,10,78,67,331,50,79,18,297,48,81,00,182,,86,12,022,23,1*7B
$GLGSV,3,3,10,87,57,083,49,88,41,152,49,1*7C
$GLGSV,3,1,10,68,17,251,43,69,26,304,41,70,05,359,,77,44,093,22,3*7E
$GLGSV,3,2,10,78,67,331,45,79,18,297,43,81,00,182,,86,12,022,,3*77
$GLGSV,3,3,10,87,57,083,,88,41,152,39,3*74
$GBGSV,2,1,05,24,63,294,48,25,07,296,45,26,64,117,47,33,10,268,46,1*71
$GBGSV,2,2,05,35,56,092,44,1*4D
$GBGSV,2,1,06,12,,,46,24,63,294,,25,07,296,,26,64,117,,3*40
$GBGSV,2,2,06,33,10,268,,35,56,092,,3*71
$GNGLL,5025.4454553,N,01411.3821982,E,205328.00,A,D*72
$GNRMC,205329.00,A,5025.4454767,N,01411.3822778,E,0.034,,241021,,,F,V*1C
$GNVTG,,T,,M,0.034,N,0.064,K,D*3D
$GNGGA,205329.00,5025.4454767,N,01411.3822778,E,5,10,1.38,218.421,M,44.078,M,1.0,0084*61
$GNGSA,A,3,87,88,69,79,77,78,68,,,,,,2.41,1.38,1.98,2*00
$GNGSA,A,3,24,26,35,,,,,,,,,,2.41,1.38,1.98,4*0D
$GLGSV,3,1,10,68,17,251,43,69,26,304,48,70,05,359,25,77,44,093,35,1*74
$GLGSV,3,2,10,78,67,331,50,79,18,297,48,81,00,182,,86,12,022,23,1*7B
$GLGSV,3,3,10,87,57,083,49,88,41,152,49,1*7C
$GLGSV,3,1,10,68,17,251,43,69,26,304,41,70,05,359,,77,44,093,21,3*7D
$GLGSV,3,2,10,78,67,331,45,79,18,297,43,81,00,182,,86,12,022,,3*77
$GLGSV,3,3,10,87,57,083,,88,41,152,39,3*74
$GBGSV,2,1,05,24,63,294,48,25,07,296,45,26,64,117,47,33,10,268,46,1*71
$GBGSV,2,2,05,35,56,092,44,1*4D
$GBGSV,2,1,06,12,,,46,24,63,294,,25,07,296,,26,64,117,,3*40
$GBGSV,2,2,06,33,10,268,,35,56,092,,3*71
$GNGLL,5025.4454767,N,01411.3822778,E,205329.00,A,D*7E
$GNRMC,205330.00,A,5025.4455020,N,01411.3823803,E,0.043,,241021,,,F,V*13
$GNVTG,,T,,M,0.043,N,0.080,K,D*37
$GNGGA,205330.00,5025.4455020,N,01411.3823803,E,5,10,1.38,218.039,M,44.078,M,1.0,0084*63
$GNGSA,A,3,87,88,69,79,77,78,68,,,,,,2.41,1.38,1.98,2*00
$GNGSA,A,3,24,26,35,,,,,,,,,,2.41,1.38,1.98,4*0D
$GLGSV,3,1,10,68,17,251,44,69,26,304,48,70,05,359,25,77,44,093,35,1*73
$GLGSV,3,2,10,78,67,331,50,79,18,297,48,81,00,182,,86,12,022,22,1*7A
$GLGSV,3,3,10,87,57,083,49,88,41,152,49,1*7C
$GLGSV,3,1,10,68,17,251,43,69,26,304,41,70,05,359,,77,44,093,21,3*7D
$GLGSV,3,2,10,78,67,331,45,79,18,297,42,81,00,182,,86,12,022,,3*76
$GLGSV,3,3,10,87,57,083,,88,41,152,38,3*75
$GBGSV,2,1,05,24,63,294,48,25,07,296,45,26,64,117,47,33,10,268,46,1*71
$GBGSV,2,2,05,35,56,092,44,1*4D
$GBGSV,2,1,06,12,,,46,24,63,294,,25,07,296,,26,64,117,,3*40
$GBGSV,2,2,06,33,10,268,,35,56,092,,3*71
$GNGLL,5025.4455020,N,01411.3823803,E,205330.00,A,D*71
$GNRMC,205331.00,A,5025.4455320,N,01411.3825198,E,0.019,,241021,,,F,V*13
$GNVTG,,T,,M,0.019,N,0.036,K,D*35
$GNGGA,205331.00,5025.4455320,N,01411.3825198,E,5,10,1.38,217.566,M,44.078,M,1.0,0084*6C
$GNGSA,A,3,87,88,69,79,77,78,68,,,,,,2.41,1.38,1.98,2*00
$GNGSA,A,3,24,26,35,,,,,,,,,,2.41,1.38,1.98,4*0D
$GLGSV,3,1,10,68,17,251,44,69,26,304,48,70,05,359,24,77,44,093,35,1*72
$GLGSV,3,2,10,78,67,331,50,79,18,297,48,81,00,182,,86,12,022,22,1*7A
$GLGSV,3,3,10,87,57,083,49,88,41,152,49,1*7C
$GLGSV,3,1,10,68,17,251,43,69,26,304,41,70,05,359,,77,44,093,21,3*7D
$GLGSV,3,2,10,78,67,331,45,79,18,297,42,81,00,182,,86,12,022,,3*76
$GLGSV,3,3,10,87,57,083,,88,41,152,38,3*75
$GBGSV,2,1,05,24,63,294,48,25,07,296,45,26,64,117,47,33,10,268,46,1*71
$GBGSV,2,2,05,35,56,092,44,1*4D
$GBGSV,2,1,06,12,,,46,24,63,294,,25,07,296,,26,64,117,,3*40
$GBGSV,2,2,06,33,10,268,,35,56,092,,3*71
$GNGLL,5025.4455320,N,01411.3825198,E,205331.00,A,D*7E
$GNRMC,205332.00,A,5025.4455527,N,01411.3826422,E,0.066,,241021,,,F,V*1E
$GNVTG,,T,,M,0.066,N,0.121,K,D*3A
$GNGGA,205332.00,5025.4455527,N,01411.3826422,E,5,10,1.38,217.164,M,44.078,M,1.0,0084*6F
$GNGSA,A,3,87,88,69,79,77,78,68,,,,,,2.41,1.38,1.98,2*00
$GNGSA,A,3,24,26,35,,,,,,,,,,2.41,1.38,1.98,4*0D
$GLGSV,3,1,10,68,17,251,44,69,26,304,48,70,05,359,24,77,44,093,34,1*73
$GLGSV,3,2,10,78,67,331,49,79,18,297,48,81,00,182,,86,12,022,21,1*71
$GLGSV,3,3,10,87,57,083,49,88,41,152,48,1*7D
$GLGSV,3,1,10,68,17,251,44,69,26,304,41,70,05,359,,77,44,093,20,3*7B
$GLGSV,3,2,10,78,67,331,45,79,18,297,42,81,00,182,,86,12,022,,3*76
$GLGSV,3,3,10,87,57,083,,88,41,152,38,3*75
$GBGSV,2,1,05,24,63,294,48,25,07,296,45,26,64,117,47,33,10,268,46,1*71
$GBGSV,2,2,05,35,56,092,44,1*4D
$GBGSV,2,1,06,12,,,46,24,63,294,,25,07,296,,26,64,117,,3*40
$GBGSV,2,2,06,33,10,268,,35,56,092,,3*71
$GNGLL,5025.4455527,N,01411.3826422,E,205332.00,A,D*7B
$GNRMC,205333.00,A,5025.4455551,N,01411.3827141,E,0.045,,241021,,,F,V*1E
$GNVTG,,T,,M,0.045,N,0.083,K,D*32
$GNGGA,205333.00,5025.4455551,N,01411.3827141,E,5,10,1.38,216.901,M,44.078,M,1.0,0084*64
$GNGSA,A,3,87,88,69,79,77,78,68,,,,,,2.41,1.38,1.98,2*00
$GNGSA,A,3,24,26,35,,,,,,,,,,2.41,1.38,1.98,4*0D
$GLGSV,3,1,10,68,17,251,44,69,26,304,48,70,05,359,24,77,44,093,34,1*73
$GLGSV,3,2,10,78,67,331,49,79,18,297,48,81,00,182,,86,12,022,20,1*70
$GLGSV,3,3,10,87,57,083,49,88,41,152,48,1*7D
$GLGSV,3,1,10,68,17,251,44,69,26,304,41,70,05,359,,77,44,093,20,3*7B
$GLGSV,3,2,10,78,67,331,45,79,18,297,42,81,00,182,,86,12,022,,3*76
$GLGSV,3,3,10,87,57,083,,88,41,152,37,3*7A
$GBGSV,2,1,05,24,63,294,48,25,07,296,45,26,64,117,47,33,10,268,46,1*71
$GBGSV,2,2,05,35,56,092,44,1*4D
$GBGSV,2,1,06,12,,,46,24,63,294,,25,07,296,,26,64,117,,3*40
$GBGSV,2,2,06,33,10,268,,35,56,092,,3*71
$GNGLL,5025.4455551,N,01411.3827141,E,205333.00,A,D*7A
$GNRMC,205334.00,A,5025.4455419,N,01411.3827513,E,0.038,,241021,,,F,V*1D
$GNVTG,,T,,M,0.038,N,0.071,K,D*35
$GNGGA,205334.00,5025.4455419,N,01411.3827513,E,5,10,1.38,216.716,M,44.078,M,1.0,0084*65
$GNGSA,A,3,87,88,69,79,77,78,68,,,,,,2.41,1.38,1.98,2*00
$GNGSA,A,3,24,26,35,,,,,,,,,,2.41,1.38,1.98,4*0D
$GLGSV,3,1,10,68,17,251,44,69,26,304,48,70,05,359,24,77,44,093,34,1*73
$GLGSV,3,2,10,78,67,331,49,79,18,297,48,81,00,182,,86,12,022,21,1*71
$GLGSV,3,3,10,87,57,083,49,88,41,152,48,1*7D
$GLGSV,3,1,10,68,17,251,44,69,26,304,41,70,05,359,,77,44,093,20,3*7B
$GLGSV,3,2,10,78,67,331,45,79,18,297,42,81,00,182,,86,12,022,,3*76
$GLGSV,3,3,10,87,57,083,,88,41,152,37,3*7A
$GBGSV,2,1,05,24,63,294,48,25,07,296,45,26,64,117,47,33,10,268,46,1*71
$GBGSV,2,2,05,35,56,092,45,1*4C
$GBGSV,2,1,06,12,,,46,24,63,294,,25,07,296,,26,64,117,,3*40
$GBGSV,2,2,06,33,10,268,,35,56,092,,3*71
$GNGLL,5025.4455419,N,01411.3827513,E,205334.00,A,D*73
$GNRMC,205335.00,A,5025.4455317,N,01411.3828064,E,0.018,,241021,,,F,V*1D
$GNVTG,,T,,M,0.018,N,0.034,K,D*36
$GNGGA,205335.00,5025.4455317,N,01411.3828064,E,5,10,1.38,216.528,M,44.078,M,1.0,0084*68
$GNGSA,A,3,87,88,69,79,77,78,68,,,,,,2.41,1.38,1.98,2*00
$GNGSA,A,3,24,26,35,,,,,,,,,,2.41,1.38,1.98,4*0D
$GLGSV,3,1,10,68,17,251,44,69,26,304,48,70,05,359,23,77,44,093,34,1*74
$GLGSV,3,2,10,78,67,331,49,79,18,297,48,81,00,182,,86,12,022,21,1*71
$GLGSV,3,3,10,87,57,083,49,88,41,152,47,1*72
$GLGSV,3,1,10,68,17,251,44,69,26,304,41,70,05,359,,77,44,093,19,3*71
$GLGSV,3,2,10,78,67,331,45,79,18,297,42,81,00,182,,86,12,022,,3*76
$GLGSV,3,3,10,87,57,083,,88,41,152,37,3*7A
$GBGSV,2,1,05,24,63,294,48,25,07,296,45,26,64,117,47,33,10,268,46,1*71
$GBGSV,2,2,05,35,56,092,45,1*4C
$GBGSV,2,1,06,12,,,46,24,63,294,,25,07,296,,26,64,117,,3*40
$GBGSV,2,2,06,33,10,268,,35,56,092,,3*71
$GNGLL,5025.4455317,N,01411.3828064,E,205335.00,A,D*71
$GNRMC,205336.00,A,5025.4455156,N,01411.3828581,E,0.016,,241021,,,F,V*19
$GNVTG,,T,,M,0.016,N,0.030,K,D*3C
$GNGGA,205336.00,5025.4455156,N,01411.3828581,E,5,10,1.38,216.402,M,44.078,M,1.0,0084*6B
$GNGSA,A,3,87,88,69,79,77,78,68,,,,,,2.41,1.38,1.98,2*00
$GNGSA,A,3,24,26,35,,,,,,,,,,2.41,1.38,1.98,4*0D
$GLGSV,3,1,10,68,17,251,44,69,26,304,48,70,05,359,22,77,44,093,34,1*75
$GLGSV,3,2,10,78,67,331,49,79,18,297,48,81,00,182,,86,12,022,22,1*72
$GLGSV,3,3,10,87,57,083,49,88,41,152,47,1*72
$GLGSV,3,1,10,68,17,251,44,69,26,304,41,70,05,359,,77,44,093,19,3*71
$GLGSV,3,2,10,78,67,331,45,79,18,297,42,81,00,182,,86,12,022,,3*76
$GLGSV,3,3,10,87,57,083,,88,41,152,36,3*7B
$GBGSV,2,1,05,24,63,294,48,25,07,296,44,26,64,117,47,33,10,268,46,1*70
$GBGSV,2,2,05,35,56,092,45,1*4C
$GBGSV,2,1,06,12,,,46,24,63,294,,25,07,296,,26,64,117,,3*40
$GBGSV,2,2,06,33,10,268,,35,56,092,,3*71
$GNGLL,5025.4455156,N,01411.3828581,E,205336.00,A,D*7B
$GNRMC,205337.00,A,5025.4454940,N,01411.3829027,E,0.009,,241021,,,F,V*10
$GNVTG,,T,,M,0.009,N,0.016,K,D*36
$GNGGA,205337.00,5025.4454940,N,01411.3829027,E,5,10,1.38,216.297,M,44.078,M,1.0,0084*66
$GNGSA,A,3,87,88,69,79,77,78,68,,,,,,2.41,1.38,1.98,2*00
$GNGSA,A,3,24,26,35,,,,,,,,,,2.41,1.38,1.98,4*0D
$GLGSV,3,1,10,68,17,251,44,69,26,304,48,70,05,359,21,77,44,093,34,1*76
$GLGSV,3,2,10,78,67,331,49,79,18,297,48,81,00,182,,86,12,022,21,1*71
$GLGSV,3,3,10,87,57,083,49,88,41,152,47,1*72
$GLGSV,3,1,10,68,17,251,44,69,26,304,41,70,05,359,,77,44,093,19,3*71
$GLGSV,3,2,10,78,67,331,45,79,18,297,42,81,00,182,,86,12,022,,3*76
$GLGSV,3,3,10,87,57,083,,88,41,152,36,3*7B
$GBGSV,2,1,05,24,63,294,48,25,07,296,44,26,64,117,47,33,10,268,46,1*70
$GBGSV,2,2,05,35,56,092,45,1*4C
$GBGSV,2,1,06,12,,,46,24,63,294,,25,07,296,,26,64,117,,3*40
$GBGSV,2,2,06,33,10,268,,35,56,092,,3*71
$GNGLL,5025.4454940,N,01411.3829027,E,205337.00,A,D*7C
$GNRMC,205338.00,A,5025.4454671,N,01411.3829293,E,0.012,,241021,,,F,V*15
$GNVTG,,T,,M,0.012,N,0.023,K,D*3A
$GNGGA,205338.00,5025.4454671,N,01411.3829293,E,5,10,1.38,216.228,M,44.078,M,1.0,0084*6D
$GNGSA,A,3,87,88,69,79,77,78,68,,,,,,2.41,1.38,1.98,2*00
$GNGSA,A,3,24,26,35,,,,,,,,,,2.41,1.38,1.98,4*0D
$GLGSV,3,1,10,68,17,251,44,69,26,304,48,70,05,359,20,77,44,093,34,1*77
$GLGSV,3,2,10,78,67,331,49,79,18,297,48,81,00,182,,86,12,022,20,1*70
$GLGSV,3,3,10,87,57,083,49,88,41,152,47,1*72
$GLGSV,3,1,10,68,17,251,44,69,26,304,41,70,05,359,,77,44,093,19,3*71
$GLGSV,3,2,10,78,67,331,45,79,18,297,42,81,00,182,,86,12,022,,3*76
$GLGSV,3,3,10,87,57,083,,88,41,152,35,3*78
$GBGSV,2,1,05,24,63,294,48,25,07,296,45,26,64,117,47,33,10,268,46,1*71
$GBGSV,2,2,05,35,56,092,45,1*4C
$GBGSV,2,1,06,12,,,46,24,63,294,,25,07,296,,26,64,117,,3*40
$GBGSV,2,2,06,33,10,268,,35,56,092,,3*71
$GNGLL,5025.4454671,N,01411.3829293,E,205338.00,A,D*73
$GNRMC,205339.00,A,5025.4454323,N,01411.3829184,E,0.011,,241021,,,F,V*10
$GNVTG,,T,,M,0.011,N,0.020,K,D*3A
$GNGGA,205339.00,5025.4454323,N,01411.3829184,E,5,10,1.38,216.229,M,44.078,M,1.0,0084*6A
$GNGSA,A,3,87,88,69,79,77,78,68,,,,,,2.41,1.38,1.98,2*00
$GNGSA,A,3,24,26,35,,,,,,,,,,2.41,1.38,1.98,4*0D
$GLGSV,3,1,10,68,17,251,43,69,26,304,48,70,05,359,20,77,44,093,33,1*77
$GLGSV,3,2,10,78,67,331,49,79,18,297,48,81,00,182,,86,12,022,21,1*71
$GLGSV,3,3,10,87,57,083,49,88,41,152,47,1*72
$GLGSV,3,1,10,68,17,251,44,69,26,304,41,70,05,359,,77,44,093,19,3*71
$GLGSV,3,2,10,78,67,331,45,79,18,297,42,81,00,182,,86,12,022,,3*76
$GLGSV,3,3,10,87,57,083,,88,41,152,35,3*78
$GBGSV,2,1,05,24,63,294,47,25,07,296,44,26,64,117,47,33,10,268,46,1*7F
$GBGSV,2,2,05,35,56,092,45,1*4C
$GBGSV,2,1,06,12,,,46,24,63,294,,25,07,296,,26,64,117,,3*40
$GBGSV,2,2,06,33,10,268,,35,56,092,,3*71
$GNGLL,5025.4454323,N,01411.3829184,E,205339.00,A,D*75
$GNRMC,205340.00,A,5025.4453830,N,01411.3828501,E,0.003,,241021,,,F,V*1B
$GNVTG,,T,,M,0.003,N,0.006,K,D*3D
$GNGGA,205340.00,5025.4453830,N,01411.3828501,E,5,10,1.38,216.374,M,44.078,M,1.0,0084*6B
$GNGSA,A,3,87,88,69,79,77,78,68,,,,,,2.41,1.38,1.98,2*00
$GNGSA,A,3,24,26,35,,,,,,,,,,2.41,1.38,1.98,4*0D
$GLGSV,3,1,10,68,17,251,43,69,26,304,48,70,05,359,20,77,44,093,33,1*77
$GLGSV,3,2,10,78,67,331,49,79,18,297,48,81,00,182,,86,12,022,20,1*70
$GLGSV,3,3,10,87,57,083,49,88,41,152,47,1*72
$GLGSV,3,1,10,68,17,251,44,69,26,304,41,70,05,359,,77,44,093,19,3*71
$GLGSV,3,2,10,78,67,331,45,79,18,297,42,81,00,182,,86,12,022,,3*76
$GLGSV,3,3,10,87,57,083,,88,41,152,34,3*79
$GBGSV,2,1,05,24,63,294,47,25,07,296,45,26,64,117,47,33,10,268,46,1*7E
$GBGSV,2,2,05,35,56,092,45,1*4C
$GBGSV,2,1,06,12,,,46,24,63,294,,25,07,296,,26,64,117,,3*40
$GBGSV,2,2,06,33,10,268,,35,56,092,,3*71
$GNGLL,5025.4453830,N,01411.3828501,E,205340.00,A,D*7D
$GNRMC,205341.00,A,5025.4453244,N,01411.3827497,E,0.013,,241021,,,F,V*13
$GNVTG,,T,,M,0.013,N,0.024,K,D*3C
$GNGGA,205341.00,5025.4453244,N,01411.3827497,E,5,10,1.38,216.570,M,44.078,M,1.0,0084*60
$GNGSA,A,3,87,88,69,79,77,78,68,,,,,,2.41,1.38,1.98,2*00
$GNGSA,A,3,24,26,35,,,,,,,,,,2.41,1.38,1.98,4*0D
$GLGSV,3,1,10,68,17,251,43,69,26,304,48,70,05,359,20,77,44,093,33,1*77
$GLGSV,3,2,10,78,67,331,49,79,18,297,48,81,00,182,,86,12,022,20,1*70
$GLGSV,3,3,10,87,57,083,49,88,41,152,47,1*72
$GLGSV,3,1,10,68,17,251,44,69,26,304,41,70,05,359,,77,44,093,19,3*71
$GLGSV,3,2,10,78,67,331,45,79,18,297,42,81,00,182,,86,12,022,,3*76
$GLGSV,3,3,10,87,57,083,,88,41,152,34,3*79
$GBGSV,2,1,05,24,63,294,47,25,07,296,45,26,64,117,47,33,10,268,46,1*7E
$GBGSV,2,2,05,35,56,092,44,1*4D
$GBGSV,2,1,06,12,,,46,24,63,294,,25,07,296,,26,64,117,,3*40
$GBGSV,2,2,06,33,10,268,,35,56,092,,3*71
$GNGLL,5025.4453244,N,01411.3827497,E,205341.00,A,D*74
$GNRMC,205342.00,A,5025.4452655,N,01411.3826806,E,0.019,,241021,,,F,V*1A
$GNVTG,,T,,M,0.019,N,0.035,K,D*36
$GNGGA,205342.00,5025.4452655,N,01411.3826806,E,5,10,1.38,216.643,M,44.078,M,1.0,0084*60
$GNGSA,A,3,87,88,69,79,77,78,68,,,,,,2.41,1.38,1.98,2*00
$GNGSA,A,3,24,26,35,,,,,,,,,,2.41,1.38,1.98,4*0D
$GLGSV,3,1,10,68,17,251,43,69,26,304,48,70,05,359,20,77,44,093,32,1*76
$GLGSV,3,2,10,78,67,331,49,79,18,297,48,81,00,182,,86,12,022,20,1*70
$GLGSV,3,3,10,87,57,083,50,88,41,152,47,1*7A
$GLGSV,3,1,10,68,17,251,44,69,26,304,41,70,05,359,,77,44,093,19,3*71
$GLGSV,3,2,10,78,67,331,45,79,18,297,42,81,00,182,,86,12,022,,3*76
$GLGSV,3,3,10,87,57,083,,88,41,152,33,3*7E
$GBGSV,2,1,05,24,63,294,47,25,07,296,45,26,64,117,47,33,10,268,46,1*7E
$GBGSV,2,2,05,35,56,092,44,1*4D
$GBGSV,2,1,06,12,,,46,24,63,294,,25,07,296,,26,64,117,,3*40
$GBGSV,2,2,06,33,10,268,,35,56,092,,3*71
$GNGLL,5025.4452655,N,01411.3826806,E,205342.00,A,D*77
$GNRMC,205343.00,A,5025.4452244,N,01411.3826463,E,0.011,,241021,,,F,V*18
$GNVTG,,T,,M,0.011,N,0.020,K,D*3A
$GNGGA,205343.00,5025.4452244,N,01411.3826463,E,5,10,1.38,216.649,M,44.078,M,1.0,0084*60
$GNGSA,A,3,87,88,69,79,77,78,68,,,,,,2.41,1.38,1.98,2*00
$GNGSA,A,3,24,26,35,,,,,,,,,,2.41,1.38,1.98,4*0D
$GLGSV,3,1,10,68,17,251,43,69,26,304,48,70,05,359,20,77,44,093,33,1*77
$GLGSV,3,2,10,78,67,331,49,79,19,297,48,81,00,182,,86,12,022,20,1*71
$GLGSV,3,3,10,87,57,083,50,88,41,152,47,1*7A
$GLGSV,3,1,10,68,17,251,44,69,26,304,41,70,05,359,,77,44,093,19,3*71
$GLGSV,3,2,10,78,67,331,45,79,19,297,42,81,00,182,,86,12,022,,3*77
$GLGSV,3,3,10,87,57,083,,88,41,152,32,3*7F
$GBGSV,2,1,05,24,63,294,48,25,07,296,45,26,64,117,47,33,10,268,46,1*71
$GBGSV,2,2,05,35,56,092,44,1*4D
$GBGSV,2,1,06,12,,,46,24,63,294,,25,07,296,,26,64,117,,3*40
$GBGSV,2,2,06,33,10,268,,35,56,092,,3*71
$GNGLL,5025.4452244,N,01411.3826463,E,205343.00,A,D*7D
$GNRMC,205344.00,A,5025.4451848,N,01411.3826179,E,0.009,,241021,,,F,V*1D
$GNVTG,,T,,M,0.009,N,0.016,K,D*36
$GNGGA,205344.00,5025.4451848,N,01411.3826179,E,5,10,1.38,216.667,M,44.078,M,1.0,0084*60
$GNGSA,A,3,87,88,69,79,77,78,68,,,,,,2.41,1.38,1.98,2*00
$GNGSA,A,3,24,26,35,,,,,,,,,,2.41,1.38,1.98,4*0D
$GLGSV,3,1,10,68,17,251,43,69,26,304,48,70,05,359,21,77,44,093,32,1*77
$GLGSV,3,2,10,78,67,331,49,79,19,297,48,81,00,182,,86,12,022,19,1*7B
$GLGSV,3,3,10,87,57,083,49,88,41,152,47,1*72
$GLGSV,3,1,10,68,17,251,44,69,26,304,41,70,05,359,,77,44,093,19,3*71
$GLGSV,3,2,10,78,67,331,46,79,19,297,42,81,00,182,,86,12,022,,3*74
$GLGSV,3,3,10,87,57,083,,88,41,152,32,3*7F
$GBGSV,2,1,05,24,63,294,48,25,07,296,45,26,64,117,47,33,10,268,46,1*71
$GBGSV,2,2,05,35,56,092,44,1*4D
$GBGSV,2,1,07,08,,,32,12,,,47,24,63,294,,25,07,296,,3*78
$GBGSV,2,2,07,26,64,117,,33,10,268,,35,56,092,,3*41
$GNGLL,5025.4451848,N,01411.3826179,E,205344.00,A,D*71
$GNRMC,205345.00,A,5025.4451440,N,01411.3825709,E,0.017,,241021,,,F,V*15
$GNVTG,,T,,M,0.017,N,0.031,K,D*3C
$GNGGA,205345.00,5025.4451440,N,01411.3825709,E,5,10,1.38,216.773,M,44.078,M,1.0,0084*63
$GNGSA,A,3,87,88,69,79,77,78,68,,,,,,2.41,1.38,1.98,2*00
$GNGSA,A,3,24,26,35,,,,,,,,,,2.41,1.38,1.98,4*0D
$GLGSV,3,1,10,68,17,251,43,69,26,304,48,70,05,359,20,77,44,093,32,1*76
$GLGSV,3,2,10,78,67,331,49,79,19,297,48,81,00,182,,86,12,022,18,1*7A
$GLGSV,3,3,10,87,57,083,49,88,41,152,48,1*7D
$GLGSV,3,1,10,68,17,251,44,69,26,304,41,70,05,359,,77,44,093,20,3*7B
$GLGSV,3,2,10,78,67,331,46,79,19,297,42,81,00,182,,86,12,022,,3*74
$GLGSV,3,3,10,87,57,083,,88,41,152,31,3*7C
$GBGSV,2,1,05,24,63,294,48,25,07,296,45,26,64,117,47,33,10,268,46,1*71
$GBGSV,2,2,05,35,56,092,44,1*4D
$GBGSV,2,1,07,08,,,30,12,,,47,24,63,294,,25,07,296,,3*7A
$GBGSV,2,2,07,26,64,117,,33,10,268,,35,56,092,,3*41
$GNGLL,5025.4451440,N,01411.3825709,E,205345.00,A,D*76
$GNRMC,205346.00,A,5025.4450966,N,01411.3824803,E,0.014,,241021,,,F,V*19
$GNVTG,,T,,M,0.014,N,0.025,K,D*3A
$GNGGA,205346.00,5025.4450966,N,01411.3824803,E,5,10,1.38,217.019,M,44.078,M,1.0,0084*66
$GNGSA,A,3,87,88,69,79,77,78,68,,,,,,2.41,1.38,1.98,2*00
$GNGSA,A,3,24,26,35,,,,,,,,,,2.41,1.38,1.98,4*0D
$GLGSV,3,1,10,68,17,251,43,69,26,304,48,70,05,359,19,77,44,093,32,1*7C
