$GNGGA,211924.00,5025.4446909,N,01411.3816838,E,4,12,0.65,218.098,M,44.078,M,1.0,0084*66
$GNGSA,A,3,24,25,29,31,32,12,02,,,,,,1.21,0.65,1.02,1*0B
$GNGSA,A,3,33,31,26,01,24,05,09,13,,,,,1.21,0.65,1.02,3*0E
$GNGSA,A,3,12,35,29,26,13,24,25,,,,,,1.21,0.65,1.02,4*0F
$GPGSV,3,1,10,02,37,105,27,03,02,355,,06,28,057,,12,74,062,47,1*6B
$GPGSV,3,2,10,19,07,044,25,24,34,152,44,25,67,285,43,29,32,209,45,1*65
$GPGSV,3,3,10,31,14,310,47,32,33,273,49,1*69
$GPGSV,3,1,10,02,37,105,,03,02,355,21,06,28,057,21,12,74,062,44,6*6A
$GPGSV,3,2,10,19,07,044,,24,34,152,41,25,67,285,46,29,32,209,42,6*62
$GPGSV,3,3,10,31,14,310,40,32,33,273,42,6*62
$GAGSV,3,1,10,01,54,088,42,04,08,210,13,05,20,313,45,09,27,259,42,7*78
$GAGSV,3,2,10,13,17,034,27,21,07,096,09,24,17,280,47,26,43,090,36,7*71
$GAGSV,3,3,10,31,65,292,41,33,29,150,44,7*70
$GAGSV,3,1,10,01,54,088,41,04,08,210,25,05,20,313,42,09,27,259,45,2*7B
$GAGSV,3,2,10,13,17,034,26,21,07,096,23,24,17,280,44,26,43,090,38,2*70
$GAGSV,3,3,10,31,65,292,51,33,29,150,46,2*76
$GBGSV,3,1,11,02,04,106,,05,18,128,,10,06,079,23,12,27,189,42,1*7A
$GBGSV,3,2,11,13,28,088,13,24,73,291,44,25,16,299,48,26,54,125,44,1*78
$GBGSV,3,3,11,29,12,040,23,33,03,261,36,35,54,075,43,1*4A
$GBGSV,3,1,11,02,04,106,,05,18,128,,10,06,079,20,12,27,189,49,3*70
$GBGSV,3,2,11,13,28,088,,24,73,291,,25,16,299,,26,54,125,,3*74
$GBGSV,3,3,11,29,12,040,,33,03,261,,35,54,075,,3*4B
$GNGLL,5025.4446909,N,01411.3816838,E,211924.00,A,D*75
$GNTXT,01,01,02,Starting GNSS*5A
$GNRMC,211924.24,V,,,,,,,241021,,,N,V*16
$GNVTG,,,,,,,,,N*2E
$GNGGA,211924.24,,,,,0,00,99.99,,,,,,*73
$GNGSA,A,1,,,,,,,,,,,,,99.99,99.99,99.99,2*30
$GNGSA,A,1,,,,,,,,,,,,,99.99,99.99,99.99,4*36
$GLGSV,1,1,00,1*78
$GLGSV,1,1,00,3*7A
$GBGSV,1,1,00,1*76
$GBGSV,1,1,00,3*74
$GNGLL,,,,,211924.24,V,N*5F
$GNRMC,211925.00,A,5025.4464888,N,01411.3842130,E,0.188,,241021,,,A,V*1F
$GNVTG,,T,,M,0.188,N,0.349,K,A*32
$GNGGA,211925.00,5025.4464888,N,01411.3842130,E,1,11,1.22,213.144,M,44.078,M,,*43
$GNGSA,A,3,81,87,88,69,79,78,,,,,,,2.16,1.22,1.78,2*00
$GNGSA,A,3,12,35,25,24,26,,,,,,,,2.16,1.22,1.78,4*0E
$GLGSV,3,1,10,68,06,243,32,69,22,290,45,70,12,349,,77,33,105,,1*7C
$GLGSV,3,2,10,78,76,009,48,79,30,304,46,81,13,183,32,86,01,019,,1*7C
$GLGSV,3,3,10,87,53,058,46,88,55,143,42,1*7F
$GLGSV,3,1,10,68,06,243,32,69,22,290,42,70,12,349,,77,33,105,,3*79
$GLGSV,3,2,10,78,76,009,42,79,30,304,39,81,13,183,35,86,01,019,,3*7B
$GLGSV,3,3,10,87,53,058,,88,55,143,40,3*7D
$GBGSV,3,1,11,02,04,106,,05,18,128,,10,06,079,23,12,27,189,42,1*7A
$GBGSV,3,2,11,13,28,088,,24,73,290,43,25,16,299,48,26,54,125,44,1*7C
$GBGSV,3,3,11,29,11,039,23,33,03,260,36,35,53,074,43,1*40
$GBGSV,3,1,11,02,04,106,,05,18,128,,10,06,079,,12,27,189,48,3*73
$GBGSV,3,2,11,13,28,088,23,24,73,290,,25,16,299,,26,54,125,,3*74
$GBGSV,3,3,11,29,11,039,,33,03,260,,35,53,074,,3*41
$GNGLL,5025.4464888,N,01411.3842130,E,211925.00,A,A*79
$GNRMC,211926.00,A,5025.4465336,N,01411.3833740,E,0.104,,241021,,,A,V*10
$GNVTG,,T,,M,0.104,N,0.194,K,A*34
$GNGGA,211926.00,5025.4465336,N,01411.3833740,E,1,11,1.22,215.892,M,44.078,M,,*4C
$GNGSA,A,3,81,87,88,69,79,78,,,,,,,2.16,1.22,1.78,2*00
$GNGSA,A,3,12,35,25,24,26,,,,,,,,2.16,1.22,1.78,4*0E
$GLGSV,3,1,10,68,06,243,33,69,22,290,46,70,12,349,,77,33,105,19,1*76
$GLGSV,3,2,10,78,76,009,49,79,30,304,47,81,13,183,34,86,01,019,,1*7A
$GLGSV,3,3,10,87,53,058,47,88,55,143,43,1*7F
$GLGSV,3,1,10,68,06,243,32,69,22,290,43,70,12,349,,77,33,105,,3*78
$GLGSV,3,2,10,78,76,009,42,79,30,304,40,81,13,183,36,86,01,019,,3*76
$GLGSV,3,3,10,87,53,058,,88,55,143,41,3*7C
$GBGSV,3,1,11,02,04,106,,05,18,128,,10,06,079,23,12,27,189,43,1*7B
$GBGSV,3,2,11,13,28,088,19,24,73,290,44,25,16,299,48,26,54,125,44,1*73
$GBGSV,3,3,11,29,11,039,23,33,03,260,36,35,53,074,43,1*40
$GBGSV,3,1,11,02,04,106,,05,18,128,,10,06,079,,12,27,189,48,3*73
$GBGSV,3,2,11,13,28,088,23,24,73,290,,25,16,299,,26,54,125,,3*74
$GBGSV,3,3,11,29,11,039,,33,03,260,,35,53,074,,3*41
$GNGLL,5025.4465336,N,01411.3833740,E,211926.00,A,A*72
$GNRMC,211927.00,A,5025.4464411,N,01411.3829696,E,0.016,,241021,,,A,V*11
$GNVTG,,T,,M,0.016,N,0.029,K,A*31
$GNGGA,211927.00,5025.4464411,N,01411.3829696,E,1,11,0.92,216.527,M,44.078,M,,*45
$GNGSA,A,3,81,87,88,69,79,78,,,,,,,1.64,0.92,1.36,2*06
$GNGSA,A,3,12,35,25,24,13,26,,,,,,,1.64,0.92,1.36,4*0A
$GLGSV,3,1,10,68,06,243,33,69,22,290,46,70,12,349,,77,33,105,21,1*7D
$GLGSV,3,2,10,78,76,009,49,79,30,304,48,81,13,183,34,86,01,019,23,1*74
$GLGSV,3,3,10,87,53,058,47,88,55,143,43,1*7F
$GLGSV,3,1,10,68,06,243,32,69,22,290,43,70,12,349,,77,33,105,,3*78
$GLGSV,3,2,10,78,76,009,42,79,30,304,40,81,13,183,37,86,01,019,,3*77
$GLGSV,3,3,10,87,53,058,,88,55,143,41,3*7C
$GBGSV,3,1,11,02,04,106,,05,18,128,,10,06,079,23,12,27,189,43,1*7B
$GBGSV,3,2,11,13,28,088,17,24,73,290,44,25,16,299,48,26,54,125,44,1*7D
$GBGSV,3,3,11,29,11,039,21,33,03,260,36,35,53,074,43,1*42
$GBGSV,3,1,11,02,04,106,,05,18,128,,10,06,079,17,12,27,189,49,3*74
$GBGSV,3,2,11,13,28,088,23,24,73,290,,25,16,299,,26,54,125,,3*74
$GBGSV,3,3,11,29,11,039,,33,03,260,,35,53,074,,3*41
$GNGLL,5025.4464411,N,01411.3829696,E,211927.00,A,A*71
$GNRMC,211928.00,A,5025.4466210,N,01411.3831107,E,0.027,,241021,,,A,V*1F
$GNVTG,,T,,M,0.027,N,0.051,K,A*3C
$GNGGA,211928.00,5025.4466210,N,01411.3831107,E,1,12,0.75,216.454,M,44.078,M,,*46
$GNGSA,A,3,81,87,88,69,79,78,,,,,,,1.30,0.75,1.06,2*0D
$GNGSA,A,3,12,35,25,24,13,26,29,,,,,,1.30,0.75,1.06,4*0A
$GLGSV,3,1,10,68,06,243,34,69,22,290,47,70,12,349,,77,33,105,22,1*78
$GLGSV,3,2,10,78,76,009,49,79,30,304,48,81,13,183,34,86,01,019,23,1*74
$GLGSV,3,3,10,87,53,058,46,88,55,143,44,1*79
$GLGSV,3,1,10,68,06,243,33,69,22,290,43,70,12,349,,77,33,105,,3*79
$GLGSV,3,2,10,78,76,009,42,79,30,304,41,81,13,183,38,86,01,019,,3*79
$GLGSV,3,3,10,87,53,058,,88,55,143,41,3*7C
$GBGSV,3,1,11,02,04,106,,05,18,128,,10,06,079,23,12,27,189,42,1*7A
$GBGSV,3,2,11,13,28,088,16,24,73,290,43,25,16,299,48,26,54,125,44,1*7B
$GBGSV,3,3,11,29,11,039,20,33,03,260,36,35,53,074,43,1*43
$GBGSV,3,1,11,02,04,106,,05,18,128,,10,06,079,18,12,27,189,49,3*7B
$GBGSV,3,2,11,13,28,088,23,24,73,290,,25,16,299,,26,54,125,,3*74
$GBGSV,3,3,11,29,11,039,,33,03,260,,35,53,074,,3*41
$GNGLL,5025.4466210,N,01411.3831107,E,211928.00,A,A*7D
$GNRMC,211929.00,A,5025.4467052,N,01411.3830149,E,0.030,,241021,,,A,V*16
$GNVTG,,T,,M,0.030,N,0.055,K,A*3E
$GNGGA,211929.00,5025.4467052,N,01411.3830149,E,1,12,0.73,216.832,M,44.078,M,,*43
$GNGSA,A,3,81,87,88,69,79,77,78,,,,,,1.28,0.73,1.05,2*01
$GNGSA,A,3,12,35,25,24,13,26,29,,,,,,1.28,0.73,1.05,4*06
$GLGSV,3,1,10,68,06,243,33,69,22,290,47,70,12,349,,77,33,105,23,1*7E
$GLGSV,3,2,10,78,76,009,49,79,30,304,48,81,13,183,34,86,01,019,23,1*74
$GLGSV,3,3,10,87,53,058,47,88,55,143,44,1*78
$GLGSV,3,1,10,68,06,243,33,69,22,290,43,70,12,349,,77,33,105,,3*79
$GLGSV,3,2,10,78,76,009,41,79,30,304,42,81,13,183,38,86,01,019,,3*79
$GLGSV,3,3,10,87,53,058,,88,55,143,42,3*7F
$GBGSV,3,1,11,02,04,106,,05,18,128,,10,06,079,22,12,27,189,42,1*7B
$GBGSV,3,2,11,13,28,088,16,24,73,290,43,25,16,299,48,26,54,125,44,1*7B
$GBGSV,3,3,11,29,11,039,21,33,03,260,35,35,53,074,42,1*40
$GBGSV,3,1,11,02,04,106,,05,18,128,,10,06,079,18,12,27,189,49,3*7B
$GBGSV,3,2,11,13,28,088,23,24,73,290,,25,16,299,,26,54,125,,3*74
$GBGSV,3,3,11,29,11,039,,33,03,260,,35,53,074,,3*41
$GNGLL,5025.4467052,N,01411.3830149,E,211929.00,A,A*72
$GNRMC,211930.00,A,5025.4467675,N,01411.3828658,E,0.061,,241021,,,A,V*17
$GNVTG,,T,,M,0.061,N,0.112,K,A*38
$GNGGA,211930.00,5025.4467675,N,01411.3828658,E,1,12,0.73,217.176,M,44.078,M,,*4E
$GNGSA,A,3,81,87,88,69,79,77,78,,,,,,1.28,0.73,1.05,2*01
$GNGSA,A,3,12,35,25,24,13,26,29,,,,,,1.28,0.73,1.05,4*06
$GLGSV,3,1,10,68,06,243,34,69,22,290,47,70,12,349,,77,33,105,23,1*79
$GLGSV,3,2,10,78,76,009,50,79,30,304,48,81,13,183,34,86,01,019,23,1*7C
$GLGSV,3,3,10,87,53,058,47,88,55,143,44,1*78
$GLGSV,3,1,10,68,06,243,33,69,22,290,43,70,12,349,,77,33,105,,3*79
$GLGSV,3,2,10,78,76,009,41,79,30,304,42,81,13,183,38,86,01,019,,3*79
$GLGSV,3,3,10,87,53,058,,88,55,143,42,3*7F
$GBGSV,3,1,11,02,04,106,,05,18,128,,10,06,079,23,12,27,189,42,1*7A
$GBGSV,3,2,11,13,28,088,16,24,73,290,43,25,16,299,48,26,54,125,44,1*7B
$GBGSV,3,3,11,29,11,039,21,33,03,260,35,35,53,074,42,1*40
$GBGSV,3,1,11,02,04,106,,05,18,128,,10,06,079,18,12,27,189,49,3*7B
$GBGSV,3,2,11,13,28,088,22,24,73,290,,25,16,299,,26,54,125,,3*75
$GBGSV,3,3,11,29,11,039,,33,03,260,,35,53,074,,3*41
$GNGLL,5025.4467675,N,01411.3828658,E,211930.00,A,A*77
$GNRMC,211931.00,A,5025.4468119,N,01411.3828824,E,0.040,,241021,,,A,V*12
$GNVTG,,T,,M,0.040,N,0.073,K,A*3D
$GNGGA,211931.00,5025.4468119,N,01411.3828824,E,1,12,1.22,217.263,M,44.078,M,,*4A
$GNGSA,A,3,81,87,88,69,79,77,78,,,,,,2.16,1.22,1.78,2*00
$GNGSA,A,3,12,35,25,24,13,26,29,,,,,,2.16,1.22,1.78,4*07
$GLGSV,3,1,10,68,06,243,34,69,22,290,47,70,12,349,,77,33,105,23,1*79
$GLGSV,3,2,10,78,76,009,50,79,30,304,48,81,13,183,34,86,01,019,24,1*7B
$GLGSV,3,3,10,87,53,058,47,88,55,143,44,1*78
$GLGSV,3,1,10,68,06,243,33,69,22,290,43,70,12,349,,77,33,105,,3*79
$GLGSV,3,2,10,78,76,009,41,79,30,304,42,81,13,183,38,86,01,019,,3*79
$GLGSV,3,3,10,87,53,058,,88,55,143,42,3*7F
$GBGSV,3,1,11,02,04,106,,05,18,128,,10,06,079,23,12,27,189,42,1*7A
$GBGSV,3,2,11,13,28,088,16,24,73,290,43,25,16,299,48,26,54,125,44,1*7B
$GBGSV,3,3,11,29,11,039,22,33,03,260,35,35,53,074,42,1*43
$GBGSV,3,1,11,02,04,106,,05,18,128,,10,06,079,18,12,27,189,49,3*7B
$GBGSV,3,2,11,13,28,088,22,24,73,290,,25,16,299,,26,54,125,,3*75
$GBGSV,3,3,11,29,11,039,,33,03,260,,35,53,074,,3*41
$GNGLL,5025.4468119,N,01411.3828824,E,211931.00,A,A*71
$GNRMC,211932.00,A,5025.4468297,N,01411.3829119,E,0.024,,241021,,,A,V*10
$GNVTG,,T,,M,0.024,N,0.045,K,A*3A
$GNGGA,211932.00,5025.4468297,N,01411.3829119,E,1,12,1.02,217.328,M,44.078,M,,*46
$GNGSA,A,3,81,87,88,69,79,77,78,,,,,,1.83,1.02,1.51,2*06
$GNGSA,A,3,12,35,25,24,13,26,29,,,,,,1.83,1.02,1.51,4*01
$GLGSV,3,1,10,68,06,243,34,69,22,290,47,70,12,349,,77,33,105,23,1*79
$GLGSV,3,2,10,78,76,009,50,79,30,304,48,81,13,183,34,86,01,019,23,1*7C
$GLGSV,3,3,10,87,53,058,48,88,55,143,44,1*77
$GLGSV,3,1,10,68,06,243,33,69,22,290,43,70,12,349,,77,33,105,,3*79
$GLGSV,3,2,10,78,76,009,41,79,30,304,42,81,13,183,38,86,01,019,,3*79
$GLGSV,3,3,10,87,53,058,,88,55,143,42,3*7F
$GBGSV,3,1,11,02,04,106,,05,18,128,,10,06,079,23,12,27,189,42,1*7A
$GBGSV,3,2,11,13,28,088,14,24,73,290,43,25,16,299,48,26,54,125,44,1*79
$GBGSV,3,3,11,29,11,039,22,33,03,260,34,35,53,074,42,1*42
$GBGSV,3,1,11,02,04,106,,05,18,128,,10,06,079,18,12,27,189,49,3*7B
$GBGSV,3,2,11,13,28,088,22,24,73,290,,25,16,299,,26,54,125,,3*75
$GBGSV,3,3,11,29,11,039,,33,03,260,,35,53,074,,3*41
$GNGLL,5025.4468297,N,01411.3829119,E,211932.00,A,A*71
$GNRMC,211933.00,A,5025.4468330,N,01411.3829300,E,0.023,,241021,,,A,V*10
$GNVTG,,T,,M,0.023,N,0.043,K,A*3B
$GNGGA,211933.00,5025.4468330,N,01411.3829300,E,1,12,1.02,217.398,M,44.078,M,,*4A
$GNGSA,A,3,81,87,88,69,79,77,78,,,,,,1.83,1.02,1.51,2*06
$GNGSA,A,3,12,35,25,24,13,26,29,,,,,,1.83,1.02,1.51,4*01
$GLGSV,3,1,10,68,06,243,34,69,22,290,47,70,12,349,,77,33,105,24,1*7E
$GLGSV,3,2,10,78,76,009,50,79,30,304,48,81,13,183,34,86,01,019,22,1*7D
$GLGSV,3,3,10,87,53,058,48,88,55,143,44,1*77
$GLGSV,3,1,10,68,06,243,33,69,22,290,44,70,12,349,,77,33,105,,3*7E
$GLGSV,3,2,10,78,76,009,41,79,30,304,42,81,13,183,38,86,01,019,,3*79
$GLGSV,3,3,10,87,53,058,,88,55,143,42,3*7F
$GBGSV,3,1,11,02,04,106,,05,18,128,,10,06,079,23,12,27,189,42,1*7A
$GBGSV,3,2,11,13,28,088,13,24,73,290,43,25,16,299,48,26,54,125,44,1*7E
$GBGSV,3,3,11,29,11,039,22,33,03,260,34,35,53,074,42,1*42
$GBGSV,3,1,11,02,04,106,,05,18,128,,10,06,079,18,12,27,189,49,3*7B
$GBGSV,3,2,11,13,28,088,21,24,73,290,,25,16,299,,26,54,125,,3*76
$GBGSV,3,3,11,29,11,039,,33,03,260,,35,53,074,,3*41
$GNGLL,5025.4468330,N,01411.3829300,E,211933.00,A,A*76
$GNRMC,211934.00,A,5025.4468339,N,01411.3829618,E,0.011,,241021,,,A,V*13
$GNVTG,,T,,M,0.011,N,0.021,K,A*3E
$GNGGA,211934.00,5025.4468339,N,01411.3829618,E,1,12,1.02,217.408,M,44.078,M,,*46
$GNGSA,A,3,81,87,88,69,79,77,78,,,,,,1.83,1.02,1.51,2*06
$GNGSA,A,3,12,35,25,24,13,26,29,,,,,,1.83,1.02,1.51,4*01
$GLGSV,3,1,10,68,06,243,35,69,22,290,47,70,12,349,,77,33,105,23,1*78
$GLGSV,3,2,10,78,76,009,50,79,30,304,48,81,13,183,34,86,01,019,22,1*7D
$GLGSV,3,3,10,87,53,058,47,88,55,143,45,1*79
$GLGSV,3,1,10,68,06,243,33,69,22,290,44,70,12,349,,77,33,105,,3*7E
$GLGSV,3,2,10,78,76,009,42,79,30,304,42,81,13,183,38,86,01,019,,3*7A
$GLGSV,3,3,10,87,53,058,,88,55,143,42,3*7F
$GBGSV,3,1,11,02,04,106,,05,18,128,,10,06,079,23,12,27,189,42,1*7A
$GBGSV,3,2,11,13,28,088,12,24,73,290,43,25,16,299,48,26,54,125,44,1*7F
$GBGSV,3,3,11,29,11,039,22,33,03,260,34,35,53,074,42,1*42
$GBGSV,3,1,11,02,04,106,,05,18,128,,10,06,079,18,12,27,189,49,3*7B
$GBGSV,3,2,11,13,28,088,22,24,73,290,,25,16,299,,26,54,125,,3*75
$GBGSV,3,3,11,29,11,039,,33,03,260,,35,53,074,,3*41
$GNGLL,5025.4468339,N,01411.3829618,E,211934.00,A,A*74
$GNRMC,211935.00,A,5025.4468369,N,01411.3830008,E,0.007,,241021,,,A,V*1F
$GNVTG,,T,,M,0.007,N,0.013,K,A*38
$GNGGA,211935.00,5025.4468369,N,01411.3830008,E,1,12,1.02,217.354,M,44.078,M,,*43
$GNGSA,A,3,81,87,88,69,79,77,78,,,,,,1.83,1.02,1.51,2*06
$GNGSA,A,3,12,35,25,24,13,26,29,,,,,,1.83,1.02,1.51,4*01
$GLGSV,3,1,10,68,06,243,35,69,22,290,47,70,12,349,,77,33,105,23,1*78
$GLGSV,3,2,10,78,76,009,50,79,30,304,48,81,13,183,34,86,01,019,21,1*7E
$GLGSV,3,3,10,87,53,058,47,88,55,143,45,1*79
$GLGSV,3,1,10,68,06,243,33,69,22,290,43,70,12,349,,77,33,105,,3*79
$GLGSV,3,2,10,78,76,009,42,79,30,304,42,81,13,183,38,86,01,019,,3*7A
$GLGSV,3,3,10,87,53,058,,88,55,143,42,3*7F
$GBGSV,3,1,11,02,04,106,,05,18,128,,10,06,079,23,12,27,189,42,1*7A
$GBGSV,3,2,11,13,28,088,13,24,73,290,43,25,16,299,48,26,54,125,44,1*7E
$GBGSV,3,3,11,29,11,039,22,33,03,260,34,35,53,074,42,1*42
$GBGSV,3,1,11,02,04,106,,05,18,128,,10,06,079,18,12,27,189,49,3*7B
$GBGSV,3,2,11,13,28,088,22,24,73,290,,25,16,299,,26,54,125,,3*75
$GBGSV,3,3,11,29,11,039,,33,03,260,,35,53,074,,3*41
$GNGLL,5025.4468369,N,01411.3830008,E,211935.00,A,A*7F
$GNRMC,211936.00,A,5025.4468400,N,01411.3830344,E,0.007,,241021,,,A,V*1F
$GNVTG,,T,,M,0.007,N,0.014,K,A*3F
$GNGGA,211936.00,5025.4468400,N,01411.3830344,E,1,12,1.02,217.286,M,44.078,M,,*4D
$GNGSA,A,3,81,87,88,69,79,77,78,,,,,,1.83,1.02,1.51,2*06
$GNGSA,A,3,12,35,25,24,13,26,29,,,,,,1.83,1.02,1.51,4*01
$GLGSV,3,1,10,68,06,243,35,69,22,290,47,70,12,349,,77,33,105,23,1*78
$GLGSV,3,2,10,78,76,009,50,79,30,304,47,81,13,183,34,86,01,019,21,1*71
$GLGSV,3,3,10,87,53,058,47,88,55,143,45,1*79
$GLGSV,3,1,10,68,06,243,33,69,22,290,43,70,12,349,,77,33,105,,3*79
$GLGSV,3,2,10,78,76,009,42,79,30,304,42,81,13,183,38,86,01,019,,3*7A
$GLGSV,3,3,10,87,53,058,,88,55,143,42,3*7F
$GBGSV,3,1,11,02,04,106,,05,18,128,,10,06,079,23,12,27,189,42,1*7A
$GBGSV,3,2,11,13,28,088,13,24,73,290,43,25,16,299,48,26,54,125,44,1*7E
$GBGSV,3,3,11,29,11,039,23,33,03,260,33,35,53,074,42,1*44
$GBGSV,3,1,11,02,04,106,,05,18,128,,10,06,079,18,12,27,189,49,3*7B
$GBGSV,3,2,11,13,28,088,22,24,73,290,,25,16,299,,26,54,125,,3*75
$GBGSV,3,3,11,29,11,039,,33,03,260,,35,53,074,,3*41
$GNGLL,5025.4468400,N,01411.3830344,E,211936.00,A,A*7F
$GNRMC,211937.00,A,5025.4468314,N,01411.3830451,E,0.009,,241021,,,A,V*11
$GNVTG,,T,,M,0.009,N,0.017,K,A*32
$GNGGA,211937.00,5025.4468314,N,01411.3830451,E,1,12,1.02,217.253,M,44.078,M,,*45
$GNGSA,A,3,81,87,88,69,79,77,78,,,,,,1.83,1.02,1.51,2*06
$GNGSA,A,3,12,35,25,24,13,26,29,,,,,,1.83,1.02,1.51,4*01
$GLGSV,3,1,10,68,06,243,35,69,22,290,47,70,12,349,,77,33,105,22,1*79
$GLGSV,3,2,10,78,76,009,50,79,30,304,47,81,13,183,34,86,01,019,21,1*71
$GLGSV,3,3,10,87,53,058,47,88,55,143,45,1*79
$GLGSV,3,1,10,68,06,243,33,69,22,290,43,70,12,349,,77,33,105,,3*79
$GLGSV,3,2,10,78,76,009,42,79,30,304,42,81,13,183,39,86,01,019,,3*7B
$GLGSV,3,3,10,87,53,058,,88,55,143,42,3*7F
$GBGSV,3,1,11,02,04,106,,05,18,128,,10,06,079,23,12,27,189,42,1*7A
$GBGSV,3,2,11,13,28,088,13,24,73,290,43,25,16,299,48,26,54,125,44,1*7E
$GBGSV,3,3,11,29,11,039,23,33,03,260,33,35,53,074,42,1*44
$GBGSV,3,1,11,02,04,106,,05,18,128,,10,06,079,19,12,27,189,49,3*7A
$GBGSV,3,2,11,13,28,088,22,24,73,290,,25,16,299,,26,54,125,,3*75
$GBGSV,3,3,11,29,11,039,,33,03,260,,35,53,074,,3*41
$GNGLL,5025.4468314,N,01411.3830451,E,211937.00,A,A*7F
$GNRMC,211938.00,A,5025.4468253,N,01411.3830590,E,0.014,,241021,,,A,V*1C
$GNVTG,,T,,M,0.014,N,0.026,K,A*3C
$GNGGA,211938.00,5025.4468253,N,01411.3830590,E,1,12,1.02,217.209,M,44.078,M,,*4B
$GNGSA,A,3,81,87,88,69,79,77,78,,,,,,1.82,1.02,1.51,2*07
$GNGSA,A,3,12,35,25,24,13,26,29,,,,,,1.82,1.02,1.51,4*00
$GLGSV,3,1,10,68,06,243,35,69,22,290,47,70,12,349,,77,33,105,22,1*79
$GLGSV,3,2,10,78,76,009,50,79,30,304,47,81,13,183,33,86,01,019,20,1*77
$GLGSV,3,3,10,87,53,058,47,88,55,143,45,1*79
$GLGSV,3,1,10,68,06,243,34,69,22,290,43,70,12,349,,77,33,105,,3*7E
$GLGSV,3,2,10,78,76,009,42,79,30,304,42,81,13,183,38,86,01,019,,3*7A
$GLGSV,3,3,10,87,53,058,,88,55,143,42,3*7F
$GBGSV,3,1,11,02,04,106,,05,18,128,,10,06,079,23,12,27,189,42,1*7A
$GBGSV,3,2,11,13,28,088,13,24,73,290,43,25,16,299,48,26,54,125,44,1*7E
$GBGSV,3,3,11,29,11,039,24,33,03,260,33,35,53,074,42,1*43
$GBGSV,3,1,11,02,04,106,,05,18,128,,10,06,079,19,12,27,189,49,3*7A
$GBGSV,3,2,11,13,28,088,21,24,73,290,,25,16,299,,26,54,125,,3*76
$GBGSV,3,3,11,29,11,039,,33,03,260,,35,53,074,,3*41
$GNGLL,5025.4468253,N,01411.3830590,E,211938.00,A,A*7E
$GNRMC,211939.00,A,5025.4468188,N,01411.3830670,E,0.027,,241021,,,A,V*15
$GNVTG,,T,,M,0.027,N,0.050,K,A*3D
$GNGGA,211939.00,5025.4468188,N,01411.3830670,E,1,12,1.02,217.165,M,44.078,M,,*4B
$GNGSA,A,3,81,87,88,69,79,77,78,,,,,,1.82,1.02,1.51,2*07
$GNGSA,A,3,12,35,25,24,13,26,29,,,,,,1.82,1.02,1.51,4*00
$GLGSV,3,1,10,68,06,243,35,69,22,290,47,70,12,349,,77,33,105,22,1*79
$GLGSV,3,2,10,78,76,009,50,79,30,304,47,81,13,183,33,86,01,019,20,1*77
$GLGSV,3,3,10,87,53,058,47,88,55,143,45,1*79
$GLGSV,3,1,10,68,06,243,34,69,22,290,43,70,12,349,,77,33,105,,3*7E
$GLGSV,3,2,10,78,76,009,42,79,30,304,42,81,13,183,38,86,01,019,,3*7A
$GLGSV,3,3,10,87,53,058,,88,55,143,42,3*7F
$GBGSV,3,1,11,02,04,106,,05,18,128,,10,06,079,23,12,27,189,42,1*7A
$GBGSV,3,2,11,13,28,088,13,24,73,290,43,25,16,299,48,26,54,125,44,1*7E
$GBGSV,3,3,11,29,11,039,24,33,03,260,33,35,53,074,42,1*43
$GBGSV,3,1,11,02,04,106,,05,18,128,,10,06,079,20,12,27,189,49,3*70
$GBGSV,3,2,11,13,28,088,22,24,73,290,,25,16,299,,26,54,125,,3*75
$GBGSV,3,3,11,29,11,039,,33,03,260,,35,53,074,,3*41
$GNGLL,5025.4468188,N,01411.3830670,E,211939.00,A,A*77
$GNRMC,211940.00,A,5025.4468054,N,01411.3830694,E,0.028,,241021,,,A,V*1E
$GNVTG,,T,,M,0.028,N,0.052,K,A*30
$GNGGA,211940.00,5025.4468054,N,01411.3830694,E,1,12,1.02,217.144,M,44.078,M,,*4C
$GNGSA,A,3,81,87,88,69,79,77,78,,,,,,1.82,1.02,1.51,2*07
$GNGSA,A,3,12,35,25,24,13,26,29,,,,,,1.82,1.02,1.51,4*00
$GLGSV,3,1,10,68,06,243,35,69,22,290,47,70,12,349,,77,33,105,22,1*79
$GLGSV,3,2,10,78,76,009,50,79,30,304,48,81,13,183,33,86,01,019,20,1*78
$GLGSV,3,3,10,87,53,058,47,88,55,143,45,1*79
$GLGSV,3,1,10,68,06,243,34,69,22,290,43,70,12,349,,77,33,105,,3*7E
$GLGSV,3,2,10,78,76,009,42,79,30,304,42,81,13,183,38,86,01,019,,3*7A
$GLGSV,3,3,10,87,53,058,,88,55,143,42,3*7F
$GBGSV,3,1,11,02,04,106,,05,18,128,,10,06,079,22,12,27,189,42,1*7B
$GBGSV,3,2,11,13,28,088,12,24,73,290,43,25,16,299,48,26,54,125,44,1*7F
$GBGSV,3,3,11,29,11,039,24,33,03,260,33,35,53,074,42,1*43
$GBGSV,3,1,11,02,04,106,,05,18,128,,10,06,079,20,12,27,189,49,3*70
$GBGSV,3,2,11,13,28,088,22,24,73,290,,25,16,299,,26,54,125,,3*75
$GBGSV,3,3,11,29,11,039,,33,03,260,,35,53,074,,3*41
$GNGLL,5025.4468054,N,01411.3830694,E,211940.00,A,A*73
$GNRMC,211941.00,A,5025.4467885,N,01411.3830611,E,0.020,,241021,,,A,V*11
$GNVTG,,T,,M,0.020,N,0.036,K,A*3A
$GNGGA,211941.00,5025.4467885,N,01411.3830611,E,1,12,1.02,217.147,M,44.078,M,,*48
$GNGSA,A,3,81,87,88,69,79,77,78,,,,,,1.82,1.02,1.51,2*07
$GNGSA,A,3,12,35,25,24,13,26,29,,,,,,1.82,1.02,1.51,4*00
$GLGSV,3,1,10,68,06,243,35,69,22,290,47,70,12,349,20,77,33,105,22,1*7B
$GLGSV,3,2,10,78,76,009,50,79,30,304,48,81,13,183,32,86,01,019,20,1*79
$GLGSV,3,3,10,87,53,058,48,88,55,143,45,1*76
$GLGSV,3,1,10,68,06,243,34,69,22,290,43,70,12,349,,77,33,105,,3*7E
$GLGSV,3,2,10,78,76,009,42,79,30,304,42,81,13,183,38,86,01,019,,3*7A
$GLGSV,3,3,10,87,53,058,,88,55,143,42,3*7F
$GBGSV,3,1,11,02,04,106,,05,18,128,,10,06,079,22,12,27,189,42,1*7B
$GBGSV,3,2,11,13,28,088,12,24,73,290,43,25,16,299,48,26,54,125,44,1*7F
$GBGSV,3,3,11,29,11,039,25,33,03,260,33,35,53,074,42,1*42
$GBGSV,3,1,11,02,04,106,,05,18,128,,10,06,079,20,12,27,189,49,3*70
$GBGSV,3,2,11,13,28,088,21,24,73,290,,25,16,299,,26,54,125,,3*76
$GBGSV,3,3,11,29,11,039,,33,03,260,,35,53,074,,3*41
$GNGLL,5025.4467885,N,01411.3830611,E,211941.00,A,A*74
$GNRMC,211942.00,A,5025.4467690,N,01411.3830457,E,0.044,,241021,,,A,V*1A
$GNVTG,,T,,M,0.044,N,0.081,K,A*34
$GNGGA,211942.00,5025.4467690,N,01411.3830457,E,1,12,1.02,217.170,M,44.078,M,,*45
$GNGSA,A,3,81,87,88,69,79,77,78,,,,,,1.82,1.02,1.51,2*07
$GNGSA,A,3,12,35,25,24,13,26,29,,,,,,1.82,1.02,1.51,4*00
$GLGSV,3,1,10,68,06,243,35,69,22,290,47,70,12,349,21,77,33,105,22,1*7A
$GLGSV,3,2,10,78,76,009,50,79,30,304,48,81,13,183,32,86,01,019,20,1*79
$GLGSV,3,3,10,87,53,058,48,88,55,143,45,1*76
$GLGSV,3,1,10,68,06,243,34,69,22,290,43,70,12,349,,77,33,105,,3*7E
$GLGSV,3,2,10,78,76,009,42,79,30,304,42,81,13,183,38,86,01,019,,3*7A
$GLGSV,3,3,10,87,53,058,,88,55,143,42,3*7F
$GBGSV,3,1,11,02,04,106,,05,18,128,,10,06,079,22,12,27,189,42,1*7B
$GBGSV,3,2,11,13,28,088,13,24,73,290,43,25,16,299,48,26,54,125,44,1*7E
$GBGSV,3,3,11,29,11,039,25,33,03,260,32,35,53,074,42,1*43
$GBGSV,3,1,11,02,04,106,,05,18,128,,10,06,079,19,12,27,189,49,3*7A
$GBGSV,3,2,11,13,28,088,21,24,73,290,,25,16,299,,26,54,125,,3*76
$GBGSV,3,3,11,29,11,039,,33,03,260,,35,53,074,,3*41
$GNGLL,5025.4467690,N,01411.3830457,E,211942.00,A,A*7D
$GNRMC,211943.00,A,5025.4467463,N,01411.3830335,E,0.017,,241021,,,A,V*10
$GNVTG,,T,,M,0.017,N,0.032,K,A*3A
$GNGGA,211943.00,5025.4467463,N,01411.3830335,E,1,12,1.02,217.179,M,44.078,M,,*40
$GNGSA,A,3,81,87,88,69,79,77,78,,,,,,1.82,1.02,1.51,2*07
$GNGSA,A,3,12,35,25,24,13,26,29,,,,,,1.82,1.02,1.51,4*00
$GLGSV,3,1,10,68,06,243,35,69,22,290,47,70,12,349,22,77,33,105,22,1*79
$GLGSV,3,2,10,78,76,009,50,79,30,304,48,81,13,183,32,86,01,019,20,1*79
$GLGSV,3,3,10,87,53,058,48,88,55,143,45,1*76
$GLGSV,3,1,10,68,06,243,34,69,22,290,43,70,12,349,,77,33,105,,3*7E
$GLGSV,3,2,10,78,76,009,42,79,30,304,42,81,13,183,39,86,01,019,,3*7B
$GLGSV,3,3,10,87,53,058,,88,55,143,42,3*7F
$GBGSV,3,1,11,02,04,106,,05,18,128,,10,06,079,22,12,27,189,42,1*7B
$GBGSV,3,2,11,13,28,088,12,24,73,290,43,25,16,299,48,26,54,125,44,1*7F
$GBGSV,3,3,11,29,11,039,25,33,03,260,32,35,53,074,42,1*43
$GBGSV,3,1,11,02,04,106,,05,18,128,,10,06,079,19,12,27,189,49,3*7A
$GBGSV,3,2,11,13,28,088,21,24,73,290,,25,16,299,,26,54,125,,3*76
$GBGSV,3,3,11,29,11,039,,33,03,260,,35,53,074,,3*41
$GNGLL,5025.4467463,N,01411.3830335,E,211943.00,A,A*71
$GNRMC,211944.00,A,5025.4467244,N,01411.3830234,E,0.016,,241021,,,A,V*15
$GNVTG,,T,,M,0.016,N,0.030,K,A*39
$GNGGA,211944.00,5025.4467244,N,01411.3830234,E,1,12,1.02,217.172,M,44.078,M,,*4F
$GNGSA,A,3,81,87,88,69,79,77,78,,,,,,1.82,1.02,1.51,2*07
$GNGSA,A,3,12,35,25,24,13,26,29,,,,,,1.82,1.02,1.51,4*00
$GLGSV,3,1,10,68,06,243,36,69,22,290,47,70,12,349,23,77,33,105,22,1*7B
$GLGSV,3,2,10,78,76,009,50,79,30,304,48,81,13,183,32,86,01,019,21,1*78
$GLGSV,3,3,10,87,53,058,48,88,55,143,45,1*76
$GLGSV,3,1,10,68,06,243,34,69,22,290,43,70,12,349,,77,33,105,,3*7E
$GLGSV,3,2,10,78,76,009,42,79,30,304,42,81,13,183,39,86,01,019,,3*7B
$GLGSV,3,3,10,87,53,058,,88,55,143,41,3*7C
$GBGSV,3,1,11,02,04,106,,05,18,128,,10,06,079,21,12,27,189,42,1*78
$GBGSV,3,2,11,13,28,088,12,24,73,290,44,25,16,299,48,26,54,125,44,1*78
$GBGSV,3,3,11,29,11,039,25,33,03,260,32,35,53,074,42,1*43
$GBGSV,3,1,11,02,04,106,,05,18,128,,10,06,079,20,12,27,189,49,3*70
$GBGSV,3,2,11,13,28,088,21,24,73,290,,25,16,299,,26,54,125,,3*76
$GBGSV,3,3,11,29,11,039,,33,03,260,,35,53,074,,3*41
$GNGLL,5025.4467244,N,01411.3830234,E,211944.00,A,A*75
$GNRMC,211945.00,A,5025.4466982,N,01411.3830042,E,0.032,,241021,,,A,V*11
$GNVTG,,T,,M,0.032,N,0.058,K,A*31
$GNGGA,211945.00,5025.4466982,N,01411.3830042,E,1,12,1.02,217.181,M,44.078,M,,*41
$GNGSA,A,3,81,87,88,69,79,77,78,,,,,,1.82,1.02,1.51,2*07
$GNGSA,A,3,12,35,25,24,13,26,29,,,,,,1.82,1.02,1.51,4*00
$GLGSV,3,1,10,68,06,243,36,69,22,290,47,70,12,349,23,77,33,105,23,1*7A
$GLGSV,3,2,10,78,76,009,50,79,30,304,48,81,13,183,32,86,01,019,21,1*78
$GLGSV,3,3,10,87,53,058,48,88,55,143,45,1*76
$GLGSV,3,1,10,68,06,243,34,69,22,290,43,70,12,349,,77,33,105,,3*7E
$GLGSV,3,2,10,78,76,009,42,79,30,304,42,81,13,183,39,86,01,019,,3*7B
$GLGSV,3,3,10,87,53,058,,88,55,143,42,3*7F
$GBGSV,3,1,11,02,04,106,,05,18,128,,10,06,079,21,12,27,189,42,1*78
$GBGSV,3,2,11,13,28,088,13,24,73,290,44,25,16,299,48,26,54,125,44,1*79
$GBGSV,3,3,11,29,11,039,26,33,03,260,32,35,53,074,42,1*40
$GBGSV,3,1,11,02,04,106,,05,18,128,,10,06,079,20,12,27,189,49,3*70
$GBGSV,3,2,11,13,28,088,21,24,73,290,,25,16,299,,26,54,125,,3*76
$GBGSV,3,3,11,29,11,039,,33,03,260,,35,53,074,,3*41
$GNGLL,5025.4466982,N,01411.3830042,E,211945.00,A,A*77
$GNRMC,211946.00,A,5025.4466765,N,01411.3829839,E,0.023,,241021,,,A,V*19
$GNVTG,,T,,M,0.023,N,0.043,K,A*3B
$GNGGA,211946.00,5025.4466765,N,01411.3829839,E,1,12,1.02,217.194,M,44.078,M,,*4D
$GNGSA,A,3,81,87,88,69,79,77,78,,,,,,1.82,1.02,1.51,2*07
$GNGSA,A,3,12,35,25,24,13,26,29,,,,,,1.82,1.02,1.51,4*00
$GLGSV,3,1,10,68,06,243,36,69,22,290,47,70,12,349,23,77,33,105,23,1*7A
$GLGSV,3,2,10,78,76,009,50,79,30,304,48,81,13,183,32,86,01,019,21,1*78
$GLGSV,3,3,10,87,53,058,48,88,55,143,44,1*77
$GLGSV,3,1,10,68,06,243,34,69,22,290,43,70,12,349,,77,33,105,,3*7E
$GLGSV,3,2,10,78,76,009,42,79,30,304,42,81,13,183,39,86,01,019,,3*7B
$GLGSV,3,3,10,87,53,058,,88,55,143,42,3*7F
$GBGSV,3,1,11,02,04,106,,05,18,128,,10,06,079,21,12,27,189,42,1*78
$GBGSV,3,2,11,13,28,088,13,24,73,290,44,25,16,299,48,26,54,125,44,1*79
$GBGSV,3,3,11,29,11,039,26,33,03,260,32,35,53,074,42,1*40
$GBGSV,3,1,11,02,04,106,,05,18,128,,10,06,079,20,12,27,189,49,3*70
$GBGSV,3,2,11,13,28,088,21,24,73,290,,25,16,299,,26,54,125,,3*76
$GBGSV,3,3,11,29,11,039,,33,03,260,,35,53,074,,3*41
$GNGLL,5025.4466765,N,01411.3829839,E,211946.00,A,A*7F
$GNRMC,211947.00,A,5025.4466569,N,01411.3829630,E,0.029,,241021,,,A,V*1B
$GNVTG,,T,,M,0.029,N,0.054,K,A*37
$GNGGA,211947.00,5025.4466569,N,01411.3829630,E,1,12,1.02,217.207,M,44.078,M,,*4C
$GNGSA,A,3,81,87,88,69,79,77,78,,,,,,1.82,1.02,1.51,2*07
$GNGSA,A,3,12,35,25,24,13,26,29,,,,,,1.82,1.02,1.51,4*00
$GLGSV,3,1,10,68,06,243,36,69,22,290,47,70,12,349,24,77,33,105,24,1*7A
$GLGSV,3,2,10,78,76,009,50,79,30,304,48,81,13,183,32,86,01,019,22,1*7B
$GLGSV,3,3,10,87,53,058,48,88,55,143,44,1*77
$GLGSV,3,1,10,68,06,243,34,69,22,290,43,70,12,349,,77,33,105,,3*7E
$GLGSV,3,2,10,78,76,009,42,79,30,304,42,81,13,183,39,86,01,019,,3*7B
$GLGSV,3,3,10,87,53,058,,88,55,143,42,3*7F
$GBGSV,3,1,11,02,04,106,,05,18,128,,10,06,079,20,12,27,189,42,1*79
$GBGSV,3,2,11,13,28,088,14,24,73,290,44,25,16,299,48,26,54,125,44,1*7E
$GBGSV,3,3,11,29,11,039,26,33,03,260,32,35,53,074,42,1*40
$GBGSV,3,1,11,02,04,106,,05,18,128,,10,06,079,20,12,27,189,49,3*70
$GBGSV,3,2,11,13,28,088,21,24,73,290,,25,16,299,,26,54,125,,3*76
$GBGSV,3,3,11,29,11,039,,33,03,260,,35,53,074,,3*41
$GNGLL,5025.4466569,N,01411.3829630,E,211947.00,A,A*77
$GNRMC,211948.00,A,5025.4466369,N,01411.3829445,E,0.022,,241021,,,A,V*19
$GNVTG,,T,,M,0.022,N,0.041,K,A*38
$GNGGA,211948.00,5025.4466369,N,01411.3829445,E,1,12,1.02,217.212,M,44.078,M,,*41
$GNGSA,A,3,81,87,88,69,79,77,78,,,,,,1.82,1.02,1.51,2*07
$GNGSA,A,3,12,35,25,24,13,26,29,,,,,,1.82,1.02,1.51,4*00
$GLGSV,3,1,10,68,06,243,36,69,22,290,47,70,12,349,24,77,33,105,25,1*7B
$GLGSV,3,2,10,78,76,009,50,79,30,304,48,81,13,183,32,86,01,019,22,1*7B
$GLGSV,3,3,10,87,53,058,48,88,55,143,44,1*77
$GLGSV,3,1,10,68,06,243,34,69,22,290,43,70,12,349,,77,33,105,,3*7E
$GLGSV,3,2,10,78,76,009,43,79,30,304,42,81,13,183,39,86,01,019,,3*7A
$GLGSV,3,3,10,87,53,058,,88,55,143,42,3*7F
$GBGSV,3,1,11,02,04,106,,05,18,128,,10,06,079,20,12,27,189,42,1*79
$GBGSV,3,2,11,13,28,088,14,24,73,290,44,25,16,299,48,26,54,125,44,1*7E
$GBGSV,3,3,11,29,11,039,26,33,03,260,32,35,53,074,42,1*40
$GBGSV,3,1,11,02,04,106,,05,18,128,,10,06,079,19,12,27,189,49,3*7A
$GBGSV,3,2,11,13,28,088,21,24,73,290,,25,16,299,,26,54,125,,3*76
$GBGSV,3,3,11,29,11,039,,33,03,260,,35,53,074,,3*41
$GNGLL,5025.4466369,N,01411.3829445,E,211948.00,A,A*7E
$GNRMC,211949.00,A,5025.4466146,N,01411.3829175,E,0.017,,241021,,,A,V*17
$GNVTG,,T,,M,0.017,N,0.031,K,A*39
$GNGGA,211949.00,5025.4466146,N,01411.3829175,E,1,12,1.02,217.240,M,44.078,M,,*4E
$GNGSA,A,3,81,87,88,69,79,77,78,,,,,,1.82,1.02,1.51,2*07
$GNGSA,A,3,12,35,25,24,13,26,29,,,,,,1.82,1.02,1.51,4*00
$GLGSV,3,1,10,68,06,243,35,69,22,290,47,70,12,349,24,77,33,105,25,1*78
$GLGSV,3,2,10,78,76,009,50,79,30,304,48,81,13,183,32,86,01,019,22,1*7B
$GLGSV,3,3,10,87,53,058,48,88,55,143,44,1*77
$GLGSV,3,1,10,68,06,243,35,69,22,290,43,70,12,349,,77,33,105,,3*7F
$GLGSV,3,2,10,78,76,009,43,79,30,304,42,81,13,183,39,86,01,019,,3*7A
$GLGSV,3,3,10,87,53,058,,88,55,143,42,3*7F
$GBGSV,3,1,11,02,04,106,,05,18,128,,10,06,079,20,12,27,189,42,1*79
$GBGSV,3,2,11,13,28,088,14,24,73,290,44,25,16,299,48,26,54,125,44,1*7E
$GBGSV,3,3,11,29,11,039,26,33,03,260,32,35,53,074,42,1*40
$GBGSV,3,1,11,02,04,106,,05,18,128,,10,06,079,20,12,27,189,49,3*70
$GBGSV,3,2,11,13,28,088,20,24,73,290,,25,16,299,,26,54,125,,3*77
$GBGSV,3,3,11,29,11,039,,33,03,260,,35,53,074,,3*41
$GNGLL,5025.4466146,N,01411.3829175,E,211949.00,A,A*76
$GNRMC,211950.00,A,5025.4465925,N,01411.3828910,E,0.008,,241021,,,A,V*15
$GNVTG,,T,,M,0.008,N,0.016,K,A*32
$GNGGA,211950.00,5025.4465925,N,01411.3828910,E,1,12,1.02,217.272,M,44.078,M,,*43
$GNGSA,A,3,81,87,88,69,79,77,78,,,,,,1.82,1.02,1.51,2*07
$GNGSA,A,3,12,35,25,24,13,26,29,,,,,,1.82,1.02,1.51,4*00
$GLGSV,3,1,10,68,06,243,35,69,22,290,47,70,12,349,25,77,33,105,25,1*79
$GLGSV,3,2,10,78,76,009,50,79,30,304,48,81,13,183,32,86,01,019,23,1*7A
$GLGSV,3,3,10,87,53,058,48,88,55,143,44,1*77
$GLGSV,3,1,10,68,06,243,35,69,22,290,43,70,12,349,,77,33,105,,3*7F
$GLGSV,3,2,10,78,76,009,42,79,30,304,42,81,13,183,39,86,01,019,,3*7B
$GLGSV,3,3,10,87,53,058,,88,55,143,42,3*7F
$GBGSV,3,1,11,02,04,106,,05,18,128,,10,06,079,20,12,27,189,42,1*79
$GBGSV,3,2,11,13,28,088,15,24,73,290,44,25,16,299,48,26,54,125,44,1*7F
$GBGSV,3,3,11,29,11,039,26,33,03,260,32,35,53,074,42,1*40
$GBGSV,3,1,11,02,04,106,,05,18,128,,10,06,079,21,12,27,189,49,3*71
$GBGSV,3,2,11,13,28,088,20,24,73,290,,25,16,299,,26,54,125,,3*77
$GBGSV,3,3,11,29,11,039,,33,03,260,,35,53,074,,3*41
$GNGLL,5025.4465925,N,01411.3828910,E,211950.00,A,A*7A
$GNRMC,211951.00,A,5025.4465673,N,01411.3828590,E,0.035,,241021,,,A,V*12
$GNVTG,,T,,M,0.035,N,0.065,K,A*38
$GNGGA,211951.00,5025.4465673,N,01411.3828590,E,1,12,1.02,217.316,M,44.078,M,,*49
$GNGSA,A,3,81,87,88,69,79,77,78,,,,,,1.82,1.02,1.51,2*07
$GNGSA,A,3,12,35,25,24,13,26,29,,,,,,1.82,1.02,1.51,4*00
$GLGSV,3,1,10,68,06,243,36,69,22,290,47,70,12,349,25,77,33,105,25,1*7A
$GLGSV,3,2,10,78,76,009,50,79,30,304,48,81,13,183,31,86,01,019,22,1*78
$GLGSV,3,3,10,87,53,058,48,88,55,143,44,1*77
$GLGSV,3,1,10,68,06,243,35,69,22,290,43,70,12,349,,77,33,105,,3*7F
$GLGSV,3,2,10,78,76,009,42,79,30,304,42,81,13,183,39,86,01,019,,3*7B
$GLGSV,3,3,10,87,53,058,,88,55,143,42,3*7F
$GBGSV,3,1,11,02,04,106,,05,18,128,,10,06,079,20,12,27,189,42,1*79
$GBGSV,3,2,11,13,28,088,15,24,73,290,44,25,16,299,48,26,54,125,44,1*7F
$GBGSV,3,3,11,29,11,039,26,33,03,260,32,35,53,074,42,1*40
$GBGSV,3,1,11,02,04,106,,05,18,128,,10,06,079,21,12,27,189,49,3*71
$GBGSV,3,2,11,13,28,088,20,24,73,290,,25,16,299,,26,54,125,,3*77
$GBGSV,3,3,11,29,11,039,,33,03,260,,35,53,074,,3*41
$GNGLL,5025.4465673,N,01411.3828590,E,211951.00,A,A*73
$GNRMC,211952.00,A,5025.4465434,N,01411.3828221,E,0.030,,241021,,,A,V*18
$GNVTG,,T,,M,0.030,N,0.056,K,A*3D
$GNGGA,211952.00,5025.4465434,N,01411.3828221,E,1,12,1.02,217.365,M,44.078,M,,*42
$GNGSA,A,3,81,87,88,69,79,77,78,,,,,,1.82,1.02,1.51,2*07
$GNGSA,A,3,12,35,25,24,13,26,29,,,,,,1.82,1.02,1.51,4*00
$GLGSV,3,1,10,68,06,243,36,69,22,290,47,70,12,349,25,77,33,105,25,1*7A
$GLGSV,3,2,10,78,76,009,50,79,30,304,48,81,13,183,31,86,01,019,22,1*78
$GLGSV,3,3,10,87,53,058,48,88,55,143,44,1*77
$GLGSV,3,1,10,68,06,243,34,69,22,290,43,70,12,349,,77,33,105,,3*7E
$GLGSV,3,2,10,78,76,009,42,79,30,304,42,81,13,183,39,86,01,019,,3*7B
$GLGSV,3,3,10,87,53,058,,88,55,143,42,3*7F
$GBGSV,3,1,11,02,04,106,,05,18,128,,10,06,079,20,12,27,189,42,1*79
$GBGSV,3,2,11,13,28,088,15,24,73,290,44,25,16,299,48,26,54,125,44,1*7F
$GBGSV,3,3,11,29,11,039,26,33,03,260,32,35,53,074,42,1*40
$GBGSV,3,1,11,02,04,106,,05,18,128,,10,06,079,21,12,27,189,49,3*71
$GBGSV,3,2,11,13,28,088,20,24,73,290,,25,16,299,,26,54,125,,3*77
$GBGSV,3,3,11,29,11,039,,33,03,260,,35,53,074,,3*41
$GNGLL,5025.4465434,N,01411.3828221,E,211952.00,A,A*7C
$GNRMC,211953.00,A,5025.4465188,N,01411.3827921,E,0.024,,241021,,,A,V*1A
$GNVTG,,T,,M,0.024,N,0.044,K,A*3B
$GNGGA,211953.00,5025.4465188,N,01411.3827921,E,1,12,1.02,217.392,M,44.078,M,,*4D
$GNGSA,A,3,81,87,88,69,79,77,78,,,,,,1.82,1.02,1.51,2*07
$GNGSA,A,3,12,35,25,24,13,26,29,,,,,,1.82,1.02,1.51,4*00
$GLGSV,3,1,10,68,06,243,36,69,22,290,47,70,12,349,25,77,33,105,24,1*7B
$GLGSV,3,2,10,78,76,009,50,79,30,304,48,81,13,183,31,86,01,019,22,1*78
$GLGSV,3,3,10,87,53,058,48,88,55,143,44,1*77
$GLGSV,3,1,10,68,06,243,35,69,22,290,43,70,12,349,,77,33,105,,3*7F
$GLGSV,3,2,10,78,76,009,42,79,30,304,42,81,13,183,39,86,01,019,,3*7B
$GLGSV,3,3,10,87,53,058,,88,55,143,42,3*7F
$GBGSV,3,1,11,02,04,106,,05,18,128,,10,06,079,19,12,27,189,42,1*73
$GBGSV,3,2,11,13,28,088,15,24,73,290,44,25,16,299,48,26,54,125,44,1*7F
$GBGSV,3,3,11,29,11,039,26,33,03,260,32,35,53,074,42,1*40
$GBGSV,3,1,11,02,04,106,,05,18,128,,10,06,079,20,12,27,189,49,3*70
$GBGSV,3,2,11,13,28,088,20,24,73,290,,25,16,299,,26,54,125,,3*77
$GBGSV,3,3,11,29,11,039,,33,03,260,,35,53,074,,3*41
$GNGLL,5025.4465188,N,01411.3827921,E,211953.00,A,A*7B
$GNRMC,211954.00,A,5025.4464525,N,01411.3827887,E,0.056,,241021,,,D,V*12
$GNVTG,,T,,M,0.056,N,0.104,K,D*3E
$GNGGA,211954.00,5025.4464525,N,01411.3827887,E,2,12,1.22,217.413,M,44.078,M,1.0,0084*69
$GNGSA,A,3,81,87,88,69,79,77,78,,,,,,2.16,1.22,1.78,2*00
$GNGSA,A,3,12,35,25,24,13,26,29,,,,,,2.16,1.22,1.78,4*07
$GLGSV,3,1,10,68,06,243,36,69,22,290,47,70,12,349,24,77,33,105,24,1*7A
$GLGSV,3,2,10,78,76,009,50,79,30,304,48,81,13,183,31,86,01,019,22,1*78
$GLGSV,3,3,10,87,53,057,48,88,55,143,44,1*78
$GLGSV,3,1,10,68,06,243,35,69,22,290,43,70,12,349,,77,33,105,,3*7F
$GLGSV,3,2,10,78,76,009,42,79,30,304,42,81,13,183,39,86,01,019,,3*7B
$GLGSV,3,3,10,87,53,057,,88,55,143,42,3*70
$GBGSV,3,1,11,02,04,106,,05,18,128,,10,06,079,20,12,27,189,42,1*79
$GBGSV,3,2,11,13,28,088,15,24,73,290,44,25,16,299,48,26,54,125,44,1*7F
$GBGSV,3,3,11,29,11,039,26,33,03,260,32,35,53,074,42,1*40
$GBGSV,3,1,11,02,04,106,,05,18,128,,10,06,079,20,12,27,189,49,3*70
$GBGSV,3,2,11,13,28,088,20,24,73,290,,25,16,299,,26,54,125,,3*77
$GBGSV,3,3,11,29,11,039,,33,03,260,,35,53,074,,3*41
$GNGLL,5025.4464525,N,01411.3827887,E,211954.00,A,D*76
$GNRMC,211955.00,A,5025.4464277,N,01411.3827632,E,0.022,,241021,,,F,V*12
$GNVTG,,T,,M,0.022,N,0.040,K,D*3C
$GNGGA,211955.00,5025.4464277,N,01411.3827632,E,5,12,1.22,217.435,M,44.078,M,1.0,0084*6B
$GNGSA,A,3,81,87,88,69,79,77,78,,,,,,2.16,1.22,1.78,2*00
$GNGSA,A,3,12,35,25,24,13,26,29,,,,,,2.16,1.22,1.78,4*07
$GLGSV,3,1,10,68,06,243,36,69,22,290,47,70,12,349,25,77,33,105,23,1*7C
$GLGSV,3,2,10,78,76,009,50,79,30,304,48,81,13,183,31,86,01,019,21,1*7B
$GLGSV,3,3,10,87,53,057,48,88,55,143,44,1*78
$GLGSV,3,1,10,68,06,243,35,69,22,290,43,70,12,349,,77,33,105,,3*7F
$GLGSV,3,2,10,78,76,009,42,79,30,304,42,81,13,183,39,86,01,019,,3*7B
$GLGSV,3,3,10,87,53,057,,88,55,143,42,3*70
$GBGSV,3,1,11,02,04,106,,05,18,128,,10,06,079,20,12,27,189,42,1*79
$GBGSV,3,2,11,13,28,088,15,24,73,290,44,25,16,299,48,26,54,125,44,1*7F
$GBGSV,3,3,11,29,11,039,27,33,03,260,32,35,53,074,42,1*41
$GBGSV,3,1,11,02,04,106,,05,18,128,,10,06,079,20,12,27,189,49,3*70
$GBGSV,3,2,11,13,28,088,19,24,73,290,,25,16,299,,26,54,125,,3*7D
$GBGSV,3,3,11,29,11,039,,33,03,260,,35,53,074,,3*41
$GNGLL,5025.4464277,N,01411.3827632,E,211955.00,A,D*77
$GNRMC,211956.00,A,5025.4463967,N,01411.3827475,E,0.008,,241021,,,F,V*15
$GNVTG,,T,,M,0.008,N,0.015,K,D*34
$GNGGA,211956.00,5025.4463967,N,01411.3827475,E,5,12,1.21,217.431,M,44.078,M,1.0,0084*63
$GNGSA,A,3,81,87,88,69,79,77,78,,,,,,2.16,1.21,1.78,2*03
$GNGSA,A,3,12,35,25,24,13,26,29,,,,,,2.16,1.21,1.78,4*04
$GLGSV,3,1,10,68,06,243,35,69,22,290,47,70,12,349,24,77,33,105,23,1*7E
$GLGSV,3,2,10,78,76,009,50,79,30,304,47,81,13,183,31,86,01,019,20,1*75
$GLGSV,3,3,10,87,53,057,48,88,55,143,44,1*78
$GLGSV,3,1,10,68,06,243,35,69,22,290,43,70,12,349,,77,33,105,,3*7F
$GLGSV,3,2,10,78,76,009,42,79,30,304,42,81,13,183,39,86,01,019,,3*7B
$GLGSV,3,3,10,87,53,057,,88,55,143,42,3*70
$GBGSV,3,1,11,02,04,106,,05,18,128,,10,06,079,20,12,27,189,42,1*79
$GBGSV,3,2,11,13,28,088,14,24,73,290,43,25,16,299,48,26,54,125,44,1*79
$GBGSV,3,3,11,29,11,039,27,33,03,260,32,35,53,074,42,1*41
$GBGSV,3,1,11,02,04,106,,05,18,128,,10,06,079,20,12,27,189,49,3*70
$GBGSV,3,2,11,13,28,088,18,24,73,290,,25,16,299,,26,54,125,,3*7C
$GBGSV,3,3,11,29,11,039,,33,03,260,,35,53,074,,3*41
$GNGLL,5025.4463967,N,01411.3827475,E,211956.00,A,D*78
$GNRMC,211957.00,A,5025.4463676,N,01411.3827325,E,0.024,,241021,,,F,V*17
$GNVTG,,T,,M,0.024,N,0.044,K,D*3E
$GNGGA,211957.00,5025.4463676,N,01411.3827325,E,5,12,1.21,217.408,M,44.078,M,1.0,0084*65
$GNGSA,A,3,81,87,88,69,79,77,78,,,,,,2.16,1.21,1.78,2*03
$GNGSA,A,3,12,35,25,24,13,26,29,,,,,,2.16,1.21,1.78,4*04
$GLGSV,3,1,10,68,06,243,35,69,22,290,47,70,12,349,24,77,33,105,22,1*7F
$GLGSV,3,2,10,78,76,009,50,79,30,304,47,81,13,183,31,86,01,019,18,1*7E
$GLGSV,3,3,10,87,53,057,48,88,55,143,44,1*78
$GLGSV,3,1,10,68,06,243,34,69,22,290,43,70,12,349,,77,33,105,,3*7E
$GLGSV,3,2,10,78,76,009,42,79,30,304,42,81,13,183,39,86,01,019,,3*7B
$GLGSV,3,3,10,87,53,057,,88,55,143,42,3*70
$GBGSV,3,1,11,02,04,106,,05,18,128,,10,06,079,20,12,27,189,42,1*79
$GBGSV,3,2,11,13,28,088,14,24,73,290,43,25,16,299,48,26,54,125,44,1*79
$GBGSV,3,3,11,29,11,039,27,33,03,260,32,35,53,074,42,1*41
$GBGSV,3,1,11,02,04,106,,05,18,128,,10,06,079,21,12,27,189,49,3*71
$GBGSV,3,2,11,13,28,088,18,24,73,290,,25,16,299,,26,54,125,,3*7C
$GBGSV,3,3,11,29,11,039,,33,03,260,,35,53,074,,3*41
$GNGLL,5025.4463676,N,01411.3827325,E,211957.00,A,D*74
$GNRMC,211958.00,A,5025.4463372,N,01411.3827219,E,0.015,,241021,,,F,V*15
$GNVTG,,T,,M,0.015,N,0.027,K,D*39
$GNGGA,211958.00,5025.4463372,N,01411.3827219,E,5,12,1.21,217.369,M,44.078,M,1.0,0084*65
$GNGSA,A,3,81,87,88,69,79,77,78,,,,,,2.16,1.21,1.78,2*03
$GNGSA,A,3,12,35,25,24,13,26,29,,,,,,2.16,1.21,1.78,4*04
$GLGSV,3,1,10,68,06,243,34,69,22,290,47,70,12,349,24,77,33,105,21,1*7D
$GLGSV,3,2,10,78,76,009,50,79,30,304,47,81,13,183,32,86,01,019,17,1*72
$GLGSV,3,3,10,87,53,057,48,88,55,143,44,1*78
$GLGSV,3,1,10,68,06,243,34,69,22,290,43,70,12,349,,77,33,105,,3*7E
$GLGSV,3,2,10,78,76,009,42,79,30,304,42,81,13,183,39,86,01,019,,3*7B
$GLGSV,3,3,10,87,53,057,,88,55,143,42,3*70
$GBGSV,3,1,11,02,04,106,,05,18,128,,10,06,079,20,12,27,189,42,1*79
$GBGSV,3,2,11,13,28,088,14,24,73,290,43,25,16,299,48,26,54,125,44,1*79
$GBGSV,3,3,11,29,11,039,27,33,03,260,32,35,53,074,42,1*41
$GBGSV,3,1,11,02,04,106,,05,18,128,,10,06,079,21,12,27,189,49,3*71
$GBGSV,3,2,11,13,28,088,18,24,73,290,,25,16,299,,26,54,125,,3*7C
$GBGSV,3,3,11,29,11,039,,33,03,260,,35,53,074,,3*41
$GNGLL,5025.4463372,N,01411.3827219,E,211958.00,A,D*74
$GNRMC,211959.00,A,5025.4463042,N,01411.3827098,E,0.010,,241021,,,F,V*1A
$GNVTG,,T,,M,0.010,N,0.018,K,D*30
$GNGGA,211959.00,5025.4463042,N,01411.3827098,E,5,12,1.21,217.355,M,44.078,M,1.0,0084*60
$GNGSA,A,3,81,87,88,69,79,77,78,,,,,,2.16,1.21,1.78,2*03
$GNGSA,A,3,12,35,25,24,13,26,29,,,,,,2.16,1.21,1.78,4*04
$GLGSV,3,1,10,68,06,243,34,69,22,290,47,70,12,349,24,77,33,105,21,1*7D
$GLGSV,3,2,10,78,76,009,50,79,30,304,47,81,13,183,31,86,01,019,16,1*70
$GLGSV,3,3,10,87,53,057,48,88,55,143,44,1*78
$GLGSV,3,1,10,68,06,243,34,69,22,290,43,70,12,349,,77,33,105,,3*7E
$GLGSV,3,2,10,78,76,009,42,79,30,304,42,81,13,183,39,86,01,019,,3*7B
$GLGSV,3,3,10,87,53,057,,88,55,143,42,3*70
$GBGSV,3,1,11,02,04,106,,05,18,128,,10,06,079,20,12,27,189,42,1*79
$GBGSV,3,2,11,13,28,088,,24,73,290,43,25,16,299,48,26,54,125,44,1*7C
$GBGSV,3,3,11,29,11,039,27,33,03,260,32,35,53,074,42,1*41
$GBGSV,3,1,11,02,04,106,,05,18,128,,10,06,079,21,12,27,189,49,3*71
$GBGSV,3,2,11,13,28,088,17,24,73,290,,25,16,299,,26,54,125,,3*73
$GBGSV,3,3,11,29,11,039,,33,03,260,,35,53,074,,3*41
$GNGLL,5025.4463042,N,01411.3827098,E,211959.00,A,D*7E
$GNRMC,212000.00,A,5025.4462732,N,01411.3826999,E,0.008,,241021,,,F,V*1D
$GNVTG,,T,,M,0.008,N,0.014,K,D*35
$GNGGA,212000.00,5025.4462732,N,01411.3826999,E,5,12,1.21,217.365,M,44.078,M,1.0,0084*6D
$GNGSA,A,3,81,87,88,69,79,77,78,,,,,,2.16,1.21,1.78,2*03
$GNGSA,A,3,12,35,25,24,13,26,29,,,,,,2.16,1.21,1.78,4*04
$GLGSV,3,1,10,68,06,243,34,69,22,290,47,70,12,349,24,77,33,105,20,1*7C
$GLGSV,3,2,10,78,76,009,50,79,30,304,47,81,13,183,32,86,01,019,15,1*70
$GLGSV,3,3,10,87,53,057,49,88,55,143,44,1*79
$GLGSV,3,1,10,68,06,243,34,69,22,290,43,70,12,349,,77,33,105,,3*7E
$GLGSV,3,2,10,78,76,009,42,79,30,304,42,81,13,183,39,86,01,019,,3*7B
$GLGSV,3,3,10,87,53,057,,88,55,143,42,3*70
$GBGSV,3,1,11,02,04,106,,05,18,128,,10,06,079,20,12,27,189,42,1*79
$GBGSV,3,2,11,13,28,088,24,24,73,290,43,25,16,299,48,26,54,125,44,1*7A
$GBGSV,3,3,11,29,11,039,27,33,03,260,32,35,53,074,42,1*41
$GBGSV,3,1,11,02,04,106,,05,18,128,,10,06,079,20,12,27,189,49,3*70
$GBGSV,3,2,11,13,28,088,16,24,73,290,,25,16,299,,26,54,125,,3*72
$GBGSV,3,3,11,29,11,039,,33,03,260,,35,53,074,,3*41
$GNGLL,5025.4462732,N,01411.3826999,E,212000.00,A,D*70
$GNRMC,212001.00,A,5025.4462432,N,01411.3826948,E,0.027,,241021,,,F,V*1E
$GNVTG,,T,,M,0.027,N,0.051,K,D*39
$GNGGA,212001.00,5025.4462432,N,01411.3826948,E,5,12,1.21,217.344,M,44.078,M,1.0,0084*60
$GNGSA,A,3,81,87,88,69,79,77,78,,,,,,2.16,1.21,1.78,2*03
$GNGSA,A,3,12,35,25,24,13,26,29,,,,,,2.16,1.21,1.78,4*04
$GLGSV,3,1,10,68,06,243,34,69,22,290,47,70,12,349,24,77,33,105,20,1*7C
$GLGSV,3,2,10,78,76,009,50,79,30,304,47,81,13,183,32,86,01,019,17,1*72
$GLGSV,3,3,10,87,53,057,49,88,55,143,44,1*79
$GLGSV,3,1,10,68,06,243,34,69,22,290,43,70,12,349,,77,33,105,,3*7E
$GLGSV,3,2,10,78,76,009,42,79,30,304,42,81,13,183,39,86,01,019,,3*7B
$GLGSV,3,3,10,87,53,057,,88,55,143,42,3*70
$GBGSV,3,1,11,02,04,106,,05,18,128,,10,06,079,20,12,27,189,42,1*79
$GBGSV,3,2,11,13,28,088,24,24,73,290,43,25,16,299,48,26,54,125,44,1*7A
$GBGSV,3,3,11,29,11,039,26,33,03,260,32,35,53,074,42,1*40
$GBGSV,3,1,11,02,04,106,,05,18,128,,10,06,079,19,12,27,189,49,3*7A
$GBGSV,3,2,11,13,28,088,16,24,73,290,,25,16,299,,26,54,125,,3*72
$GBGSV,3,3,11,29,11,039,,33,03,260,,35,53,074,,3*41
$GNGLL,5025.4462432,N,01411.3826948,E,212001.00,A,D*7E
$GNRMC,212002.00,A,5025.4462124,N,01411.3826886,E,0.024,,241021,,,F,V*1F
$GNVTG,,T,,M,0.024,N,0.045,K,D*3F
$GNGGA,212002.00,5025.4462124,N,01411.3826886,E,5,12,0.80,217.305,M,44.078,M,1.0,0084*6D
$GNGSA,A,3,81,87,88,69,79,77,78,,,,,,1.37,0.80,1.11,2*06
$GNGSA,A,3,12,35,25,24,13,26,29,,,,,,1.37,0.80,1.11,4*01
$GLGSV,3,1,10,68,06,243,34,69,22,290,47,70,12,349,24,77,33,105,19,1*76
$GLGSV,3,2,10,78,76,009,50,79,30,304,47,81,13,183,32,86,01,019,19,1*7C
$GLGSV,3,3,10,87,53,057,49,88,55,143,44,1*79
$GLGSV,3,1,10,68,06,243,34,69,22,290,42,70,12,349,,77,33,105,,3*7F
$GLGSV,3,2,10,78,76,009,42,79,30,304,42,81,13,183,39,86,01,019,,3*7B
$GLGSV,3,3,10,87,53,057,,88,55,143,42,3*70
$GBGSV,3,1,11,02,04,106,,05,18,128,,10,06,079,19,12,27,189,42,1*73
$GBGSV,3,2,11,13,28,088,23,24,73,290,43,25,16,299,48,26,54,125,44,1*7D
$GBGSV,3,3,11,29,11,039,27,33,03,260,32,35,53,074,42,1*41
$GBGSV,3,1,11,02,04,106,,05,18,128,,10,06,079,18,12,27,189,49,3*7B
$GBGSV,3,2,11,13,28,088,15,24,73,290,,25,16,299,,26,54,125,,3*71
$GBGSV,3,3,11,29,11,039,,33,03,260,,35,53,074,,3*41
$GNGLL,5025.4462124,N,01411.3826886,E,212002.00,A,D*7C
$GNRMC,212003.00,A,5025.4461702,N,01411.3826659,E,0.013,,241021,,,F,V*17
$GNVTG,,T,,M,0.013,N,0.024,K,D*3C
$GNGGA,212003.00,5025.4461702,N,01411.3826659,E,5,12,0.80,217.287,M,44.078,M,1.0,0084*6A
$GNGSA,A,3,81,87,88,69,79,77,78,,,,,,1.37,0.80,1.11,2*06
$GNGSA,A,3,12,35,25,24,13,26,29,,,,,,1.37,0.80,1.11,4*01
$GLGSV,3,1,10,68,06,243,34,69,22,290,47,70,12,349,23,77,33,105,18,1*70
$GLGSV,3,2,10,78,76,009,50,79,30,304,47,81,13,183,32,86,01,019,21,1*77
$GLGSV,3,3,10,87,53,057,49,88,55,143,44,1*79
$GLGSV,3,1,10,68,06,243,34,69,22,290,42,70,12,349,,77,33,105,17,3*79
$GLGSV,3,2,10,78,76,009,42,79,30,304,42,81,13,183,39,86,01,019,,3*7B
$GLGSV,3,3,10,87,53,057,,88,55,143,42,3*70
$GBGSV,3,1,11,02,04,106,,05,18,128,,10,06,079,19,12,27,189,42,1*73
$GBGSV,3,2,11,13,28,088,23,24,73,290,43,25,16,299,48,26,54,125,44,1*7D
$GBGSV,3,3,11,29,11,039,27,33,03,260,33,35,53,074,42,1*40
$GBGSV,3,1,11,02,04,106,,05,18,128,,10,06,079,18,12,27,189,49,3*7B
$GBGSV,3,2,11,13,28,088,14,24,73,290,,25,16,299,,26,54,125,,3*70
$GBGSV,3,3,11,29,11,039,,33,03,260,,35,53,074,,3*41
$GNGLL,5025.4461702,N,01411.3826659,E,212003.00,A,D*70
$GNRMC,212004.00,A,5025.4461237,N,01411.3826524,E,0.023,,241021,,,F,V*19
$GNVTG,,T,,M,0.023,N,0.042,K,D*3F
$GNGGA,212004.00,5025.4461237,N,01411.3826524,E,5,12,0.80,217.233,M,44.078,M,1.0,0084*68
$GNGSA,A,3,81,87,88,69,79,77,78,,,,,,1.37,0.80,1.11,2*06
$GNGSA,A,3,12,35,25,24,13,26,29,,,,,,1.37,0.80,1.11,4*01
$GLGSV,3,1,10,68,06,243,34,69,22,290,47,70,12,349,23,77,33,105,17,1*7F
$GLGSV,3,2,10,78,76,009,50,79,30,304,47,81,13,183,32,86,01,019,23,1*75
$GLGSV,3,3,10,87,53,057,49,88,55,143,44,1*79
$GLGSV,3,1,10,68,06,243,34,69,22,290,42,70,12,349,,77,33,105,17,3*79
$GLGSV,3,2,10,78,76,009,42,79,30,304,42,81,13,183,39,86,01,019,,3*7B
$GLGSV,3,3,10,87,53,057,,88,55,143,42,3*70
$GBGSV,3,1,11,02,04,106,,05,18,128,,10,06,079,18,12,27,189,42,1*72
$GBGSV,3,2,11,13,28,088,23,24,73,290,43,25,16,299,48,26,54,125,44,1*7D
$GBGSV,3,3,11,29,11,039,27,33,03,260,33,35,53,074,42,1*40
$GBGSV,3,1,11,02,04,106,,05,18,128,,10,06,079,18,12,27,189,49,3*7B
$GBGSV,3,2,11,13,28,088,13,24,73,290,,25,16,299,,26,54,125,,3*77
$GBGSV,3,3,11,29,11,039,,33,03,260,,35,53,074,,3*41
$GNGLL,5025.4461237,N,01411.3826524,E,212004.00,A,D*7D
$GNRMC,212005.00,A,5025.4460822,N,01411.3826485,E,0.005,,241021,,,F,V*19
$GNVTG,,T,,M,0.005,N,0.010,K,D*3C
$GNGGA,212005.00,5025.4460822,N,01411.3826485,E,5,12,0.80,217.161,M,44.078,M,1.0,0084*68
$GNGSA,A,3,81,87,88,69,79,77,78,,,,,,1.37,0.80,1.11,2*06
$GNGSA,A,3,12,35,25,24,13,26,29,,,,,,1.37,0.80,1.11,4*01
$GLGSV,3,1,10,68,06,243,34,69,22,290,47,70,12,349,23,77,33,105,17,1*7F
$GLGSV,3,2,10,78,76,009,50,79,30,304,47,81,13,183,32,86,01,019,25,1*73
$GLGSV,3,3,10,87,53,057,49,88,55,143,44,1*79
$GLGSV,3,1,10,68,06,243,34,69,22,290,42,70,12,349,,77,33,105,18,3*76
$GLGSV,3,2,10,78,76,009,42,79,30,304,42,81,13,183,38,86,01,019,,3*7A
$GLGSV,3,3,10,87,53,057,,88,55,143,42,3*70
$GBGSV,3,1,11,02,04,106,,05,18,128,,10,06,079,18,12,27,189,42,1*72
$GBGSV,3,2,11,13,28,088,24,24,73,290,43,25,16,299,48,26,54,125,44,1*7A
$GBGSV,3,3,11,29,11,039,27,33,03,260,33,35,53,074,42,1*40
$GBGSV,3,1,11,02,04,106,,05,18,128,,10,06,079,17,12,27,189,49,3*74
$GBGSV,3,2,11,13,28,088,10,24,73,290,,25,16,299,,26,54,125,,3*74
$GBGSV,3,3,11,29,11,039,,33,03,260,,35,53,074,,3*41
$GNGLL,5025.4460822,N,01411.3826485,E,212005.00,A,D*79
$GNRMC,212006.00,A,5025.4460459,N,01411.3826437,E,0.005,,241021,,,F,V*13
$GNVTG,,T,,M,0.005,N,0.010,K,D*3C
$GNGGA,212006.00,5025.4460459,N,01411.3826437,E,5,12,0.80,217.087,M,44.078,M,1.0,0084*6B
$GNGSA,A,3,81,87,88,69,79,77,78,,,,,,1.37,0.80,1.11,2*06
$GNGSA,A,3,12,35,25,24,13,26,29,,,,,,1.37,0.80,1.11,4*01
$GLGSV,3,1,10,68,06,243,34,69,22,290,47,70,12,349,24,77,33,105,17,1*78
$GLGSV,3,2,10,78,76,009,50,79,30,304,47,81,13,183,32,86,01,019,26,1*70
$GLGSV,3,3,10,87,53,057,49,88,55,143,44,1*79
$GLGSV,3,1,10,68,06,243,34,69,22,290,42,70,12,349,,77,33,105,19,3*77
$GLGSV,3,2,10,78,76,009,42,79,30,304,42,81,13,183,38,86,01,019,,3*7A
$GLGSV,3,3,10,87,53,057,,88,55,143,42,3*70
$GBGSV,3,1,11,02,04,106,,05,18,128,,10,06,079,17,12,27,189,42,1*7D
$GBGSV,3,2,11,13,28,088,24,24,73,290,43,25,16,299,48,26,54,125,44,1*7A
$GBGSV,3,3,11,29,11,039,27,33,03,260,33,35,53,074,42,1*40
$GBGSV,3,1,11,02,04,106,,05,18,128,,10,06,079,17,12,27,189,49,3*74
$GBGSV,3,2,11,13,28,088,,24,73,290,,25,16,299,,26,54,125,,3*75
$GBGSV,3,3,11,29,11,039,,33,03,260,,35,53,074,,3*41
$GNGLL,5025.4460459,N,01411.3826437,E,212006.00,A,D*73
$GNRMC,212007.00,A,5025.4460158,N,01411.3826276,E,0.001,,241021,,,F,V*11
$GNVTG,,T,,M,0.001,N,0.002,K,D*3B
$GNGGA,212007.00,5025.4460158,N,01411.3826276,E,5,12,0.80,217.028,M,44.078,M,1.0,0084*68
$GNGSA,A,3,81,87,88,69,79,77,78,,,,,,1.37,0.80,1.11,2*06
$GNGSA,A,3,12,35,25,24,13,26,29,,,,,,1.37,0.80,1.11,4*01
$GLGSV,3,1,10,68,06,243,34,69,22,290,47,70,12,349,24,77,33,105,17,1*78
$GLGSV,3,2,10,78,76,009,50,79,30,304,47,81,13,183,33,86,01,019,26,1*71
$GLGSV,3,3,10,87,53,057,49,88,55,143,44,1*79
$GLGSV,3,1,10,68,06,243,34,69,22,290,42,70,12,349,,77,33,105,19,3*77
$GLGSV,3,2,10,78,76,009,42,79,30,304,42,81,13,183,38,86,01,019,,3*7A
$GLGSV,3,3,10,87,53,057,,88,55,143,42,3*70
$GBGSV,3,1,11,02,04,106,,05,18,128,,10,06,079,17,12,27,189,42,1*7D
$GBGSV,3,2,11,13,28,088,24,24,73,290,43,25,16,299,48,26,54,125,44,1*7A
$GBGSV,3,3,11,29,11,039,26,33,03,260,33,35,53,074,42,1*41
$GBGSV,3,1,11,02,04,106,,05,18,128,,10,06,079,17,12,27,189,49,3*74
$GBGSV,3,2,11,13,28,088,,24,73,290,,25,16,299,,26,54,125,,3*75
$GBGSV,3,3,11,29,11,039,,33,03,260,,35,53,074,,3*41
$GNGLL,5025.4460158,N,01411.3826276,E,212007.00,A,D*75
$GNRMC,212008.00,A,5025.4459940,N,01411.3825986,E,0.013,,241021,,,F,V*11
$GNVTG,,T,,M,0.013,N,0.024,K,D*3C
$GNGGA,212008.00,5025.4459940,N,01411.3825986,E,5,12,0.80,217.009,M,44.078,M,1.0,0084*68
$GNGSA,A,3,81,87,88,69,79,77,78,,,,,,1.37,0.80,1.11,2*06
$GNGSA,A,3,12,35,25,24,13,26,29,,,,,,1.37,0.80,1.11,4*01
$GLGSV,3,1,10,68,06,243,33,69,22,290,47,70,12,349,24,77,33,105,14,1*7C
$GLGSV,3,2,10,78,76,009,50,79,30,304,48,81,13,183,33,86,01,019,27,1*7F
$GLGSV,3,3,10,87,53,057,49,88,55,143,44,1*79
$GLGSV,3,1,10,68,06,243,34,69,22,290,42,70,12,349,,77,33,105,19,3*77
$GLGSV,3,2,10,78,76,009,42,79,30,304,42,81,13,183,38,86,01,019,,3*7A
$GLGSV,3,3,10,87,53,057,,88,55,143,42,3*70
$GBGSV,3,1,11,02,04,106,,05,18,128,,10,06,079,17,12,27,189,42,1*7D
$GBGSV,3,2,11,13,28,088,24,24,73,290,43,25,16,299,48,26,54,125,44,1*7A
$GBGSV,3,3,11,29,11,039,27,33,03,260,33,35,53,074,42,1*40
$GBGSV,3,1,11,02,04,106,,05,18,128,,10,06,079,17,12,27,189,49,3*74
$GBGSV,3,2,11,13,28,088,16,24,73,290,,25,16,299,,26,54,125,,3*72
$GBGSV,3,3,11,29,11,039,,33,03,260,,35,53,074,,3*41
$GNGLL,5025.4459940,N,01411.3825986,E,212008.00,A,D*76
$GNRMC,212009.00,A,5025.4459700,N,01411.3825704,E,0.030,,241021,,,F,V*1F
$GNVTG,,T,,M,0.030,N,0.056,K,D*38
$GNGGA,212009.00,5025.4459700,N,01411.3825704,E,5,12,0.80,216.988,M,44.078,M,1.0,0084*66
$GNGSA,A,3,81,87,88,69,79,77,70,78,,,,,1.37,0.80,1.11,2*01
$GNGSA,A,3,12,35,25,24,13,26,29,,,,,,1.37,0.80,1.11,4*01
$GLGSV,3,1,10,68,06,243,33,69,22,290,47,70,12,349,25,77,33,106,13,1*79
$GLGSV,3,2,10,78,76,009,50,79,30,304,48,81,13,183,33,86,01,019,27,1*7F
$GLGSV,3,3,10,87,53,057,49,88,55,143,44,1*79
$GLGSV,3,1,10,68,06,243,34,69,22,290,42,70,12,349,,77,33,106,19,3*74
$GLGSV,3,2,10,78,76,009,42,79,30,304,42,81,13,183,39,86,01,019,,3*7B
$GLGSV,3,3,10,87,53,057,,88,55,143,42,3*70
$GBGSV,3,1,11,02,04,106,,05,18,128,,10,06,079,16,12,27,189,42,1*7C
$GBGSV,3,2,11,13,28,088,24,24,73,290,43,25,16,299,48,26,54,125,44,1*7A
$GBGSV,3,3,11,29,11,039,27,33,03,260,34,35,53,074,42,1*47
$GBGSV,3,1,11,02,04,106,,05,18,128,,10,06,079,18,12,27,189,49,3*7B
$GBGSV,3,2,11,13,28,088,14,24,73,290,,25,16,299,,26,54,125,,3*70
$GBGSV,3,3,11,29,11,039,,33,03,260,,35,53,074,,3*41
$GNGLL,5025.4459700,N,01411.3825704,E,212009.00,A,D*79
$GNRMC,212010.00,A,5025.4459428,N,01411.3825537,E,0.015,,241021,,,F,V*1B
$GNVTG,,T,,M,0.015,N,0.029,K,D*37
$GNGGA,212010.00,5025.4459428,N,01411.3825537,E,5,12,0.80,216.932,M,44.078,M,1.0,0084*64
$GNGSA,A,3,81,87,88,69,79,77,70,78,,,,,1.37,0.80,1.11,2*01
$GNGSA,A,3,12,35,25,24,13,26,29,,,,,,1.37,0.80,1.11,4*01
$GLGSV,3,1,10,68,06,243,33,69,22,290,46,70,12,349,25,77,33,106,14,1*7F
$GLGSV,3,2,10,78,76,011,50,79,30,304,48,81,13,183,33,86,01,019,27,1*76
$GLGSV,3,3,10,87,53,057,49,88,55,143,43,1*7E
$GLGSV,3,1,10,68,06,243,34,69,22,290,42,70,12,349,,77,33,106,20,3*7E
$GLGSV,3,2,10,78,76,011,42,79,30,304,43,81,13,183,39,86,01,019,,3*73
$GLGSV,3,3,10,87,53,057,,88,55,143,42,3*70
$GBGSV,3,1,11,02,04,106,,05,18,128,,10,06,079,15,12,27,189,42,1*7F
$GBGSV,3,2,11,13,28,088,25,24,73,290,43,25,16,299,48,26,54,125,44,1*7B
$GBGSV,3,3,11,29,11,039,27,33,03,260,34,35,53,074,42,1*47
$GBGSV,3,1,11,02,04,106,,05,18,128,,10,06,079,18,12,27,189,49,3*7B
$GBGSV,3,2,11,13,28,088,11,24,73,290,,25,16,299,,26,54,125,,3*75
$GBGSV,3,3,11,29,11,039,,33,03,260,,35,53,074,,3*41
$GNGLL,5025.4459428,N,01411.3825537,E,212010.00,A,D*7A
$GNRMC,212011.00,A,5025.4459060,N,01411.3825445,E,0.011,,241021,,,F,V*12
$GNVTG,,T,,M,0.011,N,0.020,K,D*3A
$GNGGA,212011.00,5025.4459060,N,01411.3825445,E,5,12,0.80,216.862,M,44.078,M,1.0,0084*6D
$GNGSA,A,3,81,87,88,69,79,77,70,78,,,,,1.37,0.80,1.11,2*01
$GNGSA,A,3,12,35,25,24,13,26,29,,,,,,1.37,0.80,1.11,4*01
$GLGSV,3,1,10,68,06,243,33,69,22,290,46,70,12,349,25,77,33,106,09,1*73
$GLGSV,3,2,10,78,76,011,50,79,30,305,48,81,13,183,33,86,01,019,27,1*77
$GLGSV,3,3,10,87,53,057,49,88,55,143,43,1*7E
$GLGSV,3,1,10,68,06,243,34,69,22,290,42,70,12,349,,77,33,106,20,3*7E
$GLGSV,3,2,10,78,76,011,42,79,30,305,43,81,13,183,39,86,01,019,,3*72
$GLGSV,3,3,10,87,53,057,,88,55,143,42,3*70
$GBGSV,3,1,11,02,04,106,,05,18,128,,10,06,079,12,12,27,189,42,1*78
$GBGSV,3,2,11,13,28,088,25,24,73,290,43,25,16,299,48,26,54,125,44,1*7B
$GBGSV,3,3,11,29,11,039,28,33,03,260,33,35,53,074,42,1*4F
$GBGSV,3,1,11,02,04,106,,05,18,128,,10,06,079,18,12,27,189,49,3*7B
$GBGSV,3,2,11,13,28,088,10,24,73,290,,25,16,299,,26,54,125,,3*74
$GBGSV,3,3,11,29,11,039,,33,03,260,,35,53,074,,3*41
$GNGLL,5025.4459060,N,01411.3825445,E,212011.00,A,D*77
$GNRMC,212012.00,A,5025.4458587,N,01411.3825326,E,0.017,,241021,,,F,V*18
$GNVTG,,T,,M,0.017,N,0.032,K,D*3F
$GNGGA,212012.00,5025.4458587,N,01411.3825326,E,5,12,0.80,216.820,M,44.078,M,1.0,0084*67
$GNGSA,A,3,81,87,88,69,79,77,70,78,,,,,1.37,0.80,1.11,2*01
$GNGSA,A,3,12,35,25,24,13,26,29,,,,,,1.37,0.80,1.11,4*01
$GLGSV,3,1,10,68,06,243,33,69,22,290,46,70,12,349,24,77,33,106,09,1*72
$GLGSV,3,2,10,78,76,011,50,79,30,305,48,81,13,183,33,86,01,019,27,1*77
$GLGSV,3,3,10,87,53,057,48,88,55,143,43,1*7F
$GLGSV,3,1,10,68,06,243,34,69,22,290,42,70,12,349,,77,33,106,20,3*7E
$GLGSV,3,2,10,78,76,011,42,79,30,305,43,81,13,183,39,86,01,019,,3*72
$GLGSV,3,3,10,87,53,057,,88,55,143,42,3*70
$GBGSV,3,1,11,02,04,106,,05,18,128,,10,06,079,11,12,27,189,42,1*7B
$GBGSV,3,2,11,13,28,088,25,24,73,290,43,25,16,299,48,26,54,125,44,1*7B
$GBGSV,3,3,11,29,11,039,28,33,03,260,33,35,53,074,42,1*4F
$GBGSV,3,1,11,02,04,106,,05,18,128,,10,06,079,19,12,27,189,49,3*7A
$GBGSV,3,2,11,13,28,088,11,24,73,290,,25,16,299,,26,54,125,,3*75
$GBGSV,3,3,11,29,11,039,,33,03,260,,35,53,074,,3*41
$GNGLL,5025.4458587,N,01411.3825326,E,212012.00,A,D*7B
$GNRMC,212013.00,A,5025.4458210,N,01411.3825021,E,0.011,,241021,,,F,V*12
$GNVTG,,T,,M,0.011,N,0.020,K,D*3A
$GNGGA,212013.00,5025.4458210,N,01411.3825021,E,5,12,0.80,216.869,M,44.078,M,1.0,0084*66
$GNGSA,A,3,81,87,88,69,79,77,70,78,,,,,1.37,0.80,1.11,2*01
$GNGSA,A,3,12,35,25,24,13,26,29,,,,,,1.37,0.80,1.11,4*01
$GLGSV,3,1,10,68,06,243,33,69,22,290,46,70,12,349,24,77,33,106,10,1*7A
$GLGSV,3,2,10,78,76,011,50,79,30,305,48,81,13,183,33,86,01,019,27,1*77
$GLGSV,3,3,10,87,53,057,48,88,55,143,44,1*78
$GLGSV,3,1,10,68,06,243,34,69,22,290,42,70,12,349,,77,33,106,20,3*7E
$GLGSV,3,2,10,78,76,011,42,79,30,305,43,81,13,183,39,86,01,019,,3*72
$GLGSV,3,3,10,87,53,057,,88,55,143,42,3*70
$GBGSV,3,1,11,02,04,106,,05,18,128,,10,06,079,12,12,27,189,42,1*78
$GBGSV,3,2,11,13,28,088,26,24,73,290,43,25,16,299,48,26,54,125,44,1*78
$GBGSV,3,3,11,29,11,039,28,33,03,260,33,35,53,074,42,1*4F
$GBGSV,3,1,11,02,04,106,,05,18,128,,10,06,079,20,12,27,189,49,3*70
$GBGSV,3,2,11,13,28,088,11,24,73,290,,25,16,299,,26,54,125,,3*75
$GBGSV,3,3,11,29,11,039,,33,03,260,,35,53,074,,3*41
$GNGLL,5025.4458210,N,01411.3825021,E,212013.00,A,D*77
$GNRMC,212014.00,A,5025.4457948,N,01411.3824387,E,0.017,,241021,,,F,V*14
$GNVTG,,T,,M,0.017,N,0.031,K,D*3C
$GNGGA,212014.00,5025.4457948,N,01411.3824387,E,5,12,0.80,217.019,M,44.078,M,1.0,0084*68
$GNGSA,A,3,81,87,88,69,79,77,70,78,,,,,1.37,0.80,1.11,2*01
$GNGSA,A,3,12,35,25,24,13,26,29,,,,,,1.37,0.80,1.11,4*01
$GLGSV,3,1,10,68,06,243,33,69,22,290,46,70,12,349,24,77,33,106,10,1*7A
$GLGSV,3,2,10,78,76,011,50,79,30,305,48,81,13,183,34,86,01,019,26,1*71
$GLGSV,3,3,10,87,53,057,48,88,55,143,44,1*78
$GLGSV,3,1,10,68,06,243,34,69,22,290,42,70,12,349,,77,33,106,19,3*74
$GLGSV,3,2,10,78,76,011,42,79,30,305,43,81,13,183,39,86,01,019,,3*72
$GLGSV,3,3,10,87,53,057,,88,55,143,42,3*70
$GBGSV,3,1,11,02,04,106,,05,18,128,,10,06,079,13,12,27,189,42,1*79
$GBGSV,3,2,11,13,28,088,25,24,73,290,43,25,16,299,48,26,54,125,44,1*7B
$GBGSV,3,3,11,29,11,039,28,33,03,260,33,35,53,074,42,1*4F
$GBGSV,3,1,11,02,04,106,,05,18,128,,10,06,079,20,12,27,189,49,3*70
$GBGSV,3,2,11,13,28,088,11,24,73,290,,25,16,299,,26,54,125,,3*75
$GBGSV,3,3,11,29,11,039,,33,03,260,,35,53,074,,3*41
$GNGLL,5025.4457948,N,01411.3824387,E,212014.00,A,D*77
$GNRMC,212015.00,A,5025.4457744,N,01411.3823651,E,0.028,,241021,,,F,V*12
$GNVTG,,T,,M,0.028,N,0.052,K,D*35
$GNGGA,212015.00,5025.4457744,N,01411.3823651,E,5,12,0.80,217.183,M,44.078,M,1.0,0084*60
$GNGSA,A,3,81,87,88,69,79,77,70,78,,,,,1.37,0.80,1.11,2*01
$GNGSA,A,3,12,35,25,24,13,26,29,,,,,,1.37,0.80,1.11,4*01
$GLGSV,3,1,10,68,06,243,34,69,22,290,46,70,12,349,23,77,33,106,10,1*7A
$GLGSV,3,2,10,78,76,011,50,79,30,305,48,81,13,183,34,86,01,019,26,1*71
$GLGSV,3,3,10,87,53,057,48,88,55,143,44,1*78
$GLGSV,3,1,10,68,06,243,35,69,22,290,42,70,12,349,,77,33,106,17,3*7B
$GLGSV,3,2,10,78,76,011,42,79,30,305,42,81,13,183,39,86,01,019,,3*73
$GLGSV,3,3,10,87,53,057,,88,55,143,42,3*70
$GBGSV,3,1,11,02,04,106,,05,18,128,,10,06,079,13,12,27,189,42,1*79
$GBGSV,3,2,11,13,28,088,25,24,73,290,43,25,16,299,48,26,54,125,44,1*7B
$GBGSV,3,3,11,29,11,039,27,33,03,260,34,35,53,074,42,1*47
$GBGSV,3,1,11,02,04,106,,05,18,128,,10,06,079,19,12,27,189,49,3*7A
$GBGSV,3,2,11,13,28,088,11,24,73,290,,25,16,299,,26,54,125,,3*75
$GBGSV,3,3,11,29,11,039,,33,03,260,,35,53,074,,3*41
$GNGLL,5025.4457744,N,01411.3823651,E,212015.00,A,D*7D
$GNRMC,212016.00,A,5025.4457576,N,01411.3822967,E,0.047,,241021,,,F,V*10
$GNVTG,,T,,M,0.047,N,0.087,K,D*34
$GNGGA,212016.00,5025.4457576,N,01411.3822967,E,5,12,0.80,217.336,M,44.078,M,1.0,0084*67
$GNGSA,A,3,81,87,88,69,79,77,70,78,,,,,1.37,0.80,1.11,2*01
$GNGSA,A,3,12,35,25,24,13,26,29,,,,,,1.37,0.80,1.11,4*01
$GLGSV,3,1,10,68,06,243,34,69,22,290,46,70,12,349,23,77,33,106,10,1*7A
$GLGSV,3,2,10,78,76,011,50,79,30,305,48,81,13,183,34,86,01,019,25,1*72
$GLGSV,3,3,10,87,53,057,48,88,55,143,44,1*78
$GLGSV,3,1,10,68,06,243,34,69,22,290,42,70,12,349,,77,33,106,15,3*78
$GLGSV,3,2,10,78,76,011,42,79,30,305,42,81,13,183,39,86,01,019,,3*73
$GLGSV,3,3,10,87,53,057,,88,55,143,42,3*70
$GBGSV,3,1,11,02,04,106,,05,18,128,,10,06,079,12,12,27,189,42,1*78
$GBGSV,3,2,11,13,28,088,25,24,73,290,43,25,16,299,48,26,54,125,44,1*7B
$GBGSV,3,3,11,29,11,039,28,33,03,260,34,35,53,074,42,1*48
$GBGSV,3,1,11,02,04,106,,05,18,128,,10,06,079,20,12,27,189,49,3*70
$GBGSV,3,2,11,13,28,088,09,24,73,290,,25,16,299,,26,54,125,,3*7C
$GBGSV,3,3,11,29,11,039,,33,03,260,,35,53,074,,3*41
$GNGLL,5025.4457576,N,01411.3822967,E,212016.00,A,D*76
$GNRMC,212017.00,A,5025.4457298,N,01411.3822579,E,0.032,,241021,,,F,V*17
$GNVTG,,T,,M,0.032,N,0.059,K,D*35
$GNGGA,212017.00,5025.4457298,N,01411.3822579,E,5,12,0.80,217.394,M,44.078,M,1.0,0084*6A
$GNGSA,A,3,81,87,88,69,79,77,70,78,,,,,1.37,0.80,1.11,2*01
$GNGSA,A,3,12,35,25,24,13,26,29,,,,,,1.37,0.80,1.11,4*01
$GLGSV,3,1,10,68,06,243,33,69,22,290,46,70,12,349,23,77,33,106,10,1*7D
$GLGSV,3,2,10,78,76,011,50,79,30,305,48,81,13,183,34,86,01,019,23,1*74
$GLGSV,3,3,10,87,53,057,48,88,55,143,44,1*78
$GLGSV,3,1,10,68,06,243,34,69,22,290,42,70,12,349,,77,33,106,14,3*79
$GLGSV,3,2,10,78,76,011,42,79,30,305,42,81,13,183,39,86,01,019,,3*73
$GLGSV,3,3,10,87,53,057,,88,55,143,42,3*70
