$GNGGA,212545.00,5025.4447574,N,01411.3818158,E,4,12,0.60,217.771,M,44.078,M,1.0,0084*62
$GNGSA,A,3,24,25,31,32,29,02,12,06,,,,,1.17,0.60,1.01,1*0E
$GNGSA,A,3,33,31,26,24,01,13,05,09,,,,,1.17,0.60,1.01,3*0D
$GNGSA,A,3,12,13,24,25,26,35,,,,,,,1.17,0.60,1.01,4*07
$GPGSV,3,1,11,02,39,102,35,03,02,352,13,06,27,054,30,11,,,32,1*5C
$GPGSV,3,2,11,12,71,067,47,19,04,044,,24,31,153,44,25,70,289,37,1*6A
$GPGSV,3,3,11,29,35,210,45,31,16,310,46,32,32,269,44,1*53
$GPGSV,3,1,10,02,39,102,,03,02,352,19,06,27,054,26,12,71,067,44,6*64
$GPGSV,3,2,10,19,04,044,,24,31,153,45,25,70,289,45,29,35,210,40,6*65
$GPGSV,3,3,10,31,16,310,40,32,32,269,41,6*69
$GAGSV,3,1,10,01,52,090,37,04,06,209,,05,20,311,44,09,26,257,43,7*7C
$GAGSV,3,2,10,13,16,032,27,21,05,097,27,24,19,282,48,26,44,087,34,7*79
$GAGSV,3,3,10,31,68,295,42,33,31,149,43,7*7F
$GAGSV,3,1,10,01,52,090,41,04,06,209,25,05,20,311,42,09,26,257,46,2*7C
$GAGSV,3,2,10,13,16,032,29,21,05,097,26,24,19,282,47,26,44,087,38,2*70
$GAGSV,3,3,10,31,68,295,49,33,31,149,44,2*76
$GBGSV,3,1,11,02,04,106,,05,18,128,,10,06,080,24,12,29,190,42,1*7D
$GBGSV,3,2,11,13,29,088,28,24,75,288,39,25,18,300,49,26,52,127,44,1*7F
$GBGSV,3,3,11,29,09,039,24,33,01,259,28,35,52,071,44,1*4A
$GBGSV,3,1,11,02,04,106,,05,18,128,,10,06,080,,12,29,190,50,3*7A
$GBGSV,3,2,11,13,29,088,,24,75,288,,25,18,300,,26,52,127,,3*70
$GBGSV,3,3,11,29,09,039,,33,01,259,,35,52,071,,3*44
$GNGLL,5025.4447574,N,01411.3818158,E,212545.00,A,D*7B
$GNTXT,01,01,02,Starting GNSS*5A
$GNRMC,212545.60,V,,,,,,,241021,,,N,V*1E
$GNVTG,,,,,,,,,N*2E
$GNGGA,212545.60,,,,,0,00,99.99,,,,,,*7B
$GNGSA,A,1,,,,,,,,,,,,,99.99,99.99,99.99,2*30
$GNGSA,A,1,,,,,,,,,,,,,99.99,99.99,99.99,4*36
$GLGSV,1,1,00,1*78
$GLGSV,1,1,00,3*7A
$GBGSV,1,1,00,1*76
$GBGSV,1,1,00,3*74
$GNGLL,,,,,212545.60,V,N*57
$GNRMC,212546.00,V,,,,,,,241021,,,N,V*1B
$GNVTG,,,,,,,,,N*2E
$GNGGA,212546.00,,,,,0,06,1.30,,,,,,*4A
$GNGSA,A,1,79,69,,,,,,,,,,,1.60,1.30,0.94,2*09
$GNGSA,A,1,12,24,26,35,,,,,,,,,1.60,1.30,0.94,4*09
$GLGSV,3,1,09,68,03,241,,69,20,287,42,70,13,347,,77,30,108,,1*70
$GLGSV,3,2,09,78,77,024,47,79,32,306,43,81,16,183,38,87,51,053,43,1*72
$GLGSV,3,3,09,88,58,139,44,1*47
$GLGSV,3,1,09,68,03,241,,69,20,287,,70,13,347,,77,30,108,,3*74
$GLGSV,3,2,09,78,77,024,,79,32,306,,81,16,183,,87,51,053,,3*78
$GLGSV,3,3,09,88,58,139,,3*45
$GBGSV,3,1,11,02,04,106,,05,18,128,,10,06,080,21,12,29,190,41,1*7B
$GBGSV,3,2,11,13,29,088,26,24,76,287,38,25,18,300,48,26,51,127,43,1*79
$GBGSV,3,3,11,29,09,039,,33,01,259,25,35,52,070,42,1*46
$GBGSV,3,1,11,02,04,106,,05,18,128,,10,06,080,,12,29,190,,3*7F
$GBGSV,3,2,11,13,29,088,,24,76,287,,25,18,300,,26,51,127,,3*7F
$GBGSV,3,3,11,29,09,039,,33,01,259,,35,52,070,,3*45
$GNGLL,,,,,212546.00,V,N*52
$GNRMC,212547.00,A,5025.4451700,N,01411.3798276,E,0.039,,241021,,,A,V*1F
$GNVTG,,T,,M,0.039,N,0.073,K,A*33
$GNGGA,212547.00,5025.4451700,N,01411.3798276,E,1,12,0.91,223.023,M,44.078,M,,*41
$GNGSA,A,3,79,88,87,81,69,78,,,,,,,1.68,0.91,1.42,2*0A
$GNGSA,A,3,12,24,13,25,26,35,,,,,,,1.68,0.91,1.42,4*06
$GLGSV,3,1,09,68,03,241,22,69,20,287,44,70,13,347,,77,30,108,,1*76
$GLGSV,3,2,09,78,77,024,48,79,32,306,44,81,16,183,39,87,51,053,44,1*7C
$GLGSV,3,3,09,88,58,139,45,1*46
$GLGSV,3,1,09,68,03,241,27,69,20,287,41,70,13,347,,77,30,108,,3*74
$GLGSV,3,2,09,78,77,024,44,79,32,306,40,81,16,183,41,87,51,053,,3*79
$GLGSV,3,3,09,88,58,139,42,3*43
$GBGSV,3,1,11,02,04,106,,05,18,128,,10,06,080,23,12,29,190,41,1*79
$GBGSV,3,2,11,13,29,088,27,24,76,287,39,25,18,300,49,26,51,127,44,1*7F
$GBGSV,3,3,11,29,09,039,,33,01,259,27,35,52,070,43,1*45
$GBGSV,3,1,11,02,04,106,,05,18,128,,10,06,080,22,12,29,190,49,3*72
$GBGSV,3,2,11,13,29,088,,24,76,287,,25,18,300,,26,51,127,,3*7F
$GBGSV,3,3,11,29,09,039,,33,01,259,,35,52,070,,3*45
$GNGLL,5025.4451700,N,01411.3798276,E,212547.00,A,A*72
$GNRMC,212548.00,A,5025.4460436,N,01411.3814483,E,0.029,,241021,,,A,V*12
$GNVTG,,T,,M,0.029,N,0.053,K,A*30
$GNGGA,212548.00,5025.4460436,N,01411.3814483,E,1,12,0.91,218.656,M,44.078,M,,*41
$GNGSA,A,3,79,88,87,81,69,78,,,,,,,1.68,0.91,1.42,2*0A
$GNGSA,A,3,12,24,13,25,26,35,,,,,,,1.68,0.91,1.42,4*06
$GLGSV,3,1,09,68,03,241,22,69,20,287,46,70,13,347,,77,30,108,,1*74
$GLGSV,3,2,09,78,77,024,49,79,32,306,45,81,16,183,40,87,51,053,45,1*73
$GLGSV,3,3,09,88,58,139,46,1*45
$GLGSV,3,1,09,68,03,241,27,69,20,287,41,70,13,347,,77,30,108,,3*74
$GLGSV,3,2,09,78,77,024,44,79,32,306,41,81,16,183,41,87,51,053,,3*78
$GLGSV,3,3,09,88,58,139,42,3*43
$GBGSV,3,1,11,02,04,106,,05,18,128,,10,06,080,23,12,29,190,42,1*7A
$GBGSV,3,2,11,13,29,088,28,24,76,287,39,25,18,300,49,26,51,127,44,1*70
$GBGSV,3,3,11,29,09,039,,33,01,259,27,35,52,070,44,1*42
$GBGSV,3,1,11,02,04,106,,05,18,128,,10,06,080,22,12,29,190,49,3*72
$GBGSV,3,2,11,13,29,088,,24,76,287,,25,18,300,,26,51,127,,3*7F
$GBGSV,3,3,11,29,09,039,,33,01,259,,35,52,070,,3*45
$GNGLL,5025.4460436,N,01411.3814483,E,212548.00,A,A*7E
$GNRMC,212549.00,A,5025.4461419,N,01411.3820274,E,0.009,,241021,,,A,V*14
$GNVTG,,T,,M,0.009,N,0.016,K,A*33
$GNGGA,212549.00,5025.4461419,N,01411.3820274,E,1,12,0.91,216.554,M,44.078,M,,*4A
$GNGSA,A,3,79,88,87,81,69,78,,,,,,,1.68,0.91,1.42,2*0A
$GNGSA,A,3,12,24,13,25,26,35,,,,,,,1.68,0.91,1.42,4*06
$GLGSV,3,1,09,68,03,241,23,69,20,287,46,70,13,347,,77,30,108,,1*75
$GLGSV,3,2,09,78,77,024,49,79,32,306,46,81,16,183,41,87,51,053,45,1*71
$GLGSV,3,3,09,88,58,139,46,1*45
$GLGSV,3,1,09,68,03,241,27,69,20,287,42,70,13,347,,77,30,108,,3*77
$GLGSV,3,2,09,78,77,024,44,79,32,306,41,81,16,183,41,87,51,053,,3*78
$GLGSV,3,3,09,88,58,139,43,3*42
$GBGSV,3,1,11,02,04,106,,05,18,128,,10,06,080,23,12,29,190,41,1*79
$GBGSV,3,2,11,13,29,088,28,24,76,287,39,25,18,300,49,26,51,127,44,1*70
$GBGSV,3,3,11,29,09,039,25,33,01,259,26,35,52,070,44,1*44
$GBGSV,3,1,11,02,04,106,,05,18,128,,10,06,080,23,12,29,190,50,3*7B
$GBGSV,3,2,11,13,29,088,18,24,76,287,,25,18,300,,26,51,127,,3*76
$GBGSV,3,3,11,29,09,039,,33,01,259,,35,52,070,,3*45
$GNGLL,5025.4461419,N,01411.3820274,E,212549.00,A,A*7A
$GNRMC,212550.00,A,5025.4461259,N,01411.3819721,E,0.030,,241021,,,A,V*1B
$GNVTG,,T,,M,0.030,N,0.056,K,A*3D
$GNGGA,212550.00,5025.4461259,N,01411.3819721,E,1,12,0.91,216.779,M,44.078,M,,*42
$GNGSA,A,3,79,88,87,81,69,78,,,,,,,1.68,0.91,1.42,2*0A
$GNGSA,A,3,12,24,13,25,26,35,,,,,,,1.68,0.91,1.42,4*06
$GLGSV,3,1,09,68,03,241,23,69,20,287,45,70,13,347,,77,30,108,,1*76
$GLGSV,3,2,09,78,77,024,49,79,32,306,45,81,16,183,41,87,51,053,45,1*72
$GLGSV,3,3,09,88,58,139,45,1*46
$GLGSV,3,1,09,68,03,241,27,69,20,287,42,70,13,347,,77,30,108,,3*77
$GLGSV,3,2,09,78,77,024,44,79,32,306,41,81,16,183,42,87,51,053,,3*7B
$GLGSV,3,3,09,88,58,139,43,3*42
$GBGSV,3,1,11,02,04,106,,05,18,128,,10,06,080,23,12,29,190,41,1*79
$GBGSV,3,2,11,13,29,088,28,24,76,287,38,25,18,300,49,26,51,127,44,1*71
$GBGSV,3,3,11,29,09,039,,33,01,259,26,35,52,070,44,1*43
$GBGSV,3,1,11,02,04,106,,05,18,128,,10,06,080,24,12,29,190,49,3*74
$GBGSV,3,2,11,13,29,088,17,24,76,287,,25,18,300,,26,51,127,,3*79
$GBGSV,3,3,11,29,09,039,,33,01,259,,35,52,070,,3*45
$GNGLL,5025.4461259,N,01411.3819721,E,212550.00,A,A*7F
$GNRMC,212551.00,A,5025.4460368,N,01411.3819207,E,0.024,,241021,,,A,V*1C
$GNVTG,,T,,M,0.024,N,0.045,K,A*3A
$GNGGA,212551.00,5025.4460368,N,01411.3819207,E,1,12,0.91,217.370,M,44.078,M,,*4C
$GNGSA,A,3,79,88,87,81,69,78,,,,,,,1.68,0.91,1.42,2*0A
$GNGSA,A,3,12,24,13,25,26,35,,,,,,,1.68,0.91,1.42,4*06
$GLGSV,3,1,09,68,03,241,25,69,20,287,46,70,13,347,,77,30,108,,1*73
$GLGSV,3,2,09,78,77,024,48,79,32,306,46,81,16,183,41,87,51,053,46,1*73
$GLGSV,3,3,09,88,58,139,45,1*46
$GLGSV,3,1,09,68,03,241,27,69,20,287,42,70,13,347,,77,30,108,,3*77
$GLGSV,3,2,09,78,77,024,44,79,32,306,41,81,16,183,42,87,51,053,,3*7B
$GLGSV,3,3,09,88,58,139,43,3*42
$GBGSV,3,1,11,02,04,106,,05,18,128,,10,06,080,23,12,29,190,41,1*79
$GBGSV,3,2,11,13,29,088,28,24,76,287,38,25,18,300,49,26,51,127,44,1*71
$GBGSV,3,3,11,29,09,039,,33,01,259,25,35,52,070,44,1*40
$GBGSV,3,1,11,02,04,106,,05,18,128,,10,06,080,24,12,29,190,49,3*74
$GBGSV,3,2,11,13,29,088,17,24,76,287,,25,18,300,,26,51,127,,3*79
$GBGSV,3,3,11,29,09,039,,33,01,259,,35,52,070,,3*45
$GNGLL,5025.4460368,N,01411.3819207,E,212551.00,A,A*7D
$GNRMC,212552.00,A,5025.4459763,N,01411.3818765,E,0.019,,241021,,,A,V*14
$GNVTG,,T,,M,0.019,N,0.035,K,A*33
$GNGGA,212552.00,5025.4459763,N,01411.3818765,E,1,12,0.91,217.910,M,44.078,M,,*46
$GNGSA,A,3,79,88,87,81,69,78,,,,,,,1.68,0.91,1.42,2*0A
$GNGSA,A,3,12,24,13,25,26,35,,,,,,,1.68,0.91,1.42,4*06
$GLGSV,3,1,09,68,03,241,26,69,20,287,46,70,13,347,,77,30,108,,1*70
$GLGSV,3,2,09,78,77,024,48,79,32,306,46,81,16,183,41,87,51,053,46,1*73
$GLGSV,3,3,09,88,58,139,45,1*46
$GLGSV,3,1,09,68,03,241,27,69,20,287,42,70,13,347,,77,30,108,,3*77
$GLGSV,3,2,09,78,77,024,44,79,32,306,42,81,16,183,42,87,51,053,,3*78
$GLGSV,3,3,09,88,58,139,43,3*42
$GBGSV,3,1,11,02,04,106,,05,18,128,,10,06,080,22,12,29,190,41,1*78
$GBGSV,3,2,11,13,29,088,28,24,76,287,38,25,18,300,49,26,51,127,44,1*71
$GBGSV,3,3,11,29,09,039,,33,01,259,24,35,52,070,44,1*41
$GBGSV,3,1,11,02,04,106,,05,18,128,,10,06,080,25,12,29,190,49,3*75
$GBGSV,3,2,11,13,29,088,16,24,76,287,,25,18,300,,26,51,127,,3*78
$GBGSV,3,3,11,29,09,039,,33,01,259,,35,52,070,,3*45
$GNGLL,5025.4459763,N,01411.3818765,E,212552.00,A,A*7B
$GNRMC,212553.00,A,5025.4459397,N,01411.3818288,E,0.016,,241021,,,A,V*13
$GNVTG,,T,,M,0.016,N,0.029,K,A*31
$GNGGA,212553.00,5025.4459397,N,01411.3818288,E,1,12,0.91,218.254,M,44.078,M,,*4A
$GNGSA,A,3,79,88,87,81,69,78,,,,,,,1.68,0.91,1.42,2*0A
$GNGSA,A,3,12,24,13,25,26,35,,,,,,,1.68,0.91,1.42,4*06
$GLGSV,3,1,09,68,03,241,26,69,20,287,46,70,13,347,,77,30,108,,1*70
$GLGSV,3,2,09,78,77,024,49,79,32,306,46,81,16,183,41,87,51,053,46,1*72
$GLGSV,3,3,09,88,58,139,45,1*46
$GLGSV,3,1,09,68,03,241,28,69,20,287,42,70,13,347,,77,30,108,,3*78
$GLGSV,3,2,09,78,77,024,44,79,32,306,42,81,16,183,42,87,51,053,,3*78
$GLGSV,3,3,09,88,58,139,43,3*42
$GBGSV,3,1,11,02,04,106,,05,18,128,,10,06,080,22,12,29,190,41,1*78
$GBGSV,3,2,11,13,29,088,28,24,76,287,38,25,18,300,49,26,51,127,44,1*71
$GBGSV,3,3,11,29,09,039,,33,01,259,24,35,52,070,43,1*46
$GBGSV,3,1,11,02,04,106,,05,18,128,,10,06,080,25,12,29,190,49,3*75
$GBGSV,3,2,11,13,29,088,16,24,76,287,,25,18,300,,26,51,127,,3*78
$GBGSV,3,3,11,29,09,039,,33,01,259,,35,52,070,,3*45
$GNGLL,5025.4459397,N,01411.3818288,E,212553.00,A,A*73
$GNRMC,212554.00,A,5025.4459363,N,01411.3818148,E,0.015,,241021,,,A,V*13
$GNVTG,,T,,M,0.015,N,0.027,K,A*3C
$GNGGA,212554.00,5025.4459363,N,01411.3818148,E,1,12,0.91,218.466,M,44.078,M,,*4E
$GNGSA,A,3,79,88,87,81,69,78,,,,,,,1.68,0.91,1.42,2*0A
$GNGSA,A,3,12,24,13,25,26,35,,,,,,,1.68,0.91,1.42,4*06
$GLGSV,3,1,09,68,03,241,27,69,20,287,46,70,13,347,,77,30,108,,1*71
$GLGSV,3,2,09,78,77,024,49,79,32,306,46,81,16,183,41,87,51,053,46,1*72
$GLGSV,3,3,09,88,58,139,45,1*46
$GLGSV,3,1,09,68,03,241,27,69,20,287,42,70,13,347,,77,30,108,,3*77
$GLGSV,3,2,09,78,77,024,44,79,32,306,42,81,16,183,43,87,51,053,,3*79
$GLGSV,3,3,09,88,58,139,43,3*42
$GBGSV,3,1,11,02,04,106,,05,18,128,,10,06,080,21,12,29,190,41,1*7B
$GBGSV,3,2,11,13,29,088,27,24,76,287,38,25,18,300,49,26,51,127,44,1*7E
$GBGSV,3,3,11,29,09,039,,33,01,259,23,35,52,070,44,1*46
$GBGSV,3,1,11,02,04,106,,05,18,128,,10,06,080,26,12,29,190,49,3*76
$GBGSV,3,2,11,13,29,088,16,24,76,287,,25,18,300,,26,51,127,,3*78
$GBGSV,3,3,11,29,09,039,,33,01,259,,35,52,070,,3*45
$GNGLL,5025.4459363,N,01411.3818148,E,212554.00,A,A*70
$GNRMC,212555.00,A,5025.4459220,N,01411.3817678,E,0.028,,241021,,,A,V*11
$GNVTG,,T,,M,0.028,N,0.052,K,A*30
$GNGGA,212555.00,5025.4459220,N,01411.3817678,E,1,12,0.91,218.656,M,44.078,M,,*43
$GNGSA,A,3,79,88,87,81,69,78,,,,,,,1.68,0.91,1.42,2*0A
$GNGSA,A,3,12,24,13,25,26,35,,,,,,,1.68,0.91,1.42,4*06
$GLGSV,3,1,09,68,03,241,28,69,20,287,46,70,13,347,,77,30,108,,1*7E
$GLGSV,3,2,09,78,77,024,49,79,32,306,47,81,16,183,41,87,51,053,46,1*73
$GLGSV,3,3,09,88,58,139,45,1*46
$GLGSV,3,1,09,68,03,241,27,69,20,287,42,70,13,347,,77,30,108,,3*77
$GLGSV,3,2,09,78,77,024,44,79,32,306,42,81,16,183,43,87,51,053,,3*79
$GLGSV,3,3,09,88,58,139,43,3*42
$GBGSV,3,1,11,02,04,106,,05,18,128,,10,06,080,21,12,29,190,41,1*7B
$GBGSV,3,2,11,13,29,088,28,24,76,287,37,25,18,300,49,26,51,127,44,1*7E
$GBGSV,3,3,11,29,09,039,,33,01,259,24,35,52,070,43,1*46
$GBGSV,3,1,11,02,04,106,,05,18,128,,10,06,080,27,12,29,190,49,3*77
$GBGSV,3,2,11,13,29,088,16,24,76,287,,25,18,300,,26,51,127,,3*78
$GBGSV,3,3,11,29,09,039,,33,01,259,,35,52,070,,3*45
$GNGLL,5025.4459220,N,01411.3817678,E,212555.00,A,A*7C
$GNRMC,212556.00,A,5025.4459042,N,01411.3817370,E,0.035,,241021,,,A,V*15
$GNVTG,,T,,M,0.035,N,0.064,K,A*39
$GNGGA,212556.00,5025.4459042,N,01411.3817370,E,1,12,0.91,218.774,M,44.078,M,,*4A
$GNGSA,A,3,79,88,87,81,69,78,,,,,,,1.68,0.91,1.42,2*0A
$GNGSA,A,3,12,24,13,25,26,35,,,,,,,1.68,0.91,1.42,4*06
$GLGSV,3,1,09,68,03,241,29,69,20,287,46,70,13,347,,77,30,108,,1*7F
$GLGSV,3,2,09,78,77,024,49,79,32,306,47,81,16,183,41,87,51,053,46,1*73
$GLGSV,3,3,09,88,58,139,45,1*46
$GLGSV,3,1,09,68,03,241,27,69,20,287,42,70,13,347,,77,30,108,,3*77
$GLGSV,3,2,09,78,77,024,44,79,32,306,42,81,16,183,43,87,51,053,,3*79
$GLGSV,3,3,09,88,58,139,43,3*42
$GBGSV,3,1,11,02,04,106,,05,18,128,,10,06,080,21,12,29,190,41,1*7B
$GBGSV,3,2,11,13,29,088,27,24,76,287,37,25,18,300,49,26,51,127,44,1*71
$GBGSV,3,3,11,29,09,039,,33,01,259,23,35,52,070,43,1*41
$GBGSV,3,1,11,02,04,106,,05,18,128,,10,06,080,27,12,29,190,49,3*77
$GBGSV,3,2,11,13,29,088,16,24,76,287,,25,18,300,,26,51,127,,3*78
$GBGSV,3,3,11,29,09,039,,33,01,259,,35,52,070,,3*45
$GNGLL,5025.4459042,N,01411.3817370,E,212556.00,A,A*74
$GNRMC,212557.00,A,5025.4458928,N,01411.3817183,E,0.029,,241021,,,A,V*13
$GNVTG,,T,,M,0.029,N,0.055,K,A*36
$GNGGA,212557.00,5025.4458928,N,01411.3817183,E,1,12,0.91,218.852,M,44.078,M,,*4A
$GNGSA,A,3,79,88,87,81,69,78,,,,,,,1.68,0.91,1.42,2*0A
$GNGSA,A,3,12,24,13,25,26,35,,,,,,,1.68,0.91,1.42,4*06
$GLGSV,3,1,09,68,03,241,30,69,20,287,47,70,13,347,,77,30,108,,1*76
$GLGSV,3,2,09,78,77,024,49,79,32,306,47,81,16,183,41,87,51,053,46,1*73
$GLGSV,3,3,09,88,58,139,46,1*45
$GLGSV,3,1,09,68,03,241,27,69,20,287,42,70,13,347,,77,30,108,,3*77
$GLGSV,3,2,09,78,77,024,44,79,32,306,42,81,16,183,43,87,51,053,,3*79
$GLGSV,3,3,09,88,58,139,43,3*42
$GBGSV,3,1,11,02,04,106,,05,18,128,,10,06,080,21,12,29,190,41,1*7B
$GBGSV,3,2,11,13,29,088,27,24,76,287,37,25,18,300,49,26,51,127,44,1*71
$GBGSV,3,3,11,29,09,039,24,33,01,259,23,35,52,070,44,1*40
$GBGSV,3,1,11,02,04,106,,05,18,128,,10,06,080,27,12,29,190,49,3*77
$GBGSV,3,2,11,13,29,088,16,24,76,287,,25,18,300,,26,51,127,,3*78
$GBGSV,3,3,11,29,09,039,,33,01,259,,35,52,070,,3*45
$GNGLL,5025.4458928,N,01411.3817183,E,212557.00,A,A*7F
$GNRMC,212558.00,A,5025.4458974,N,01411.3817082,E,0.020,,241021,,,A,V*1C
$GNVTG,,T,,M,0.020,N,0.037,K,A*3B
$GNGGA,212558.00,5025.4458974,N,01411.3817082,E,1,12,0.91,218.910,M,44.078,M,,*4B
$GNGSA,A,3,79,88,87,81,69,78,,,,,,,1.68,0.91,1.42,2*0A
$GNGSA,A,3,12,24,13,25,26,35,,,,,,,1.68,0.91,1.42,4*06
$GLGSV,3,1,09,68,03,241,31,69,20,287,47,70,13,347,,77,30,108,,1*77
$GLGSV,3,2,09,78,77,024,49,79,32,306,47,81,16,183,41,87,51,053,46,1*73
$GLGSV,3,3,09,88,58,139,46,1*45
$GLGSV,3,1,09,68,03,241,27,69,20,287,42,70,13,347,,77,30,108,,3*77
$GLGSV,3,2,09,78,77,024,44,79,32,306,42,81,16,183,43,87,51,053,,3*79
$GLGSV,3,3,09,88,58,139,43,3*42
$GBGSV,3,1,11,02,04,106,,05,18,128,,10,06,080,20,12,29,190,41,1*7A
$GBGSV,3,2,11,13,29,088,27,24,76,287,37,25,18,300,49,26,51,127,43,1*76
$GBGSV,3,3,11,29,09,039,,33,01,259,23,35,52,070,44,1*46
$GBGSV,3,1,11,02,04,106,,05,18,128,,10,06,080,27,12,29,190,49,3*77
$GBGSV,3,2,11,13,29,088,18,24,76,287,,25,18,300,,26,51,127,,3*76
$GBGSV,3,3,11,29,09,039,,33,01,259,,35,52,070,,3*45
$GNGLL,5025.4458974,N,01411.3817082,E,212558.00,A,A*79
$GNRMC,212559.00,A,5025.4459070,N,01411.3817223,E,0.013,,241021,,,A,V*18
$GNVTG,,T,,M,0.013,N,0.024,K,A*39
$GNGGA,212559.00,5025.4459070,N,01411.3817223,E,1,12,0.91,218.912,M,44.078,M,,*4D
$GNGSA,A,3,79,88,87,81,69,78,,,,,,,1.68,0.91,1.42,2*0A
$GNGSA,A,3,12,24,13,25,26,35,,,,,,,1.68,0.91,1.42,4*06
$GLGSV,3,1,09,68,03,241,31,69,20,287,47,70,13,347,,77,30,108,,1*77
$GLGSV,3,2,09,78,77,024,49,79,32,306,47,81,16,183,41,87,51,053,46,1*73
$GLGSV,3,3,09,88,58,139,46,1*45
$GLGSV,3,1,09,68,03,241,27,69,20,287,42,70,13,347,,77,30,108,,3*77
$GLGSV,3,2,09,78,77,024,44,79,32,306,42,81,16,183,43,87,51,053,,3*79
$GLGSV,3,3,09,88,58,139,43,3*42
$GBGSV,3,1,11,02,04,106,,05,18,128,,10,06,080,20,12,29,190,40,1*7B
$GBGSV,3,2,11,13,29,088,27,24,76,287,38,25,18,300,49,26,51,127,43,1*79
$GBGSV,3,3,11,29,09,039,,33,01,259,23,35,52,070,44,1*46
$GBGSV,3,1,11,02,04,106,,05,18,128,,10,06,080,27,12,29,190,49,3*77
$GBGSV,3,2,11,13,29,088,18,24,76,287,,25,18,300,,26,51,127,,3*76
$GBGSV,3,3,11,29,09,039,,33,01,259,,35,52,070,,3*45
$GNGLL,5025.4459070,N,01411.3817223,E,212559.00,A,A*7D
$GNRMC,212600.00,A,5025.4459120,N,01411.3817360,E,0.019,,241021,,,A,V*1F
$GNVTG,,T,,M,0.019,N,0.035,K,A*33
$GNGGA,212600.00,5025.4459120,N,01411.3817360,E,1,12,0.91,218.892,M,44.078,M,,*49
$GNGSA,A,3,79,88,87,81,69,78,,,,,,,1.68,0.91,1.42,2*0A
$GNGSA,A,3,12,24,13,25,26,35,,,,,,,1.68,0.91,1.42,4*06
$GLGSV,3,1,09,68,03,241,31,69,20,287,47,70,13,347,,77,30,108,,1*77
$GLGSV,3,2,09,78,77,024,49,79,32,306,47,81,16,183,42,87,51,053,47,1*71
$GLGSV,3,3,09,88,58,139,46,1*45
$GLGSV,3,1,09,68,03,241,27,69,20,287,41,70,13,347,,77,30,108,,3*74
$GLGSV,3,2,09,78,77,024,44,79,32,306,42,81,16,183,43,87,51,053,,3*79
$GLGSV,3,3,09,88,58,139,43,3*42
$GBGSV,3,1,11,02,04,106,,05,18,128,,10,06,080,19,12,30,190,40,1*79
$GBGSV,3,2,11,13,29,088,27,24,76,287,38,25,18,300,49,26,51,127,43,1*79
$GBGSV,3,3,11,29,09,039,,33,01,259,22,35,52,070,44,1*47
$GBGSV,3,1,11,02,04,106,,05,18,128,,10,06,080,28,12,30,190,49,3*70
$GBGSV,3,2,11,13,29,088,18,24,76,287,,25,18,300,,26,51,127,,3*76
$GBGSV,3,3,11,29,09,039,,33,01,259,,35,52,070,,3*45
$GNGLL,5025.4459120,N,01411.3817360,E,212600.00,A,A*70
$GNRMC,212601.00,A,5025.4459206,N,01411.3817543,E,0.022,,241021,,,A,V*16
$GNVTG,,T,,M,0.022,N,0.042,K,A*3B
$GNGGA,212601.00,5025.4459206,N,01411.3817543,E,1,12,0.91,218.846,M,44.078,M,,*41
$GNGSA,A,3,79,88,87,81,69,78,,,,,,,1.68,0.91,1.42,2*0A
$GNGSA,A,3,12,24,13,25,26,35,,,,,,,1.68,0.91,1.42,4*06
$GLGSV,3,1,09,68,03,241,32,69,20,287,47,70,13,347,,77,30,108,,1*74
$GLGSV,3,2,09,78,77,024,49,79,32,306,47,81,16,183,42,87,51,053,47,1*71
$GLGSV,3,3,09,88,58,139,46,1*45
$GLGSV,3,1,09,68,03,241,27,69,20,287,41,70,13,347,,77,30,108,,3*74
$GLGSV,3,2,09,78,77,024,44,79,32,306,42,81,16,183,43,87,51,053,,3*79
$GLGSV,3,3,09,88,58,139,43,3*42
$GBGSV,3,1,11,02,04,106,,05,18,128,,10,06,080,,12,30,190,40,1*71
$GBGSV,3,2,11,13,29,088,26,24,76,287,38,25,18,300,49,26,51,127,43,1*78
$GBGSV,3,3,11,29,09,039,,33,01,259,22,35,52,070,44,1*47
$GBGSV,3,1,11,02,04,106,,05,18,128,,10,06,080,28,12,30,190,49,3*70
$GBGSV,3,2,11,13,29,088,19,24,76,287,,25,18,300,,26,51,127,,3*77
$GBGSV,3,3,11,29,09,039,,33,01,259,,35,52,070,,3*45
$GNGLL,5025.4459206,N,01411.3817543,E,212601.00,A,A*71
$GNRMC,212602.00,A,5025.4459239,N,01411.3817716,E,0.022,,241021,,,A,V*1B
$GNVTG,,T,,M,0.022,N,0.040,K,A*39
$GNGGA,212602.00,5025.4459239,N,01411.3817716,E,1,12,0.91,218.813,M,44.078,M,,*4C
$GNGSA,A,3,79,88,87,81,69,78,,,,,,,1.68,0.91,1.42,2*0A
$GNGSA,A,3,12,24,13,25,26,35,,,,,,,1.68,0.91,1.42,4*06
$GLGSV,3,1,09,68,03,241,32,69,20,287,46,70,13,347,,77,30,108,,1*75
$GLGSV,3,2,09,78,77,024,49,79,32,306,47,81,16,183,42,87,51,053,47,1*71
$GLGSV,3,3,09,88,58,139,46,1*45
$GLGSV,3,1,09,68,03,241,27,69,20,287,41,70,13,347,,77,30,108,,3*74
$GLGSV,3,2,09,78,77,024,44,79,32,306,42,81,16,183,43,87,51,053,,3*79
$GLGSV,3,3,09,88,58,139,43,3*42
$GBGSV,3,1,11,02,04,106,,05,18,128,,10,06,080,,12,30,190,40,1*71
$GBGSV,3,2,11,13,29,088,26,24,76,287,38,25,18,300,49,26,51,127,43,1*78
$GBGSV,3,3,11,29,09,039,24,33,01,259,22,35,52,070,43,1*46
$GBGSV,3,1,11,02,04,106,,05,18,128,,10,06,080,28,12,30,190,49,3*70
$GBGSV,3,2,11,13,29,088,18,24,76,287,,25,18,300,,26,51,127,,3*76
$GBGSV,3,3,11,29,09,039,,33,01,259,,35,52,070,,3*45
$GNGLL,5025.4459239,N,01411.3817716,E,212602.00,A,A*7C
$GNRMC,212603.00,A,5025.4459267,N,01411.3817871,E,0.033,,241021,,,A,V*1F
$GNVTG,,T,,M,0.033,N,0.062,K,A*39
$GNGGA,212603.00,5025.4459267,N,01411.3817871,E,1,12,0.91,218.765,M,44.078,M,,*46
$GNGSA,A,3,79,88,87,81,69,78,,,,,,,1.68,0.91,1.42,2*0A
$GNGSA,A,3,12,24,13,25,26,35,,,,,,,1.68,0.91,1.42,4*06
$GLGSV,3,1,09,68,03,241,32,69,20,287,46,70,13,347,,77,30,108,16,1*72
$GLGSV,3,2,09,78,77,024,49,79,32,306,47,81,16,183,42,87,51,053,47,1*71
$GLGSV,3,3,09,88,58,139,46,1*45
$GLGSV,3,1,09,68,03,241,27,69,20,287,41,70,13,347,,77,30,108,,3*74
$GLGSV,3,2,09,78,77,024,44,79,32,306,42,81,16,183,43,87,51,053,,3*79
$GLGSV,3,3,09,88,58,139,43,3*42
$GBGSV,3,1,11,02,04,106,,05,18,128,,10,06,080,,12,30,190,40,1*71
$GBGSV,3,2,11,13,29,088,26,24,76,287,38,25,18,300,49,26,51,127,43,1*78
$GBGSV,3,3,11,29,09,039,,33,01,259,22,35,52,070,43,1*40
$GBGSV,3,1,11,02,04,106,,05,18,128,,10,06,080,29,12,30,190,49,3*71
$GBGSV,3,2,11,13,29,088,19,24,76,287,,25,18,300,,26,51,127,,3*77
$GBGSV,3,3,11,29,09,039,,33,01,259,,35,52,070,,3*45
$GNGLL,5025.4459267,N,01411.3817871,E,212603.00,A,A*78
$GNRMC,212604.00,A,5025.4459240,N,01411.3818012,E,0.023,,241021,,,A,V*1E
$GNVTG,,T,,M,0.023,N,0.043,K,A*3B
$GNGGA,212604.00,5025.4459240,N,01411.3818012,E,1,12,0.91,218.729,M,44.078,M,,*4E
$GNGSA,A,3,79,88,87,81,69,78,,,,,,,1.68,0.91,1.42,2*0A
$GNGSA,A,3,12,24,13,25,26,35,,,,,,,1.68,0.91,1.42,4*06
$GLGSV,3,1,09,68,03,241,32,69,20,287,46,70,13,347,,77,30,108,15,1*71
$GLGSV,3,2,09,78,77,024,49,79,32,306,47,81,16,183,42,87,51,053,47,1*71
$GLGSV,3,3,09,88,58,139,47,1*44
$GLGSV,3,1,09,68,03,241,27,69,20,287,41,70,13,347,,77,30,108,,3*74
$GLGSV,3,2,09,78,77,024,44,79,32,306,42,81,16,183,43,87,51,053,,3*79
$GLGSV,3,3,09,88,58,139,43,3*42
$GBGSV,3,1,11,02,04,106,,05,18,128,,10,06,080,,12,30,190,40,1*71
$GBGSV,3,2,11,13,29,088,26,24,76,287,38,25,18,300,49,26,51,127,43,1*78
$GBGSV,3,3,11,29,09,039,,33,01,259,22,35,52,070,43,1*40
$GBGSV,3,1,11,02,04,106,,05,18,128,,10,06,080,29,12,30,190,49,3*71
$GBGSV,3,2,11,13,29,088,19,24,76,287,,25,18,300,,26,51,127,,3*77
$GBGSV,3,3,11,29,09,039,,33,01,259,,35,52,070,,3*45
$GNGLL,5025.4459240,N,01411.3818012,E,212604.00,A,A*78
$GNRMC,212605.00,A,5025.4459256,N,01411.3818242,E,0.025,,241021,,,A,V*19
$GNVTG,,T,,M,0.025,N,0.046,K,A*38
$GNGGA,212605.00,5025.4459256,N,01411.3818242,E,1,12,0.91,218.678,M,44.078,M,,*4A
$GNGSA,A,3,79,88,87,81,69,78,,,,,,,1.68,0.91,1.42,2*0A
$GNGSA,A,3,12,24,13,25,26,35,,,,,,,1.68,0.91,1.42,4*06
$GLGSV,3,1,09,68,03,241,32,69,20,287,46,70,13,347,,77,30,108,14,1*70
$GLGSV,3,2,09,78,77,024,49,79,32,306,47,81,16,183,42,87,51,053,47,1*71
$GLGSV,3,3,09,88,58,139,47,1*44
$GLGSV,3,1,09,68,03,241,27,69,20,287,41,70,13,347,,77,30,108,,3*74
$GLGSV,3,2,09,78,77,024,44,79,32,306,42,81,16,183,43,87,51,053,,3*79
$GLGSV,3,3,09,88,58,139,43,3*42
$GBGSV,3,1,11,02,04,106,,05,18,128,,10,06,080,,12,30,190,40,1*71
$GBGSV,3,2,11,13,29,088,26,24,76,287,38,25,18,300,49,26,51,127,43,1*78
$GBGSV,3,3,11,29,09,039,,33,01,259,21,35,52,070,43,1*43
$GBGSV,3,1,11,02,04,106,,05,18,128,,10,06,080,29,12,30,190,49,3*71
$GBGSV,3,2,11,13,29,088,20,24,76,287,,25,18,300,,26,51,127,,3*7D
$GBGSV,3,3,11,29,09,039,,33,01,259,,35,52,070,,3*45
$GNGLL,5025.4459256,N,01411.3818242,E,212605.00,A,A*79
$GNRMC,212606.00,A,5025.4459291,N,01411.3818468,E,0.009,,241021,,,A,V*11
$GNVTG,,T,,M,0.009,N,0.016,K,A*33
$GNGGA,212606.00,5025.4459291,N,01411.3818468,E,1,12,0.91,218.621,M,44.078,M,,*40
$GNGSA,A,3,79,88,87,81,69,78,,,,,,,1.68,0.91,1.42,2*0A
$GNGSA,A,3,12,24,13,25,26,35,,,,,,,1.68,0.91,1.42,4*06
$GLGSV,3,1,09,68,03,241,32,69,20,287,46,70,13,347,,77,30,108,16,1*72
$GLGSV,3,2,09,78,77,024,49,79,32,306,47,81,16,183,42,87,51,053,47,1*71
$GLGSV,3,3,09,88,58,139,47,1*44
$GLGSV,3,1,09,68,03,241,27,69,20,287,41,70,13,347,,77,30,108,,3*74
$GLGSV,3,2,09,78,77,024,44,79,32,306,42,81,16,183,43,87,51,053,,3*79
$GLGSV,3,3,09,88,58,139,43,3*42
$GBGSV,3,1,11,02,04,106,,05,18,128,,10,06,080,,12,30,190,40,1*71
$GBGSV,3,2,11,13,29,088,26,24,76,287,38,25,18,300,49,26,51,127,43,1*78
$GBGSV,3,3,11,29,09,039,,33,01,259,21,35,52,070,43,1*43
$GBGSV,3,1,11,02,04,106,,05,18,128,,10,06,080,29,12,30,190,49,3*71
$GBGSV,3,2,11,13,29,088,20,24,76,287,,25,18,300,,26,51,127,,3*7D
$GBGSV,3,3,11,29,09,039,,33,01,259,,35,52,070,,3*45
$GNGLL,5025.4459291,N,01411.3818468,E,212606.00,A,A*7F
$GNRMC,212607.00,A,5025.4459288,N,01411.3818567,E,0.006,,241021,,,A,V*19
$GNVTG,,T,,M,0.006,N,0.012,K,A*38
$GNGGA,212607.00,5025.4459288,N,01411.3818567,E,1,12,0.86,218.577,M,44.078,M,,*41
$GNGSA,A,3,77,79,88,87,81,69,78,,,,,,1.58,0.86,1.33,2*09
$GNGSA,A,3,12,24,13,25,26,35,,,,,,,1.58,0.86,1.33,4*05
$GLGSV,3,1,09,68,03,241,31,69,20,287,46,70,13,347,,77,30,108,17,1*70
$GLGSV,3,2,09,78,77,024,49,79,32,306,47,81,16,183,42,87,51,053,47,1*71
$GLGSV,3,3,09,88,58,139,47,1*44
$GLGSV,3,1,09,68,03,241,27,69,20,287,41,70,13,347,,77,30,108,,3*74
$GLGSV,3,2,09,78,77,024,44,79,32,306,42,81,16,183,42,87,51,053,,3*78
$GLGSV,3,3,09,88,58,139,43,3*42
$GBGSV,3,1,11,02,04,106,,05,18,128,,10,06,080,,12,30,190,40,1*71
$GBGSV,3,2,11,13,29,088,26,24,76,287,38,25,18,300,49,26,51,127,43,1*78
$GBGSV,3,3,11,29,09,039,,33,01,259,21,35,52,070,43,1*43
$GBGSV,3,1,11,02,04,106,,05,18,128,,10,06,080,29,12,30,190,49,3*71
$GBGSV,3,2,11,13,29,088,20,24,76,287,,25,18,300,,26,51,127,,3*7D
$GBGSV,3,3,11,29,09,039,,33,01,259,,35,52,070,,3*45
$GNGLL,5025.4459288,N,01411.3818567,E,212607.00,A,A*78
$GNRMC,212608.00,A,5025.4459400,N,01411.3818801,E,0.031,,241021,,,A,V*19
$GNVTG,,T,,M,0.031,N,0.057,K,A*3D
$GNGGA,212608.00,5025.4459400,N,01411.3818801,E,1,12,0.86,218.516,M,44.078,M,,*42
$GNGSA,A,3,77,79,88,87,81,69,78,,,,,,1.58,0.86,1.33,2*09
$GNGSA,A,3,12,24,13,25,26,35,,,,,,,1.58,0.86,1.33,4*05
$GLGSV,3,1,09,68,03,241,31,69,20,287,46,70,13,347,,77,30,108,17,1*70
$GLGSV,3,2,09,78,77,024,49,79,32,306,47,81,16,183,42,87,51,053,47,1*71
$GLGSV,3,3,09,88,58,139,48,1*4B
$GLGSV,3,1,09,68,03,241,27,69,20,287,41,70,13,347,,77,30,108,,3*74
$GLGSV,3,2,09,78,77,024,44,79,32,306,42,81,16,183,42,87,51,053,,3*78
$GLGSV,3,3,09,88,58,139,43,3*42
$GBGSV,3,1,11,02,04,106,,05,18,128,,10,06,080,,12,30,190,40,1*71
$GBGSV,3,2,11,13,29,088,26,24,76,287,39,25,18,300,49,26,51,127,43,1*79
$GBGSV,3,3,11,29,09,039,,33,01,259,22,35,52,070,43,1*40
$GBGSV,3,1,11,02,04,106,,05,18,128,,10,06,080,29,12,30,190,49,3*71
$GBGSV,3,2,11,13,29,088,20,24,76,287,,25,18,300,,26,51,127,,3*7D
$GBGSV,3,3,11,29,09,039,,33,01,259,,35,52,070,,3*45
$GNGLL,5025.4459400,N,01411.3818801,E,212608.00,A,A*7C
$GNRMC,212609.00,A,5025.4459488,N,01411.3818995,E,0.024,,241021,,,A,V*10
$GNVTG,,T,,M,0.024,N,0.045,K,A*3A
$GNGGA,212609.00,5025.4459488,N,01411.3818995,E,1,12,0.91,218.449,M,44.078,M,,*42
$GNGSA,A,3,77,79,88,87,81,69,78,,,,,,1.68,0.91,1.42,2*0A
$GNGSA,A,3,12,24,13,25,26,35,,,,,,,1.68,0.91,1.42,4*06
$GLGSV,3,1,09,68,03,241,31,69,20,287,46,70,13,347,,77,30,108,18,1*7F
$GLGSV,3,2,09,78,77,024,49,79,32,306,47,81,16,183,42,87,51,053,46,1*70
$GLGSV,3,3,09,88,58,139,48,1*4B
$GLGSV,3,1,09,68,03,241,27,69,20,287,41,70,13,347,,77,30,108,,3*74
$GLGSV,3,2,09,78,77,024,44,79,32,306,42,81,16,183,42,87,51,053,,3*78
$GLGSV,3,3,09,88,58,139,44,3*45
$GBGSV,3,1,11,02,04,106,,05,18,128,,10,06,080,,12,30,190,40,1*71
$GBGSV,3,2,11,13,29,088,26,24,76,287,38,25,18,300,49,26,51,127,43,1*78
$GBGSV,3,3,11,29,09,039,,33,01,259,22,35,52,070,43,1*40
$GBGSV,3,1,11,02,04,106,,05,18,128,,10,06,080,29,12,30,190,49,3*71
$GBGSV,3,2,11,13,29,088,20,24,76,287,,25,18,300,,26,51,127,,3*7D
$GBGSV,3,3,11,29,09,039,,33,01,259,,35,52,070,,3*45
$GNGLL,5025.4459488,N,01411.3818995,E,212609.00,A,A*71
$GNRMC,212610.00,A,5025.4459667,N,01411.3819411,E,0.020,,241021,,,A,V*1F
$GNVTG,,T,,M,0.020,N,0.036,K,A*3A
$GNGGA,212610.00,5025.4459667,N,01411.3819411,E,1,12,0.91,218.362,M,44.078,M,,*47
$GNGSA,A,3,77,79,88,87,81,69,78,,,,,,1.68,0.91,1.42,2*0A
$GNGSA,A,3,12,24,13,25,26,35,,,,,,,1.68,0.91,1.42,4*06
$GLGSV,3,1,09,68,03,241,31,69,20,287,46,70,13,347,,77,30,108,18,1*7F
$GLGSV,3,2,09,78,77,024,49,79,32,306,47,81,16,183,42,87,51,053,46,1*70
$GLGSV,3,3,09,88,58,139,48,1*4B
$GLGSV,3,1,09,68,03,241,27,69,20,287,41,70,13,347,,77,30,108,,3*74
$GLGSV,3,2,09,78,77,024,44,79,32,306,42,81,16,183,42,87,51,053,,3*78
$GLGSV,3,3,09,88,58,139,44,3*45
$GBGSV,3,1,11,02,04,106,,05,18,128,,10,06,080,,12,30,190,40,1*71
$GBGSV,3,2,11,13,29,088,26,24,76,287,39,25,18,300,49,26,51,127,43,1*79
$GBGSV,3,3,11,29,09,039,,33,01,259,22,35,52,070,43,1*40
$GBGSV,3,1,11,02,04,106,,05,18,128,,10,06,080,29,12,30,190,49,3*71
$GBGSV,3,2,11,13,29,088,20,24,76,287,,25,18,300,,26,51,127,,3*7D
$GBGSV,3,3,11,29,09,039,,33,01,259,,35,52,070,,3*45
$GNGLL,5025.4459667,N,01411.3819411,E,212610.00,A,A*7A
$GNRMC,212611.00,A,5025.4459800,N,01411.3819765,E,0.016,,241021,,,A,V*14
$GNVTG,,T,,M,0.016,N,0.029,K,A*31
$GNGGA,212611.00,5025.4459800,N,01411.3819765,E,1,12,0.91,218.282,M,44.078,M,,*46
$GNGSA,A,3,77,79,88,87,81,69,78,,,,,,1.68,0.91,1.42,2*0A
$GNGSA,A,3,12,24,13,25,26,35,,,,,,,1.68,0.91,1.42,4*06
$GLGSV,3,1,09,68,03,241,31,69,20,287,46,70,13,347,,77,30,108,17,1*70
$GLGSV,3,2,09,78,77,024,49,79,32,306,47,81,16,183,42,87,51,053,46,1*70
$GLGSV,3,3,09,88,58,139,48,1*4B
$GLGSV,3,1,09,68,03,241,27,69,20,287,41,70,13,347,,77,30,108,,3*74
$GLGSV,3,2,09,78,77,024,44,79,32,306,42,81,16,183,42,87,51,053,,3*78
$GLGSV,3,3,09,88,58,139,44,3*45
$GBGSV,3,1,11,02,04,106,,05,18,128,,10,06,080,,12,30,190,40,1*71
$GBGSV,3,2,11,13,29,088,26,24,76,287,38,25,18,300,49,26,51,127,43,1*78
$GBGSV,3,3,11,29,09,039,,33,01,259,23,35,52,070,43,1*41
$GBGSV,3,1,11,02,04,106,,05,18,128,,10,06,080,30,12,30,190,49,3*79
$GBGSV,3,2,11,13,29,088,20,24,76,287,,25,18,300,,26,51,127,,3*7D
$GBGSV,3,3,11,29,09,039,,33,01,259,,35,52,070,,3*45
$GNGLL,5025.4459800,N,01411.3819765,E,212611.00,A,A*74
$GNRMC,212612.00,A,5025.4459901,N,01411.3820052,E,0.006,,241021,,,A,V*1F
$GNVTG,,T,,M,0.006,N,0.012,K,A*38
$GNGGA,212612.00,5025.4459901,N,01411.3820052,E,1,12,0.91,218.211,M,44.078,M,,*46
$GNGSA,A,3,77,79,88,87,81,69,78,,,,,,1.68,0.91,1.42,2*0A
$GNGSA,A,3,12,24,13,25,26,35,,,,,,,1.68,0.91,1.42,4*06
$GLGSV,3,1,09,68,03,241,31,69,20,287,46,70,13,347,,77,30,108,16,1*71
$GLGSV,3,2,09,78,77,024,49,79,32,306,47,81,16,183,41,87,51,053,46,1*73
$GLGSV,3,3,09,88,58,139,48,1*4B
$GLGSV,3,1,09,68,03,241,27,69,20,287,41,70,13,347,,77,30,108,,3*74
$GLGSV,3,2,09,78,77,024,44,79,32,306,42,81,16,183,42,87,51,053,,3*78
$GLGSV,3,3,09,88,58,139,44,3*45
$GBGSV,3,1,11,02,04,106,,05,18,128,,10,06,080,,12,30,190,40,1*71
$GBGSV,3,2,11,13,29,088,26,24,76,287,38,25,18,300,48,26,51,127,42,1*78
$GBGSV,3,3,11,29,09,039,,33,01,259,23,35,52,070,43,1*41
$GBGSV,3,1,11,02,04,106,,05,18,128,,10,06,080,30,12,30,190,49,3*79
$GBGSV,3,2,11,13,29,088,22,24,76,287,,25,18,300,,26,51,127,,3*7F
$GBGSV,3,3,11,29,09,039,,33,01,259,,35,52,070,,3*45
$GNGLL,5025.4459901,N,01411.3820052,E,212612.00,A,A*7E
$GNRMC,212613.00,A,5025.4460095,N,01411.3820569,E,0.010,,241021,,,A,V*1A
$GNVTG,,T,,M,0.010,N,0.019,K,A*34
$GNGGA,212613.00,5025.4460095,N,01411.3820569,E,1,12,0.91,218.099,M,44.078,M,,*46
$GNGSA,A,3,77,79,88,87,81,69,78,,,,,,1.68,0.91,1.42,2*0A
$GNGSA,A,3,12,24,13,25,26,35,,,,,,,1.68,0.91,1.42,4*06
$GLGSV,3,1,09,68,03,241,31,69,20,287,46,70,13,347,,77,30,108,15,1*72
$GLGSV,3,2,09,78,77,024,49,79,32,306,47,81,16,183,41,87,51,053,46,1*73
$GLGSV,3,3,09,88,58,139,48,1*4B
$GLGSV,3,1,09,68,03,241,28,69,20,287,41,70,13,347,,77,30,108,,3*7B
$GLGSV,3,2,09,78,77,024,44,79,32,306,42,81,16,183,42,87,51,053,,3*78
$GLGSV,3,3,09,88,58,139,44,3*45
$GBGSV,3,1,11,02,04,106,,05,18,128,,10,06,080,,12,30,190,40,1*71
$GBGSV,3,2,11,13,29,088,26,24,76,287,38,25,18,300,48,26,51,127,42,1*78
$GBGSV,3,3,11,29,09,039,,33,01,259,23,35,52,070,43,1*41
$GBGSV,3,1,11,02,04,106,,05,18,128,,10,06,080,30,12,30,190,49,3*79
$GBGSV,3,2,11,13,29,088,22,24,76,287,,25,18,300,,26,51,127,,3*7F
$GBGSV,3,3,11,29,09,039,,33,01,259,,35,52,070,,3*45
$GNGLL,5025.4460095,N,01411.3820569,E,212613.00,A,A*7C
$GNRMC,212614.00,A,5025.4460260,N,01411.3820869,E,0.012,,241021,,,A,V*1A
$GNVTG,,T,,M,0.012,N,0.022,K,A*3E
$GNGGA,212614.00,5025.4460260,N,01411.3820869,E,1,12,0.86,218.011,M,44.078,M,,*42
$GNGSA,A,3,77,79,88,87,81,69,78,,,,,,1.58,0.86,1.33,2*09
$GNGSA,A,3,12,24,13,25,26,35,,,,,,,1.58,0.86,1.33,4*05
$GLGSV,3,1,09,68,03,241,31,69,20,287,46,70,13,347,,77,30,108,15,1*72
$GLGSV,3,2,09,78,77,024,49,79,32,306,47,81,16,183,41,87,51,053,46,1*73
$GLGSV,3,3,09,88,58,139,48,1*4B
$GLGSV,3,1,09,68,03,241,28,69,20,287,41,70,13,347,,77,30,108,,3*7B
$GLGSV,3,2,09,78,77,024,44,79,32,306,42,81,16,183,42,87,51,053,,3*78
$GLGSV,3,3,09,88,58,139,44,3*45
$GBGSV,3,1,11,02,04,106,,05,18,128,,10,06,080,,12,30,190,40,1*71
$GBGSV,3,2,11,13,29,088,26,24,76,287,38,25,18,300,48,26,51,127,42,1*78
$GBGSV,3,3,11,29,09,039,,33,01,259,22,35,52,070,43,1*40
$GBGSV,3,1,11,02,04,106,,05,18,128,,10,06,080,30,12,30,190,49,3*79
$GBGSV,3,2,11,13,29,088,23,24,76,287,,25,18,300,,26,51,127,,3*7E
$GBGSV,3,3,11,29,09,039,,33,01,259,,35,52,070,,3*45
$GNGLL,5025.4460260,N,01411.3820869,E,212614.00,A,A*7E
$GNRMC,212615.00,A,5025.4460427,N,01411.3821083,E,0.025,,241021,,,A,V*17
$GNVTG,,T,,M,0.025,N,0.046,K,A*38
$GNGGA,212615.00,5025.4460427,N,01411.3821083,E,1,12,0.86,217.935,M,44.078,M,,*4B
$GNGSA,A,3,77,79,88,87,81,69,78,,,,,,1.58,0.86,1.33,2*09
$GNGSA,A,3,12,24,13,25,26,35,,,,,,,1.58,0.86,1.33,4*05
$GLGSV,3,1,09,68,03,241,31,69,20,287,45,70,13,347,,77,30,108,16,1*72
$GLGSV,3,2,09,78,77,024,49,79,32,306,47,81,16,183,41,87,51,053,46,1*73
$GLGSV,3,3,09,88,58,139,48,1*4B
$GLGSV,3,1,09,68,03,241,28,69,20,287,41,70,13,347,,77,30,108,,3*7B
$GLGSV,3,2,09,78,77,024,44,79,32,306,42,81,16,183,42,87,51,053,,3*78
$GLGSV,3,3,09,88,58,139,44,3*45
$GBGSV,3,1,11,02,04,106,,05,18,128,,10,06,080,,12,30,190,40,1*71
$GBGSV,3,2,11,13,29,088,27,24,76,287,38,25,18,300,48,26,51,127,42,1*79
$GBGSV,3,3,11,29,09,039,,33,01,259,22,35,52,070,43,1*40
$GBGSV,3,1,11,02,04,106,,05,18,128,,10,06,080,29,12,30,190,49,3*71
$GBGSV,3,2,11,13,29,088,23,24,76,287,,25,18,300,,26,51,127,,3*7E
$GBGSV,3,3,11,29,09,039,,33,01,259,,35,52,070,,3*45
$GNGLL,5025.4460427,N,01411.3821083,E,212615.00,A,A*77
$GNRMC,212616.00,A,5025.4459335,N,01411.3819930,E,0.072,,241021,,,D,V*17
$GNVTG,,T,,M,0.072,N,0.133,K,D*3C
$GNGGA,212616.00,5025.4459335,N,01411.3819930,E,2,12,0.91,218.034,M,44.078,M,1.0,0084*6D
$GNGSA,A,3,77,79,88,87,81,69,78,,,,,,1.68,0.91,1.42,2*0A
$GNGSA,A,3,12,24,13,25,26,35,,,,,,,1.68,0.91,1.42,4*06
$GLGSV,3,1,09,68,03,241,31,69,20,287,45,70,13,347,,77,30,108,16,1*72
$GLGSV,3,2,09,78,77,024,49,79,32,306,47,81,16,183,41,87,51,053,46,1*73
$GLGSV,3,3,09,88,58,139,48,1*4B
$GLGSV,3,1,09,68,03,241,28,69,20,287,41,70,13,347,,77,30,108,,3*7B
$GLGSV,3,2,09,78,77,024,44,79,32,306,42,81,16,183,43,87,51,053,,3*79
$GLGSV,3,3,09,88,58,139,44,3*45
$GBGSV,3,1,11,02,04,106,,05,18,128,,10,06,080,,12,30,190,40,1*71
$GBGSV,3,2,11,13,29,088,27,24,76,287,37,25,18,300,48,26,51,127,42,1*76
$GBGSV,3,3,11,29,09,039,,33,01,259,22,35,52,070,43,1*40
$GBGSV,3,1,11,02,04,106,,05,18,128,,10,06,080,29,12,30,190,49,3*71
$GBGSV,3,2,11,13,29,088,22,24,76,287,,25,18,300,,26,51,127,,3*7F
$GBGSV,3,3,11,29,09,039,,33,01,259,,35,52,070,,3*45
$GNGLL,5025.4459335,N,01411.3819930,E,212616.00,A,D*75
$GNRMC,212617.00,A,5025.4459230,N,01411.3819671,E,0.015,,241021,,,F,V*1B
$GNVTG,,T,,M,0.015,N,0.028,K,D*36
$GNGGA,212617.00,5025.4459230,N,01411.3819671,E,5,12,0.91,218.056,M,44.078,M,1.0,0084*61
$GNGSA,A,3,77,79,88,87,81,69,78,,,,,,1.68,0.91,1.42,2*0A
$GNGSA,A,3,12,24,13,25,26,35,,,,,,,1.68,0.91,1.42,4*06
$GLGSV,3,1,09,68,03,241,31,69,20,287,45,70,13,347,,77,30,108,16,1*72
$GLGSV,3,2,09,78,77,024,50,79,32,306,47,81,16,183,41,87,51,053,45,1*78
$GLGSV,3,3,09,88,58,139,48,1*4B
$GLGSV,3,1,09,68,03,241,28,69,20,287,41,70,13,347,,77,30,108,,3*7B
$GLGSV,3,2,09,78,77,024,44,79,32,306,42,81,16,183,42,87,51,053,,3*78
$GLGSV,3,3,09,88,58,139,44,3*45
$GBGSV,3,1,11,02,04,106,,05,18,128,,10,06,080,,12,30,190,40,1*71
$GBGSV,3,2,11,13,29,088,27,24,76,287,37,25,18,300,48,26,51,127,42,1*76
$GBGSV,3,3,11,29,09,039,,33,01,259,22,35,52,070,43,1*40
$GBGSV,3,1,11,02,04,106,,05,18,128,,10,06,080,29,12,30,190,49,3*71
$GBGSV,3,2,11,13,29,088,23,24,76,287,,25,18,300,,26,51,127,,3*7E
$GBGSV,3,3,11,29,09,039,,33,01,259,,35,52,070,,3*45
$GNGLL,5025.4459230,N,01411.3819671,E,212617.00,A,D*7A
$GNRMC,212618.00,A,5025.4458920,N,01411.3819224,E,0.005,,241021,,,F,V*1A
$GNVTG,,T,,M,0.005,N,0.010,K,D*3C
$GNGGA,212618.00,5025.4458920,N,01411.3819224,E,5,12,0.91,218.096,M,44.078,M,1.0,0084*6D
$GNGSA,A,3,77,79,88,87,81,69,78,,,,,,1.68,0.91,1.42,2*0A
$GNGSA,A,3,12,24,13,25,26,35,,,,,,,1.68,0.91,1.42,4*06
$GLGSV,3,1,09,68,03,241,31,69,20,287,45,70,13,347,,77,30,108,15,1*71
$GLGSV,3,2,09,78,77,024,50,79,32,306,47,81,16,183,41,87,51,053,45,1*78
$GLGSV,3,3,09,88,58,139,48,1*4B
$GLGSV,3,1,09,68,03,241,27,69,20,287,41,70,13,347,,77,30,108,,3*74
$GLGSV,3,2,09,78,77,024,44,79,32,306,42,81,16,183,42,87,51,053,,3*78
$GLGSV,3,3,09,88,58,139,44,3*45
$GBGSV,3,1,11,02,04,106,,05,18,128,,10,06,080,,12,30,190,40,1*71
$GBGSV,3,2,11,13,29,088,27,24,76,287,37,25,18,300,48,26,51,127,42,1*76
$GBGSV,3,3,11,29,09,039,,33,01,259,22,35,52,070,43,1*40
$GBGSV,3,1,11,02,04,106,,05,18,128,,10,06,080,29,12,30,190,49,3*71
$GBGSV,3,2,11,13,29,088,23,24,76,287,,25,18,300,,26,51,127,,3*7E
$GBGSV,3,3,11,29,09,039,,33,01,259,,35,52,070,,3*45
$GNGLL,5025.4458920,N,01411.3819224,E,212618.00,A,D*7A
$GNRMC,212619.00,A,5025.4458649,N,01411.3818845,E,0.018,,241021,,,F,V*1B
$GNVTG,,T,,M,0.018,N,0.033,K,D*31
$GNGGA,212619.00,5025.4458649,N,01411.3818845,E,5,12,0.91,218.097,M,44.078,M,1.0,0084*61
$GNGSA,A,3,77,79,88,87,81,69,78,,,,,,1.68,0.91,1.42,2*0A
$GNGSA,A,3,12,24,13,25,26,35,,,,,,,1.68,0.91,1.42,4*06
$GLGSV,3,1,09,68,03,241,31,69,20,287,45,70,13,347,,77,30,108,13,1*77
$GLGSV,3,2,09,78,77,024,49,79,32,306,47,81,16,183,41,87,51,053,45,1*70
$GLGSV,3,3,09,88,58,139,48,1*4B
$GLGSV,3,1,09,68,03,241,27,69,20,287,41,70,13,347,,77,30,108,,3*74
$GLGSV,3,2,09,78,77,024,44,79,32,306,42,81,16,183,42,87,51,053,,3*78
$GLGSV,3,3,09,88,58,139,44,3*45
$GBGSV,3,1,11,02,04,106,,05,18,128,,10,06,080,,12,30,190,40,1*71
$GBGSV,3,2,11,13,29,088,27,24,76,287,37,25,18,300,48,26,51,127,42,1*76
$GBGSV,3,3,11,29,09,039,,33,01,259,22,35,52,070,43,1*40
$GBGSV,3,1,11,02,04,106,,05,18,128,,10,06,080,29,12,30,190,49,3*71
$GBGSV,3,2,11,13,29,088,25,24,76,287,,25,18,300,,26,51,127,,3*78
$GBGSV,3,3,11,29,09,039,,33,01,259,,35,52,070,,3*45
$GNGLL,5025.4458649,N,01411.3818845,E,212619.00,A,D*77
$GNRMC,212620.00,A,5025.4458362,N,01411.3818508,E,0.010,,241021,,,F,V*11
$GNVTG,,T,,M,0.010,N,0.019,K,D*31
$GNGGA,212620.00,5025.4458362,N,01411.3818508,E,5,12,0.91,218.071,M,44.078,M,1.0,0084*6B
$GNGSA,A,3,77,79,88,87,81,69,78,,,,,,1.69,0.91,1.42,2*0B
$GNGSA,A,3,12,24,13,25,26,35,,,,,,,1.69,0.91,1.42,4*07
$GLGSV,3,1,09,68,03,241,31,69,20,287,44,70,13,347,,77,30,108,11,1*74
$GLGSV,3,2,09,78,77,024,49,79,32,306,47,81,16,183,41,87,51,053,45,1*70
$GLGSV,3,3,09,88,58,139,48,1*4B
$GLGSV,3,1,09,68,03,241,27,69,20,287,41,70,13,347,,77,30,108,,3*74
$GLGSV,3,2,09,78,77,024,44,79,32,306,42,81,16,183,42,87,51,053,,3*78
$GLGSV,3,3,09,88,58,139,44,3*45
$GBGSV,3,1,11,02,04,106,,05,18,128,,10,06,080,,12,30,190,40,1*71
$GBGSV,3,2,11,13,29,088,27,24,76,287,37,25,18,300,48,26,51,127,42,1*76
$GBGSV,3,3,11,29,09,039,,33,01,259,21,35,52,070,43,1*43
$GBGSV,3,1,11,02,04,106,,05,18,128,,10,06,080,29,12,30,190,49,3*71
$GBGSV,3,2,11,13,29,088,25,24,76,287,,25,18,300,,26,51,127,,3*78
$GBGSV,3,3,11,29,09,039,,33,01,259,,35,52,070,,3*45
$GNGLL,5025.4458362,N,01411.3818508,E,212620.00,A,D*75
$GNRMC,212621.00,A,5025.4457957,N,01411.3818038,E,0.011,,241021,,,F,V*14
$GNVTG,,T,,M,0.011,N,0.021,K,D*3B
$GNGGA,212621.00,5025.4457957,N,01411.3818038,E,5,12,0.91,218.089,M,44.078,M,1.0,0084*68
$GNGSA,A,3,77,79,88,87,81,69,78,,,,,,1.69,0.91,1.42,2*0B
$GNGSA,A,3,12,24,13,25,26,35,,,,,,,1.69,0.91,1.42,4*07
$GLGSV,3,1,09,68,03,241,31,69,20,287,44,70,13,347,,77,30,108,10,1*75
$GLGSV,3,2,09,78,77,024,49,79,32,306,47,81,16,183,41,87,51,053,46,1*73
$GLGSV,3,3,09,88,58,139,48,1*4B
$GLGSV,3,1,09,68,03,241,27,69,20,287,41,70,13,347,,77,30,108,,3*74
$GLGSV,3,2,09,78,77,024,44,79,32,306,42,81,16,183,42,87,51,053,,3*78
$GLGSV,3,3,09,88,58,139,43,3*42
$GBGSV,3,1,11,02,04,106,,05,18,128,,10,06,080,,12,30,190,40,1*71
$GBGSV,3,2,11,13,29,088,27,24,76,287,36,25,18,300,48,26,51,127,42,1*77
$GBGSV,3,3,11,29,09,039,,33,01,259,21,35,52,070,43,1*43
$GBGSV,3,1,11,02,04,106,,05,18,128,,10,06,080,28,12,30,190,49,3*70
$GBGSV,3,2,11,13,29,088,25,24,76,287,,25,18,300,,26,51,127,,3*78
$GBGSV,3,3,11,29,09,039,,33,01,259,,35,52,070,,3*45
$GNGLL,5025.4457957,N,01411.3818038,E,212621.00,A,D*71
$GNRMC,212622.00,A,5025.4457470,N,01411.3817523,E,0.019,,241021,,,F,V*17
$GNVTG,,T,,M,0.019,N,0.036,K,D*35
$GNGGA,212622.00,5025.4457470,N,01411.3817523,E,5,12,0.91,218.146,M,44.078,M,1.0,0084*61
$GNGSA,A,3,77,79,88,87,81,69,78,,,,,,1.69,0.91,1.42,2*0B
$GNGSA,A,3,12,24,13,25,26,35,,,,,,,1.69,0.91,1.42,4*07
$GLGSV,3,1,09,68,03,241,31,69,20,287,44,70,13,347,,77,30,108,10,1*75
$GLGSV,3,2,09,78,77,024,49,79,32,306,47,81,16,183,41,87,51,053,46,1*73
$GLGSV,3,3,09,88,58,139,48,1*4B
$GLGSV,3,1,09,68,03,241,27,69,20,287,41,70,13,347,,77,30,108,,3*74
$GLGSV,3,2,09,78,77,024,44,79,32,306,42,81,16,183,42,87,51,053,,3*78
$GLGSV,3,3,09,88,58,139,43,3*42
$GBGSV,3,1,11,02,04,106,,05,18,128,,10,06,080,,12,30,190,40,1*71
$GBGSV,3,2,11,13,29,088,28,24,76,287,37,25,18,300,48,26,51,127,42,1*79
$GBGSV,3,3,11,29,09,039,,33,01,259,20,35,52,070,43,1*42
$GBGSV,3,1,11,02,04,106,,05,18,128,,10,06,080,29,12,30,190,49,3*71
$GBGSV,3,2,11,13,29,088,25,24,76,287,,25,18,300,,26,51,127,,3*78
$GBGSV,3,3,11,29,09,039,,33,01,259,,35,52,070,,3*45
$GNGLL,5025.4457470,N,01411.3817523,E,212622.00,A,D*7A
$GNRMC,212623.00,A,5025.4456897,N,01411.3816911,E,0.024,,241021,,,F,V*10
$GNVTG,,T,,M,0.024,N,0.045,K,D*3F
$GNGGA,212623.00,5025.4456897,N,01411.3816911,E,5,12,0.91,218.259,M,44.078,M,1.0,0084*65
$GNGSA,A,3,77,79,88,87,81,69,78,,,,,,1.69,0.91,1.42,2*0B
$GNGSA,A,3,12,24,13,25,26,35,,,,,,,1.69,0.91,1.42,4*07
$GLGSV,3,1,09,68,03,241,31,69,20,287,45,70,13,346,,77,30,108,10,1*75
$GLGSV,3,2,09,78,77,024,49,79,32,306,47,81,16,183,41,87,51,053,46,1*73
$GLGSV,3,3,09,88,58,139,47,1*44
$GLGSV,3,1,09,68,03,241,27,69,20,287,41,70,13,346,,77,30,108,15,3*71
$GLGSV,3,2,09,78,77,024,44,79,32,306,42,81,16,183,42,87,51,053,,3*78
$GLGSV,3,3,09,88,58,139,43,3*42
$GBGSV,3,1,11,02,04,106,,05,18,128,,10,06,080,,12,30,190,40,1*71
$GBGSV,3,2,11,13,29,088,27,24,76,287,36,25,18,300,48,26,51,127,42,1*77
$GBGSV,3,3,11,29,09,039,,33,01,259,19,35,52,070,43,1*48
$GBGSV,3,1,11,02,04,106,,05,18,128,,10,06,080,28,12,30,190,49,3*70
$GBGSV,3,2,11,13,29,088,26,24,76,287,,25,18,300,,26,51,127,,3*7B
$GBGSV,3,3,11,29,09,039,,33,01,259,,35,52,070,,3*45
$GNGLL,5025.4456897,N,01411.3816911,E,212623.00,A,D*73
$GNRMC,212624.00,A,5025.4456376,N,01411.3816323,E,0.035,,241021,,,F,V*18
$GNVTG,,T,,M,0.035,N,0.065,K,D*3D
$GNGGA,212624.00,5025.4456376,N,01411.3816323,E,5,12,0.91,218.383,M,44.078,M,1.0,0084*6B
$GNGSA,A,3,77,79,88,87,81,69,78,,,,,,1.69,0.91,1.42,2*0B
$GNGSA,A,3,12,24,13,25,26,35,,,,,,,1.69,0.91,1.42,4*07
$GLGSV,3,1,09,68,03,241,31,69,20,287,45,70,13,346,,77,30,108,10,1*75
$GLGSV,3,2,09,78,77,024,49,79,32,306,47,81,16,183,41,87,51,053,46,1*73
$GLGSV,3,3,09,88,58,139,47,1*44
$GLGSV,3,1,09,68,03,241,27,69,20,287,41,70,13,346,,77,30,108,15,3*71
$GLGSV,3,2,09,78,77,024,44,79,32,306,42,81,16,183,42,87,51,053,,3*78
$GLGSV,3,3,09,88,58,139,43,3*42
$GBGSV,3,1,11,02,04,106,,05,18,128,,10,06,080,,12,30,190,40,1*71
$GBGSV,3,2,11,13,29,088,28,24,76,287,36,25,18,300,48,26,51,127,42,1*78
$GBGSV,3,3,11,29,09,039,,33,01,259,19,35,52,070,43,1*48
$GBGSV,3,1,11,02,04,106,,05,18,128,,10,06,080,28,12,30,190,49,3*70
$GBGSV,3,2,11,13,29,088,26,24,76,287,,25,18,300,,26,51,127,,3*7B
$GBGSV,3,3,11,29,09,039,,33,01,259,,35,52,070,,3*45
$GNGLL,5025.4456376,N,01411.3816323,E,212624.00,A,D*7B
$GNRMC,212625.00,A,5025.4455838,N,01411.3815632,E,0.043,,241021,,,F,V*1C
$GNVTG,,T,,M,0.043,N,0.079,K,D*31
$GNGGA,212625.00,5025.4455838,N,01411.3815632,E,5,12,0.91,218.521,M,44.078,M,1.0,0084*60
$GNGSA,A,3,77,79,88,87,81,69,78,,,,,,1.69,0.91,1.42,2*0B
$GNGSA,A,3,12,24,13,25,26,35,,,,,,,1.69,0.91,1.42,4*07
$GLGSV,3,1,09,68,03,241,31,69,20,287,45,70,13,346,,77,30,108,13,1*76
$GLGSV,3,2,09,78,77,024,50,79,32,306,47,81,16,183,41,87,51,053,46,1*7B
$GLGSV,3,3,09,88,58,139,47,1*44
$GLGSV,3,1,09,68,03,241,27,69,20,287,41,70,13,346,,77,30,108,16,3*72
$GLGSV,3,2,09,78,77,024,44,79,32,306,42,81,16,183,42,87,51,053,,3*78
$GLGSV,3,3,09,88,58,139,43,3*42
$GBGSV,3,1,11,02,04,106,,05,18,128,,10,06,080,,12,30,190,40,1*71
$GBGSV,3,2,11,13,29,088,28,24,76,287,36,25,18,300,48,26,51,127,42,1*78
$GBGSV,3,3,11,29,09,039,,33,01,259,,35,52,070,43,1*40
$GBGSV,3,1,11,02,04,106,,05,18,128,,10,06,080,28,12,30,190,49,3*70
$GBGSV,3,2,11,13,29,088,26,24,76,287,,25,18,300,,26,51,127,,3*7B
$GBGSV,3,3,11,29,09,039,,33,01,259,,35,52,070,,3*45
$GNGLL,5025.4455838,N,01411.3815632,E,212625.00,A,D*7E
$GNRMC,212626.00,A,5025.4455439,N,01411.3815378,E,0.028,,241021,,,F,V*14
$GNVTG,,T,,M,0.028,N,0.052,K,D*35
$GNGGA,212626.00,5025.4455439,N,01411.3815378,E,5,12,0.91,218.527,M,44.078,M,1.0,0084*63
$GNGSA,A,3,77,79,88,87,81,69,78,,,,,,1.69,0.91,1.42,2*0B
$GNGSA,A,3,12,24,13,25,26,35,,,,,,,1.69,0.91,1.42,4*07
$GLGSV,3,1,09,68,03,241,31,69,20,287,45,70,13,346,,77,30,108,13,1*76
$GLGSV,3,2,09,78,77,024,50,79,32,306,47,81,16,183,41,87,51,053,46,1*7B
$GLGSV,3,3,09,88,58,139,47,1*44
$GLGSV,3,1,09,68,03,241,26,69,20,287,41,70,13,346,,77,30,108,16,3*73
$GLGSV,3,2,09,78,77,024,44,79,32,306,42,81,16,183,42,87,51,053,,3*78
$GLGSV,3,3,09,88,58,139,43,3*42
$GBGSV,3,1,11,02,04,106,,05,18,128,,10,06,080,,12,30,190,40,1*71
$GBGSV,3,2,11,13,29,088,28,24,76,287,36,25,18,300,48,26,51,127,42,1*78
$GBGSV,3,3,11,29,09,039,,33,01,259,,35,52,070,43,1*40
$GBGSV,3,1,11,02,04,106,,05,18,128,,10,06,080,28,12,30,190,49,3*70
$GBGSV,3,2,11,13,29,088,27,24,76,287,,25,18,300,,26,51,127,,3*7A
$GBGSV,3,3,11,29,09,039,,33,01,259,,35,52,070,,3*45
$GNGLL,5025.4455439,N,01411.3815378,E,212626.00,A,D*7B
$GNRMC,212627.00,A,5025.4455078,N,01411.3815192,E,0.021,,241021,,,F,V*1B
$GNVTG,,T,,M,0.021,N,0.038,K,D*30
$GNGGA,212627.00,5025.4455078,N,01411.3815192,E,5,12,0.91,218.516,M,44.078,M,1.0,0084*67
$GNGSA,A,3,77,79,88,87,81,69,78,,,,,,1.69,0.91,1.42,2*0B
$GNGSA,A,3,12,24,13,25,26,35,,,,,,,1.69,0.91,1.42,4*07
$GLGSV,3,1,09,68,03,241,30,69,20,287,45,70,13,346,,77,30,108,10,1*74
$GLGSV,3,2,09,78,77,024,50,79,32,306,47,81,16,183,41,87,51,053,46,1*7B
$GLGSV,3,3,09,88,58,139,47,1*44
$GLGSV,3,1,09,68,03,241,26,69,20,287,41,70,13,346,,77,30,108,16,3*73
$GLGSV,3,2,09,78,77,024,44,79,32,306,42,81,16,183,42,87,51,053,,3*78
$GLGSV,3,3,09,88,58,139,43,3*42
$GBGSV,3,1,11,02,04,106,,05,18,128,,10,06,080,,12,30,190,40,1*71
$GBGSV,3,2,11,13,29,088,28,24,76,287,36,25,18,300,48,26,51,127,42,1*78
$GBGSV,3,3,11,29,09,039,,33,01,259,,35,52,070,43,1*40
$GBGSV,3,1,11,02,04,106,,05,18,128,,10,06,080,28,12,30,190,49,3*70
$GBGSV,3,2,11,13,29,088,26,24,76,287,,25,18,300,,26,51,127,,3*7B
$GBGSV,3,3,11,29,09,039,,33,01,259,,35,52,070,,3*45
$GNGLL,5025.4455078,N,01411.3815192,E,212627.00,A,D*7D
$GNRMC,212628.00,A,5025.4454768,N,01411.3814919,E,0.008,,241021,,,F,V*12
$GNVTG,,T,,M,0.008,N,0.016,K,D*37
$GNGGA,212628.00,5025.4454768,N,01411.3814919,E,5,12,0.91,218.543,M,44.078,M,1.0,0084*65
$GNGSA,A,3,77,79,88,87,81,69,78,,,,,,1.69,0.91,1.42,2*0B
$GNGSA,A,3,12,24,13,25,26,35,,,,,,,1.69,0.91,1.42,4*07
$GLGSV,3,1,09,68,03,241,30,69,20,287,45,70,13,346,,77,30,108,10,1*74
$GLGSV,3,2,09,78,77,024,50,79,32,306,47,81,16,183,41,87,51,053,45,1*78
$GLGSV,3,3,09,88,58,139,46,1*45
$GLGSV,3,1,09,68,03,241,26,69,20,287,41,70,13,346,,77,30,108,15,3*70
$GLGSV,3,2,09,78,77,024,45,79,32,306,42,81,16,183,42,87,51,053,,3*79
$GLGSV,3,3,09,88,58,139,43,3*42
$GBGSV,3,1,11,02,04,106,,05,18,128,,10,06,080,,12,30,190,40,1*71
$GBGSV,3,2,11,13,29,088,28,24,76,287,36,25,18,300,48,26,51,127,42,1*78
$GBGSV,3,3,11,29,09,039,,33,01,259,,35,52,070,43,1*40
$GBGSV,3,1,11,02,04,106,,05,18,128,,10,06,080,28,12,30,190,49,3*70
$GBGSV,3,2,11,13,29,088,27,24,76,287,,25,18,300,,26,51,127,,3*7A
$GBGSV,3,3,11,29,09,039,,33,01,259,,35,52,070,,3*45
$GNGLL,5025.4454768,N,01411.3814919,E,212628.00,A,D*7F
$GNRMC,212629.00,A,5025.4454495,N,01411.3814392,E,0.020,,241021,,,F,V*11
$GNVTG,,T,,M,0.020,N,0.038,K,D*31
$GNGGA,212629.00,5025.4454495,N,01411.3814392,E,5,12,0.91,218.635,M,44.078,M,1.0,0084*6E
$GNGSA,A,3,77,79,88,87,81,69,78,,,,,,1.69,0.91,1.42,2*0B
$GNGSA,A,3,12,24,13,25,26,35,,,,,,,1.69,0.91,1.42,4*07
$GLGSV,3,1,09,68,03,241,30,69,20,287,45,70,13,346,,77,30,108,10,1*74
$GLGSV,3,2,09,78,77,024,50,79,32,306,46,81,16,183,41,87,51,053,46,1*7A
$GLGSV,3,3,09,88,58,139,46,1*45
$GLGSV,3,1,09,68,03,241,26,69,20,287,41,70,13,346,,77,30,108,15,3*70
$GLGSV,3,2,09,78,77,024,45,79,32,306,42,81,16,183,42,87,51,053,,3*79
$GLGSV,3,3,09,88,58,139,43,3*42
$GBGSV,3,1,11,02,04,106,,05,18,128,,10,06,080,,12,30,190,40,1*71
$GBGSV,3,2,11,13,29,088,28,24,76,287,35,25,18,300,48,26,51,127,42,1*7B
$GBGSV,3,3,11,29,09,039,,33,01,259,,35,52,070,42,1*41
$GBGSV,3,1,11,02,04,106,,05,18,128,,10,06,080,28,12,30,190,49,3*70
$GBGSV,3,2,11,13,29,088,27,24,76,287,,25,18,300,,26,51,127,,3*7A
$GBGSV,3,3,11,29,09,039,,33,01,259,,35,52,070,,3*45
$GNGLL,5025.4454495,N,01411.3814392,E,212629.00,A,D*76
$GNRMC,212630.00,A,5025.4454343,N,01411.3813928,E,0.027,,241021,,,F,V*1E
$GNVTG,,T,,M,0.027,N,0.051,K,D*39
$GNGGA,212630.00,5025.4454343,N,01411.3813928,E,5,12,0.91,218.681,M,44.078,M,1.0,0084*69
$GNGSA,A,3,77,79,88,87,81,69,78,,,,,,1.69,0.91,1.42,2*0B
$GNGSA,A,3,12,24,13,25,26,35,,,,,,,1.69,0.91,1.42,4*07
$GLGSV,3,1,09,68,03,241,30,69,20,287,45,70,13,346,,77,30,108,10,1*74
$GLGSV,3,2,09,78,77,024,50,79,32,306,46,81,16,183,41,87,51,053,46,1*7A
$GLGSV,3,3,09,88,58,139,46,1*45
$GLGSV,3,1,09,68,03,241,26,69,20,287,41,70,13,346,,77,30,108,13,3*76
$GLGSV,3,2,09,78,77,024,45,79,32,306,43,81,16,183,42,87,51,053,,3*78
$GLGSV,3,3,09,88,58,139,43,3*42
$GBGSV,3,1,11,02,04,106,,05,18,128,,10,06,080,,12,30,190,41,1*70
$GBGSV,3,2,11,13,29,088,28,24,76,287,35,25,18,300,48,26,51,127,42,1*7B
$GBGSV,3,3,11,29,09,039,,33,01,259,,35,52,070,43,1*40
$GBGSV,3,1,11,02,04,106,,05,18,128,,10,06,080,28,12,30,190,49,3*70
$GBGSV,3,2,11,13,29,088,27,24,76,287,,25,18,300,,26,51,127,,3*7A
$GBGSV,3,3,11,29,09,039,,33,01,259,,35,52,070,,3*45
$GNGLL,5025.4454343,N,01411.3813928,E,212630.00,A,D*7E
$GNRMC,212631.00,A,5025.4454365,N,01411.3813811,E,0.026,,241021,,,F,V*11
$GNVTG,,T,,M,0.026,N,0.048,K,D*30
$GNGGA,212631.00,5025.4454365,N,01411.3813811,E,5,12,0.91,218.626,M,44.078,M,1.0,0084*6A
$GNGSA,A,3,77,79,88,87,81,69,78,,,,,,1.69,0.91,1.42,2*0B
$GNGSA,A,3,12,24,13,25,26,35,,,,,,,1.69,0.91,1.42,4*07
$GLGSV,3,1,09,68,03,241,29,69,20,287,45,70,13,346,,77,30,108,04,1*79
$GLGSV,3,2,09,78,77,026,50,79,32,306,46,81,16,183,41,87,51,053,46,1*78
$GLGSV,3,3,09,88,58,139,46,1*45
$GLGSV,3,1,09,68,03,241,26,69,20,287,41,70,13,346,,77,30,108,11,3*74
$GLGSV,3,2,09,78,77,026,45,79,32,306,42,81,16,183,42,87,51,053,,3*7B
$GLGSV,3,3,09,88,58,139,43,3*42
$GBGSV,3,1,11,02,04,106,,05,18,128,,10,06,080,,12,30,190,40,1*71
$GBGSV,3,2,11,13,29,088,28,24,76,287,35,25,18,300,48,26,51,127,42,1*7B
$GBGSV,3,3,11,29,09,039,,33,01,259,,35,52,070,42,1*41
$GBGSV,3,1,11,02,04,106,,05,18,128,,10,06,080,28,12,30,190,49,3*70
$GBGSV,3,2,11,13,29,088,27,24,76,287,,25,18,300,,26,51,127,,3*7A
$GBGSV,3,3,11,29,09,039,,33,01,259,,35,52,070,,3*45
$GNGLL,5025.4454365,N,01411.3813811,E,212631.00,A,D*70
$GNRMC,212632.00,A,5025.4454236,N,01411.3813594,E,0.029,,241021,,,F,V*1A
$GNVTG,,T,,M,0.029,N,0.053,K,D*35
$GNGGA,212632.00,5025.4454236,N,01411.3813594,E,5,12,0.91,218.631,M,44.078,M,1.0,0084*68
$GNGSA,A,3,79,88,87,81,69,78,,,,,,,1.69,0.91,1.42,2*0B
$GNGSA,A,3,12,24,13,25,26,35,,,,,,,1.69,0.91,1.42,4*07
$GLGSV,3,1,09,68,03,241,29,69,20,287,45,70,13,346,,77,30,108,07,1*7A
$GLGSV,3,2,09,78,77,026,50,79,33,306,46,81,16,183,41,87,51,053,46,1*79
$GLGSV,3,3,09,88,58,139,46,1*45
$GLGSV,3,1,09,68,03,241,26,69,20,287,41,70,13,346,,77,30,108,09,3*7D
$GLGSV,3,2,09,78,77,026,44,79,33,306,42,81,16,183,42,87,51,053,,3*7B
$GLGSV,3,3,09,88,58,139,43,3*42
$GBGSV,3,1,11,02,04,106,,05,18,128,,10,06,080,,12,30,190,41,1*70
$GBGSV,3,2,11,13,29,088,28,24,76,287,35,25,18,300,49,26,51,127,42,1*7A
$GBGSV,3,3,11,29,09,039,,33,01,259,,35,52,070,42,1*41
$GBGSV,3,1,11,02,04,106,,05,18,128,,10,06,080,28,12,30,190,49,3*70
$GBGSV,3,2,11,13,29,088,27,24,76,287,,25,18,300,,26,51,127,,3*7A
$GBGSV,3,3,11,29,09,039,,33,01,259,,35,52,070,,3*45
$GNGLL,5025.4454236,N,01411.3813594,E,212632.00,A,D*74
$GNRMC,212633.00,A,5025.4453925,N,01411.3813554,E,0.027,,241021,,,F,V*17
$GNVTG,,T,,M,0.027,N,0.050,K,D*38
$GNGGA,212633.00,5025.4453925,N,01411.3813554,E,5,12,0.91,218.625,M,44.078,M,1.0,0084*6E
$GNGSA,A,3,79,88,87,81,69,78,,,,,,,1.69,0.91,1.42,2*0B
$GNGSA,A,3,12,24,13,25,26,35,,,,,,,1.69,0.91,1.42,4*07
$GLGSV,3,1,09,68,03,241,29,69,20,287,45,70,13,346,,77,30,108,09,1*74
$GLGSV,3,2,09,78,77,026,50,79,33,306,46,81,16,183,41,87,51,053,46,1*79
$GLGSV,3,3,09,88,58,139,46,1*45
$GLGSV,3,1,09,68,03,241,26,69,20,287,41,70,13,346,,77,30,108,08,3*7C
$GLGSV,3,2,09,78,77,026,44,79,33,306,42,81,16,183,42,87,51,053,,3*7B
$GLGSV,3,3,09,88,58,139,43,3*42
$GBGSV,3,1,11,02,04,106,,05,18,128,,10,06,080,,12,30,190,41,1*70
$GBGSV,3,2,11,13,29,088,29,24,76,287,35,25,18,300,49,26,51,127,42,1*7B
$GBGSV,3,3,11,29,09,039,,33,01,259,,35,52,070,42,1*41
$GBGSV,3,1,11,02,04,106,,05,18,128,,10,06,080,28,12,30,190,49,3*70
$GBGSV,3,2,11,13,29,088,27,24,76,287,,25,18,300,,26,51,127,,3*7A
$GBGSV,3,3,11,29,09,039,,33,01,259,,35,52,070,,3*45
$GNGLL,5025.4453925,N,01411.3813554,E,212633.00,A,D*77
$GNRMC,212634.00,A,5025.4453506,N,01411.3813548,E,0.022,,241021,,,F,V*15
$GNVTG,,T,,M,0.022,N,0.040,K,D*3C
$GNGGA,212634.00,5025.4453506,N,01411.3813548,E,5,12,0.91,218.633,M,44.078,M,1.0,0084*6E
$GNGSA,A,3,77,79,88,87,81,69,78,,,,,,1.69,0.91,1.42,2*0B
$GNGSA,A,3,12,24,13,25,26,35,,,,,,,1.69,0.91,1.42,4*07
$GLGSV,3,1,09,68,03,241,28,69,20,287,45,70,13,346,,77,30,108,11,1*7C
$GLGSV,3,2,09,78,77,026,50,79,33,306,47,81,16,183,42,87,51,053,46,1*7B
$GLGSV,3,3,09,88,58,139,46,1*45
$GLGSV,3,1,09,68,03,241,26,69,20,287,41,70,13,346,,77,30,108,08,3*7C
$GLGSV,3,2,09,78,77,026,44,79,33,306,43,81,16,183,42,87,51,053,,3*7A
$GLGSV,3,3,09,88,58,139,43,3*42
$GBGSV,3,1,11,02,04,106,,05,18,128,,10,06,080,,12,30,190,41,1*70
$GBGSV,3,2,11,13,29,088,29,24,76,287,35,25,18,300,49,26,51,127,42,1*7B
$GBGSV,3,3,11,29,09,039,,33,01,259,,35,52,070,42,1*41
$GBGSV,3,1,11,02,04,106,,05,18,128,,10,06,080,28,12,30,190,48,3*71
$GBGSV,3,2,11,13,29,088,28,24,76,287,,25,18,300,,26,51,127,,3*75
$GBGSV,3,3,11,29,09,039,,33,01,259,,35,52,070,,3*45
$GNGLL,5025.4453506,N,01411.3813548,E,212634.00,A,D*70
$GNRMC,212635.00,A,5025.4453118,N,01411.3813612,E,0.005,,241021,,,F,V*16
$GNVTG,,T,,M,0.005,N,0.008,K,D*35
$GNGGA,212635.00,5025.4453118,N,01411.3813612,E,5,12,0.91,218.609,M,44.078,M,1.0,0084*61
$GNGSA,A,3,77,79,88,87,81,69,78,,,,,,1.69,0.91,1.42,2*0B
$GNGSA,A,3,12,24,13,25,26,35,,,,,,,1.69,0.91,1.42,4*07
$GLGSV,3,1,09,68,03,241,28,69,20,287,45,70,13,346,,77,30,108,12,1*7F
$GLGSV,3,2,09,78,77,026,50,79,33,306,47,81,16,183,41,87,51,053,46,1*78
$GLGSV,3,3,09,88,58,139,46,1*45
$GLGSV,3,1,09,68,03,241,26,69,20,287,41,70,13,346,,77,30,108,10,3*75
$GLGSV,3,2,09,78,77,026,44,79,33,306,43,81,16,183,42,87,51,053,,3*7A
$GLGSV,3,3,09,88,58,139,43,3*42
$GBGSV,3,1,11,02,04,106,,05,18,128,,10,06,080,,12,30,190,41,1*70
$GBGSV,3,2,11,13,29,088,29,24,76,287,35,25,18,300,49,26,51,127,42,1*7B
$GBGSV,3,3,11,29,09,039,,33,01,259,,35,52,070,42,1*41
$GBGSV,3,1,11,02,04,106,,05,18,128,,10,06,080,27,12,30,190,48,3*7E
$GBGSV,3,2,11,13,29,088,27,24,76,287,,25,18,300,,26,51,127,,3*7A
$GBGSV,3,3,11,29,09,039,,33,01,259,,35,52,070,,3*45
$GNGLL,5025.4453118,N,01411.3813612,E,212635.00,A,D*76
$GNRMC,212636.00,A,5025.4452843,N,01411.3813752,E,0.006,,241021,,,F,V*15
$GNVTG,,T,,M,0.006,N,0.010,K,D*3F
$GNGGA,212636.00,5025.4452843,N,01411.3813752,E,5,12,0.91,218.565,M,44.078,M,1.0,0084*68
$GNGSA,A,3,77,79,88,87,81,69,78,,,,,,1.69,0.91,1.42,2*0B
$GNGSA,A,3,12,24,13,25,26,35,,,,,,,1.69,0.91,1.42,4*07
$GLGSV,3,1,09,68,03,241,27,69,20,287,45,70,13,346,,77,30,108,12,1*70
$GLGSV,3,2,09,78,77,026,50,79,33,306,47,81,16,183,41,87,51,053,46,1*78
$GLGSV,3,3,09,88,58,139,46,1*45
$GLGSV,3,1,09,68,03,241,26,69,20,287,41,70,13,346,,77,30,108,10,3*75
$GLGSV,3,2,09,78,77,026,44,79,33,306,43,81,16,183,42,87,51,053,,3*7A
$GLGSV,3,3,09,88,58,139,43,3*42
$GBGSV,3,1,11,02,04,106,,05,18,128,,10,06,080,,12,30,190,41,1*70
$GBGSV,3,2,11,13,29,088,29,24,76,287,35,25,18,300,49,26,51,127,42,1*7B
$GBGSV,3,3,11,29,09,039,,33,01,259,,35,52,070,42,1*41
$GBGSV,3,1,11,02,04,106,,05,18,128,,10,06,080,28,12,30,190,48,3*71
$GBGSV,3,2,11,13,29,088,28,24,76,287,,25,18,300,,26,51,127,,3*75
$GBGSV,3,3,11,29,09,039,,33,01,259,,35,52,070,,3*45
$GNGLL,5025.4452843,N,01411.3813752,E,212636.00,A,D*76
$GNRMC,212637.00,A,5025.4452616,N,01411.3813952,E,0.011,,241021,,,F,V*12
$GNVTG,,T,,M,0.011,N,0.021,K,D*3B
$GNGGA,212637.00,5025.4452616,N,01411.3813952,E,5,12,0.91,218.503,M,44.078,M,1.0,0084*69
$GNGSA,A,3,77,79,88,87,81,69,78,,,,,,1.69,0.91,1.42,2*0B
$GNGSA,A,3,12,24,13,25,26,35,,,,,,,1.69,0.91,1.42,4*07
$GLGSV,3,1,09,68,03,241,27,69,20,287,45,70,13,346,,77,30,108,10,1*72
$GLGSV,3,2,09,78,77,026,50,79,33,306,47,81,16,183,41,87,51,053,45,1*7B
$GLGSV,3,3,09,88,58,139,46,1*45
$GLGSV,3,1,09,68,03,241,26,69,20,287,41,70,13,346,,77,30,108,09,3*7D
$GLGSV,3,2,09,78,77,026,44,79,33,306,43,81,16,183,42,87,51,053,,3*7A
$GLGSV,3,3,09,88,58,139,43,3*42
$GBGSV,3,1,11,02,04,106,,05,18,128,,10,06,080,,12,30,190,41,1*70
$GBGSV,3,2,11,13,29,088,29,24,76,287,35,25,18,300,49,26,51,127,42,1*7B
$GBGSV,3,3,11,29,09,039,,33,01,259,,35,52,070,42,1*41
$GBGSV,3,1,11,02,04,106,,05,18,128,,10,06,080,28,12,30,190,48,3*71
$GBGSV,3,2,11,13,29,088,28,24,76,287,,25,18,300,,26,51,127,,3*75
$GBGSV,3,3,11,29,09,039,,33,01,259,,35,52,070,,3*45
$GNGLL,5025.4452616,N,01411.3813952,E,212637.00,A,D*77
$GNRMC,212638.00,A,5025.4452282,N,01411.3814045,E,0.010,,241021,,,F,V*1D
$GNVTG,,T,,M,0.010,N,0.019,K,D*31
$GNGGA,212638.00,5025.4452282,N,01411.3814045,E,5,12,0.91,218.488,M,44.078,M,1.0,0084*65
$GNGSA,A,3,79,88,87,81,69,78,,,,,,,1.69,0.91,1.42,2*0B
$GNGSA,A,3,12,24,13,25,26,35,,,,,,,1.69,0.91,1.42,4*07
$GLGSV,3,1,09,68,03,241,26,69,20,287,45,70,13,346,,77,30,108,10,1*73
$GLGSV,3,2,09,78,77,026,50,79,33,306,47,81,16,183,41,87,51,053,45,1*7B
$GLGSV,3,3,09,88,58,139,46,1*45
$GLGSV,3,1,09,68,03,241,26,69,20,287,41,70,13,346,,77,30,108,02,3*76
$GLGSV,3,2,09,78,77,026,45,79,33,306,43,81,16,183,42,87,51,053,,3*7B
$GLGSV,3,3,09,88,58,139,43,3*42
$GBGSV,3,1,11,02,04,106,,05,18,128,,10,06,080,,12,30,190,41,1*70
$GBGSV,3,2,11,13,29,088,29,24,76,287,35,25,18,300,49,26,51,127,42,1*7B
$GBGSV,3,3,11,29,09,039,,33,01,259,,35,52,070,42,1*41
$GBGSV,3,1,11,02,04,106,,05,18,128,,10,06,080,28,12,30,190,48,3*71
$GBGSV,3,2,11,13,29,088,28,24,76,287,,25,18,300,,26,51,127,,3*75
$GBGSV,3,3,11,29,09,039,,33,01,259,,35,52,070,,3*45
$GNGLL,5025.4452282,N,01411.3814045,E,212638.00,A,D*79
$GNRMC,212639.00,A,5025.4452080,N,01411.3814180,E,0.011,,241021,,,F,V*15
$GNVTG,,T,,M,0.011,N,0.021,K,D*3B
$GNGGA,212639.00,5025.4452080,N,01411.3814180,E,5,12,0.91,218.474,M,44.078,M,1.0,0084*6F
$GNGSA,A,3,79,88,87,81,69,78,,,,,,,1.69,0.91,1.42,2*0B
$GNGSA,A,3,12,24,13,25,26,35,,,,,,,1.69,0.91,1.42,4*07
$GLGSV,3,1,09,68,03,241,25,69,20,287,45,70,13,346,,77,30,108,09,1*78
$GLGSV,3,2,09,78,77,026,50,79,33,306,47,81,16,183,42,87,51,053,45,1*78
$GLGSV,3,3,09,88,58,139,46,1*45
$GLGSV,3,1,09,68,03,241,27,69,20,287,41,70,13,346,,77,30,108,06,3*73
$GLGSV,3,2,09,78,77,026,45,79,33,306,43,81,16,183,42,87,51,053,,3*7B
$GLGSV,3,3,09,88,58,139,43,3*42
$GBGSV,3,1,11,02,04,106,,05,18,128,,10,06,080,,12,30,190,41,1*70
$GBGSV,3,2,11,13,29,088,29,24,76,287,35,25,18,300,49,26,51,127,42,1*7B
$GBGSV,3,3,11,29,09,039,,33,01,259,,35,52,070,42,1*41
$GBGSV,3,1,11,02,04,106,,05,18,128,,10,06,080,28,12,30,190,48,3*71
$GBGSV,3,2,11,13,29,088,28,24,76,287,,25,18,300,,26,51,127,,3*75
$GBGSV,3,3,11,29,09,039,,33,01,259,,35,52,070,,3*45
$GNGLL,5025.4452080,N,01411.3814180,E,212639.00,A,D*70
$GNRMC,212640.00,A,5025.4452056,N,01411.3814430,E,0.007,,241021,,,F,V*19
$GNVTG,,T,,M,0.007,N,0.013,K,D*3D
$GNGGA,212640.00,5025.4452056,N,01411.3814430,E,5,12,0.91,218.440,M,44.078,M,1.0,0084*63
$GNGSA,A,3,79,88,87,81,69,78,,,,,,,1.69,0.91,1.42,2*0B
$GNGSA,A,3,12,24,13,25,26,35,,,,,,,1.69,0.91,1.42,4*07
