$GNGGA,213525.00,5025.4447562,N,01411.3818060,E,4,12,0.64,217.764,M,44.078,M,1.0,0084*68
$GNGSA,A,3,24,25,29,31,32,12,02,06,,,,,1.29,0.64,1.12,1*05
$GNGSA,A,3,33,31,24,26,01,09,05,13,,,,,1.29,0.64,1.12,3*06
$GNGSA,A,3,13,12,24,26,25,35,,,,,,,1.29,0.64,1.12,4*0C
$GPGSV,3,1,11,02,40,097,41,03,01,349,22,06,26,049,31,11,,,33,1*5A
$GPGSV,3,2,11,12,67,073,47,19,00,045,24,24,27,154,49,25,74,295,41,1*6E
$GPGSV,3,3,11,29,40,212,46,31,20,310,46,32,30,265,47,1*58
$GPGSV,3,1,10,02,40,097,,03,01,349,27,06,26,049,21,12,67,073,43,6*6C
$GPGSV,3,2,10,19,00,045,,24,27,154,45,25,74,295,46,29,40,212,39,6*64
$GPGSV,3,3,10,31,20,310,39,32,30,265,42,6*6F
$GAGSV,3,1,10,01,49,093,30,04,03,208,18,05,21,308,45,09,23,255,45,7*76
$GAGSV,3,2,10,13,13,030,26,21,02,100,,24,22,284,46,26,45,082,41,7*74
$GAGSV,3,3,10,31,71,299,40,33,35,148,44,7*7B
$GAGSV,3,1,10,01,49,093,43,04,03,208,21,05,21,308,44,09,23,255,47,2*7E
$GAGSV,3,2,10,13,13,030,,21,02,100,,24,22,284,49,26,45,082,36,2*7A
$GAGSV,3,3,10,31,71,299,47,33,35,148,41,2*7C
$GBGSV,3,1,10,02,04,106,,05,18,128,,10,05,082,17,12,33,190,41,1*75
$GBGSV,3,2,10,13,31,087,28,24,79,279,43,25,21,301,47,26,48,129,40,1*73
$GBGSV,3,3,10,29,06,039,25,35,50,066,43,1*73
$GBGSV,3,1,10,02,04,106,,05,18,128,,10,05,082,,12,33,190,48,3*78
$GBGSV,3,2,10,13,31,087,25,24,79,279,,25,21,301,,26,48,129,,3*7C
$GBGSV,3,3,10,29,06,039,,35,50,066,,3*71
$GNGLL,5025.4447562,N,01411.3818060,E,213525.00,A,D*71
$GNTXT,01,01,02,Starting GNSS*5A
$GNRMC,213525.43,V,,,,,,,241021,,,N,V*18
$GNVTG,,,,,,,,,N*2E
$GNGGA,213525.43,,,,,0,00,99.99,,,,,,*7D
$GNGSA,A,1,,,,,,,,,,,,,99.99,99.99,99.99,2*30
$GNGSA,A,1,,,,,,,,,,,,,99.99,99.99,99.99,4*36
$GLGSV,1,1,00,1*78
$GLGSV,1,1,00,3*7A
$GBGSV,1,1,00,1*76
$GBGSV,1,1,00,3*74
$GNGLL,,,,,213525.43,V,N*51
$GNRMC,213526.00,V,,,,,,,241021,,,N,V*1C
$GNVTG,,,,,,,,,N*2E
$GNGGA,213526.00,,,,,0,11,1.08,,,,,,*40
$GNGSA,A,1,79,88,87,81,69,78,,,,,,,2.10,1.08,1.80,2*0B
$GNGSA,A,1,12,24,25,26,35,,,,,,,,2.10,1.08,1.80,4*05
$GLGSV,2,1,08,69,17,282,43,70,14,342,,77,26,112,,78,77,050,48,1*72
$GLGSV,2,2,08,79,37,309,46,81,21,184,42,87,48,047,41,88,63,132,41,1*76
$GLGSV,2,1,08,69,17,282,,70,14,342,,77,26,112,,78,77,050,,3*7B
$GLGSV,2,2,08,79,37,309,,81,21,184,,87,48,047,,88,63,132,,3*70
$GBGSV,3,1,10,02,04,106,,05,18,128,,10,05,082,,12,34,190,40,1*75
$GBGSV,3,2,10,13,31,086,26,24,79,278,42,25,22,301,46,26,47,129,40,1*71
$GBGSV,3,3,10,29,06,039,23,35,50,066,42,1*74
$GBGSV,3,1,10,02,04,106,,05,18,128,,10,05,082,,12,34,190,,3*73
$GBGSV,3,2,10,13,31,086,,24,79,278,,25,22,301,,26,47,129,,3*77
$GBGSV,3,3,10,29,06,039,,35,50,066,,3*71
$GNGLL,,,,,213526.00,V,N*55
$GNRMC,213527.00,A,5025.4449561,N,01411.3814806,E,0.097,,241021,,,A,V*16
$GNVTG,,T,,M,0.097,N,0.180,K,A*3A
$GNGGA,213527.00,5025.4449561,N,01411.3814806,E,1,12,0.89,218.428,M,44.078,M,,*42
$GNGSA,A,3,79,88,87,81,69,78,,,,,,,1.73,0.89,1.49,2*02
$GNGSA,A,3,13,12,24,25,26,35,,,,,,,1.73,0.89,1.49,4*0E
$GLGSV,2,1,08,69,17,282,44,70,14,342,,77,26,112,19,78,77,050,49,1*7C
$GLGSV,2,2,08,79,37,309,48,81,21,184,44,87,48,047,42,88,63,132,43,1*7F
$GLGSV,2,1,08,69,17,282,40,70,14,342,,77,26,112,,78,77,050,43,3*78
$GLGSV,2,2,08,79,37,309,44,81,21,184,40,87,48,047,,88,63,132,39,3*7E
$GBGSV,3,1,10,02,04,106,,05,18,128,,10,05,082,,12,34,190,40,1*75
$GBGSV,3,2,10,13,31,086,27,24,79,278,42,25,22,301,46,26,47,129,40,1*70
$GBGSV,3,3,10,29,06,039,23,35,50,066,43,1*75
$GBGSV,3,1,10,02,04,106,,05,18,128,,10,05,082,,12,34,190,47,3*70
$GBGSV,3,2,10,13,31,086,23,24,79,278,,25,22,301,,26,47,129,,3*76
$GBGSV,3,3,10,29,06,039,,35,50,066,,3*71
$GNGLL,5025.4449561,N,01411.3814806,E,213527.00,A,A*7F
$GNRMC,213528.00,A,5025.4455231,N,01411.3816226,E,0.012,,241021,,,A,V*11
$GNVTG,,T,,M,0.012,N,0.022,K,A*3E
$GNGGA,213528.00,5025.4455231,N,01411.3816226,E,1,12,0.89,218.393,M,44.078,M,,*4F
$GNGSA,A,3,79,88,87,81,69,78,,,,,,,1.73,0.89,1.49,2*02
$GNGSA,A,3,13,12,24,25,26,35,,,,,,,1.73,0.89,1.49,4*0E
$GLGSV,2,1,08,69,17,282,45,70,14,342,,77,26,112,20,78,77,050,49,1*77
$GLGSV,2,2,08,79,37,309,48,81,21,184,45,87,48,047,43,88,63,132,43,1*7F
$GLGSV,2,1,08,69,17,282,41,70,14,342,,77,26,112,,78,77,050,43,3*79
$GLGSV,2,2,08,79,37,309,44,81,21,184,40,87,48,047,,88,63,132,39,3*7E
$GBGSV,3,1,10,02,04,106,,05,18,128,,10,05,082,17,12,34,190,41,1*72
$GBGSV,3,2,10,13,31,086,27,24,79,278,43,25,22,301,47,26,47,129,41,1*71
$GBGSV,3,3,10,29,06,039,25,35,50,066,43,1*73
$GBGSV,3,1,10,02,04,106,,05,18,128,,10,05,082,,12,34,190,47,3*70
$GBGSV,3,2,10,13,31,086,24,24,79,278,,25,22,301,,26,47,129,,3*71
$GBGSV,3,3,10,29,06,039,,35,50,066,,3*71
$GNGLL,5025.4455231,N,01411.3816226,E,213528.00,A,A*75
$GNRMC,213529.00,A,5025.4456739,N,01411.3817906,E,0.018,,241021,,,A,V*1C
$GNVTG,,T,,M,0.018,N,0.033,K,A*34
$GNGGA,213529.00,5025.4456739,N,01411.3817906,E,1,12,0.89,217.788,M,44.078,M,,*49
$GNGSA,A,3,79,88,87,81,69,78,,,,,,,1.73,0.89,1.49,2*02
$GNGSA,A,3,13,12,24,25,26,35,,,,,,,1.73,0.89,1.49,4*0E
$GLGSV,2,1,08,69,17,282,45,70,14,342,,77,26,112,21,78,77,050,49,1*76
$GLGSV,2,2,08,79,37,309,49,81,21,184,45,87,48,047,43,88,63,132,44,1*79
$GLGSV,2,1,08,69,17,282,41,70,14,342,,77,26,112,,78,77,050,43,3*79
$GLGSV,2,2,08,79,37,309,45,81,21,184,41,87,48,047,,88,63,132,39,3*7E
$GBGSV,3,1,10,02,04,106,,05,18,128,,10,05,082,18,12,34,190,41,1*7D
$GBGSV,3,2,10,13,31,086,27,24,79,278,43,25,22,301,47,26,47,129,41,1*71
$GBGSV,3,3,10,29,06,039,25,35,50,066,43,1*73
$GBGSV,3,1,10,02,04,106,,05,18,128,,10,05,082,,12,34,190,47,3*70
$GBGSV,3,2,10,13,31,086,25,24,79,278,,25,22,301,,26,47,129,,3*70
$GBGSV,3,3,10,29,06,039,,35,50,066,,3*71
$GNGLL,5025.4456739,N,01411.3817906,E,213529.00,A,A*72
$GNRMC,213530.00,A,5025.4457344,N,01411.3817126,E,0.006,,241021,,,A,V*1E
$GNVTG,,T,,M,0.006,N,0.010,K,A*3A
$GNGGA,213530.00,5025.4457344,N,01411.3817126,E,1,12,0.84,218.025,M,44.078,M,,*46
$GNGSA,A,3,77,79,88,87,81,69,78,,,,,,1.59,0.84,1.35,2*0C
$GNGSA,A,3,13,12,24,25,26,35,,,,,,,1.59,0.84,1.35,4*00
$GLGSV,2,1,08,69,17,282,45,70,14,342,,77,26,112,22,78,77,050,49,1*75
$GLGSV,2,2,08,79,37,309,49,81,21,184,45,87,48,047,44,88,63,132,44,1*7E
$GLGSV,2,1,08,69,17,282,41,70,14,342,,77,26,112,,78,77,050,43,3*79
$GLGSV,2,2,08,79,37,309,45,81,21,184,41,87,48,047,,88,63,132,39,3*7E
$GBGSV,3,1,10,02,04,106,,05,18,128,,10,05,082,18,12,34,190,40,1*7C
$GBGSV,3,2,10,13,31,086,27,24,79,278,43,25,22,301,46,26,47,129,41,1*70
$GBGSV,3,3,10,29,06,039,25,35,50,066,43,1*73
$GBGSV,3,1,10,02,04,106,,05,18,128,,10,05,082,,12,34,190,47,3*70
$GBGSV,3,2,10,13,31,086,25,24,79,278,,25,22,301,,26,47,129,,3*70
$GBGSV,3,3,10,29,06,039,,35,50,066,,3*71
$GNGLL,5025.4457344,N,01411.3817126,E,213530.00,A,A*7F
$GNRMC,213531.00,A,5025.4457682,N,01411.3816501,E,0.019,,241021,,,A,V*1E
$GNVTG,,T,,M,0.019,N,0.035,K,A*33
$GNGGA,213531.00,5025.4457682,N,01411.3816501,E,1,12,0.84,218.211,M,44.078,M,,*4D
$GNGSA,A,3,77,79,88,87,81,69,78,,,,,,1.59,0.84,1.35,2*0C
$GNGSA,A,3,13,12,24,25,26,35,,,,,,,1.59,0.84,1.35,4*00
$GLGSV,2,1,08,69,17,282,45,70,14,342,,77,26,112,22,78,77,050,49,1*75
$GLGSV,2,2,08,79,37,309,49,81,21,184,46,87,48,047,43,88,63,132,45,1*7B
$GLGSV,2,1,08,69,17,282,41,70,14,342,,77,26,112,18,78,77,050,43,3*70
$GLGSV,2,2,08,79,37,309,45,81,21,184,42,87,48,047,,88,63,132,40,3*73
$GBGSV,3,1,10,02,04,106,,05,18,128,,10,05,082,17,12,34,190,40,1*73
$GBGSV,3,2,10,13,31,086,27,24,79,278,43,25,22,301,46,26,47,129,41,1*70
$GBGSV,3,3,10,29,06,039,25,35,50,066,43,1*73
$GBGSV,3,1,10,02,04,106,,05,18,128,,10,05,082,,12,34,190,47,3*70
$GBGSV,3,2,10,13,31,086,24,24,79,278,,25,22,301,,26,47,129,,3*71
$GBGSV,3,3,10,29,06,039,,35,50,066,,3*71
$GNGLL,5025.4457682,N,01411.3816501,E,213531.00,A,A*71
$GNRMC,213532.00,A,5025.4458536,N,01411.3815515,E,0.039,,241021,,,A,V*1A
$GNVTG,,T,,M,0.039,N,0.073,K,A*33
$GNGGA,213532.00,5025.4458536,N,01411.3815515,E,1,12,0.89,218.616,M,44.078,M,,*45
$GNGSA,A,3,77,79,88,87,81,69,78,,,,,,1.73,0.89,1.49,2*02
$GNGSA,A,3,13,12,24,25,26,35,,,,,,,1.73,0.89,1.49,4*0E
$GLGSV,2,1,08,69,17,282,45,70,14,342,,77,26,112,23,78,77,050,49,1*74
$GLGSV,2,2,08,79,37,309,49,81,21,184,46,87,48,047,43,88,63,132,45,1*7B
$GLGSV,2,1,08,69,17,282,41,70,14,342,,77,26,112,19,78,77,050,43,3*71
$GLGSV,2,2,08,79,37,309,45,81,21,184,42,87,48,047,,88,63,132,40,3*73
$GBGSV,3,1,10,02,04,106,,05,18,128,,10,05,082,17,12,34,190,40,1*73
$GBGSV,3,2,10,13,31,086,27,24,79,278,43,25,22,301,46,26,47,129,41,1*70
$GBGSV,3,3,10,29,06,039,25,35,50,066,43,1*73
$GBGSV,3,1,10,02,04,106,,05,18,128,,10,05,082,,12,34,190,47,3*70
$GBGSV,3,2,10,13,31,086,24,24,79,278,,25,22,301,,26,47,129,,3*71
$GBGSV,3,3,10,29,06,039,,35,50,066,,3*71
$GNGLL,5025.4458536,N,01411.3815515,E,213532.00,A,A*77
$GNRMC,213533.00,A,5025.4458867,N,01411.3815054,E,0.009,,241021,,,A,V*11
$GNVTG,,T,,M,0.009,N,0.016,K,A*33
$GNGGA,213533.00,5025.4458867,N,01411.3815054,E,1,12,0.89,218.849,M,44.078,M,,*49
$GNGSA,A,3,77,79,88,87,81,69,78,,,,,,1.73,0.89,1.49,2*02
$GNGSA,A,3,13,12,24,25,26,35,,,,,,,1.73,0.89,1.49,4*0E
$GLGSV,2,1,08,69,17,282,46,70,14,342,,77,26,112,23,78,77,050,49,1*77
$GLGSV,2,2,08,79,37,309,49,81,21,184,46,87,48,047,43,88,63,132,45,1*7B
$GLGSV,2,1,08,69,17,282,41,70,14,342,,77,26,112,20,78,77,050,43,3*7B
$GLGSV,2,2,08,79,37,309,45,81,21,184,42,87,48,047,,88,63,132,40,3*73
$GBGSV,3,1,10,02,04,106,,05,18,128,,10,05,082,18,12,34,190,40,1*7C
$GBGSV,3,2,10,13,31,086,27,24,79,278,43,25,22,301,46,26,47,129,41,1*70
$GBGSV,3,3,10,29,06,039,25,35,50,066,43,1*73
$GBGSV,3,1,10,02,04,106,,05,18,128,,10,05,082,27,12,34,190,47,3*75
$GBGSV,3,2,10,13,31,086,24,24,79,278,,25,22,301,,26,47,129,,3*71
$GBGSV,3,3,10,29,06,039,,35,50,066,,3*71
$GNGLL,5025.4458867,N,01411.3815054,E,213533.00,A,A*7F
$GNRMC,213534.00,A,5025.4459077,N,01411.3814542,E,0.010,,241021,,,A,V*15
$GNVTG,,T,,M,0.010,N,0.019,K,A*34
$GNGGA,213534.00,5025.4459077,N,01411.3814542,E,1,12,0.84,219.132,M,44.078,M,,*4C
$GNGSA,A,3,77,79,88,87,81,69,78,,,,,,1.59,0.84,1.35,2*0C
$GNGSA,A,3,13,12,24,25,26,35,,,,,,,1.59,0.84,1.35,4*00
$GLGSV,2,1,08,69,17,282,46,70,14,342,,77,26,112,23,78,77,050,49,1*77
$GLGSV,2,2,08,79,37,309,50,81,21,184,46,87,48,047,43,88,63,132,45,1*73
$GLGSV,2,1,08,69,17,282,41,70,14,342,,77,26,112,19,78,77,050,43,3*71
$GLGSV,2,2,08,79,37,309,45,81,21,184,41,87,48,047,,88,63,132,40,3*70
$GBGSV,3,1,10,02,04,106,,05,18,128,,10,05,082,17,12,34,190,40,1*73
$GBGSV,3,2,10,13,31,086,27,24,79,278,43,25,22,301,46,26,47,129,41,1*70
$GBGSV,3,3,10,29,06,039,25,35,50,066,43,1*73
$GBGSV,3,1,10,02,04,106,,05,18,128,,10,05,082,,12,34,190,47,3*70
$GBGSV,3,2,10,13,31,086,23,24,79,278,,25,22,301,,26,47,129,,3*76
$GBGSV,3,3,10,29,06,039,,35,50,066,,3*71
$GNGLL,5025.4459077,N,01411.3814542,E,213534.00,A,A*73
$GNRMC,213535.00,A,5025.4459175,N,01411.3814504,E,0.023,,241021,,,A,V*15
$GNVTG,,T,,M,0.023,N,0.042,K,A*3A
$GNGGA,213535.00,5025.4459175,N,01411.3814504,E,1,12,0.84,219.274,M,44.078,M,,*4D
$GNGSA,A,3,77,79,88,87,81,69,78,,,,,,1.59,0.84,1.35,2*0C
$GNGSA,A,3,13,12,24,25,26,35,,,,,,,1.59,0.84,1.35,4*00
$GLGSV,2,1,08,69,17,282,46,70,14,342,,77,26,112,23,78,77,050,49,1*77
$GLGSV,2,2,08,79,37,309,50,81,21,184,46,87,48,047,43,88,63,132,46,1*70
$GLGSV,2,1,08,69,17,282,41,70,14,342,,77,26,112,20,78,77,050,43,3*7B
$GLGSV,2,2,08,79,37,309,45,81,21,184,41,87,48,047,,88,63,132,40,3*70
$GBGSV,3,1,10,02,04,106,,05,18,128,,10,05,082,18,12,34,190,40,1*7C
$GBGSV,3,2,10,13,31,086,27,24,79,278,43,25,22,301,46,26,47,129,41,1*70
$GBGSV,3,3,10,29,06,039,25,35,50,066,43,1*73
$GBGSV,3,1,10,02,04,106,,05,18,128,,10,05,082,,12,34,190,47,3*70
$GBGSV,3,2,10,13,31,086,23,24,79,278,,25,22,301,,26,47,129,,3*76
$GBGSV,3,3,10,29,06,039,,35,50,066,,3*71
$GNGLL,5025.4459175,N,01411.3814504,E,213535.00,A,A*73
$GNRMC,213536.00,A,5025.4459338,N,01411.3814596,E,0.014,,241021,,,A,V*12
$GNVTG,,T,,M,0.014,N,0.026,K,A*3C
$GNGGA,213536.00,5025.4459338,N,01411.3814596,E,1,12,0.84,219.393,M,44.078,M,,*46
$GNGSA,A,3,77,79,88,87,81,69,78,,,,,,1.59,0.84,1.35,2*0C
$GNGSA,A,3,13,12,24,25,26,35,,,,,,,1.59,0.84,1.35,4*00
$GLGSV,2,1,08,69,17,282,46,70,14,342,,77,26,112,23,78,77,050,49,1*77
$GLGSV,2,2,08,79,37,309,50,81,21,184,46,87,48,047,43,88,63,132,46,1*70
$GLGSV,2,1,08,69,17,282,41,70,14,342,,77,26,112,21,78,77,050,43,3*7A
$GLGSV,2,2,08,79,37,309,45,81,21,184,41,87,48,047,,88,63,132,40,3*70
$GBGSV,3,1,10,02,04,106,,05,18,128,,10,05,082,17,12,34,190,41,1*72
$GBGSV,3,2,10,13,31,086,27,24,79,278,43,25,22,301,46,26,47,129,41,1*70
$GBGSV,3,3,10,29,06,039,25,35,50,066,43,1*73
$GBGSV,3,1,10,02,04,106,,05,18,128,,10,05,082,,12,34,190,47,3*70
$GBGSV,3,2,10,13,31,086,23,24,79,278,,25,22,301,,26,47,129,,3*76
$GBGSV,3,3,10,29,06,039,,35,50,066,,3*71
$GNGLL,5025.4459338,N,01411.3814596,E,213536.00,A,A*70
$GNRMC,213537.00,A,5025.4459452,N,01411.3814687,E,0.036,,241021,,,A,V*1B
$GNVTG,,T,,M,0.036,N,0.066,K,A*38
$GNGGA,213537.00,5025.4459452,N,01411.3814687,E,1,12,0.84,219.444,M,44.078,M,,*42
$GNGSA,A,3,77,79,88,87,81,69,78,,,,,,1.59,0.84,1.35,2*0C
$GNGSA,A,3,13,12,24,25,26,35,,,,,,,1.59,0.84,1.35,4*00
$GLGSV,2,1,08,69,17,282,46,70,14,342,,77,26,112,23,78,77,050,49,1*77
$GLGSV,2,2,08,79,37,309,50,81,21,184,46,87,48,047,43,88,63,132,46,1*70
$GLGSV,2,1,08,69,17,282,41,70,14,342,,77,26,112,21,78,77,050,43,3*7A
$GLGSV,2,2,08,79,37,309,45,81,21,184,41,87,48,047,,88,63,132,40,3*70
$GBGSV,3,1,10,02,04,106,,05,18,128,,10,05,082,18,12,34,190,41,1*7D
$GBGSV,3,2,10,13,31,086,27,24,79,278,43,25,22,301,46,26,47,129,41,1*70
$GBGSV,3,3,10,29,06,039,25,35,50,066,43,1*73
$GBGSV,3,1,10,02,04,106,,05,18,128,,10,05,082,,12,34,190,47,3*70
$GBGSV,3,2,10,13,31,086,22,24,79,278,,25,22,301,,26,47,129,,3*77
$GBGSV,3,3,10,29,06,039,,35,50,066,,3*71
$GNGLL,5025.4459452,N,01411.3814687,E,213537.00,A,A*79
$GNRMC,213538.00,A,5025.4459580,N,01411.3814918,E,0.010,,241021,,,A,V*17
$GNVTG,,T,,M,0.010,N,0.018,K,A*35
$GNGGA,213538.00,5025.4459580,N,01411.3814918,E,1,12,0.84,219.469,M,44.078,M,,*45
$GNGSA,A,3,77,79,88,87,81,69,78,,,,,,1.59,0.84,1.35,2*0C
$GNGSA,A,3,13,12,24,25,26,35,,,,,,,1.59,0.84,1.35,4*00
$GLGSV,2,1,08,69,17,282,46,70,14,342,,77,26,112,21,78,77,050,49,1*75
$GLGSV,2,2,08,79,37,309,50,81,21,184,46,87,48,047,43,88,63,132,46,1*70
$GLGSV,2,1,08,69,17,282,41,70,14,342,,77,26,112,19,78,77,050,43,3*71
$GLGSV,2,2,08,79,37,309,45,81,21,184,41,87,48,047,,88,63,132,40,3*70
$GBGSV,3,1,10,02,04,106,,05,18,128,,10,05,082,18,12,34,190,41,1*7D
$GBGSV,3,2,10,13,31,086,27,24,79,278,43,25,22,301,46,26,47,129,41,1*70
$GBGSV,3,3,10,29,06,039,24,35,50,066,43,1*72
$GBGSV,3,1,10,02,04,106,,05,18,128,,10,05,082,,12,34,190,47,3*70
$GBGSV,3,2,10,13,31,086,23,24,79,278,,25,22,301,,26,47,129,,3*76
$GBGSV,3,3,10,29,06,039,,35,50,066,,3*71
$GNGLL,5025.4459580,N,01411.3814918,E,213538.00,A,A*71
$GNRMC,213539.00,A,5025.4459675,N,01411.3815197,E,0.038,,241021,,,A,V*1B
$GNVTG,,T,,M,0.038,N,0.070,K,A*31
$GNGGA,213539.00,5025.4459675,N,01411.3815197,E,1,12,0.84,219.465,M,44.078,M,,*4F
$GNGSA,A,3,77,79,88,87,81,69,78,,,,,,1.59,0.84,1.35,2*0C
$GNGSA,A,3,13,12,24,25,26,35,,,,,,,1.59,0.84,1.35,4*00
$GLGSV,2,1,08,69,17,282,46,70,14,342,,77,26,112,21,78,77,050,49,1*75
$GLGSV,2,2,08,79,37,309,50,81,21,184,46,87,48,047,43,88,63,132,46,1*70
$GLGSV,2,1,08,69,17,282,42,70,14,342,,77,26,112,18,78,77,050,43,3*73
$GLGSV,2,2,08,79,37,309,45,81,21,184,42,87,48,047,,88,63,132,40,3*73
$GBGSV,3,1,10,02,04,106,,05,18,128,,10,05,082,18,12,34,190,41,1*7D
$GBGSV,3,2,10,13,31,086,27,24,79,278,43,25,22,301,46,26,47,129,41,1*70
$GBGSV,3,3,10,29,06,039,23,35,50,066,43,1*75
$GBGSV,3,1,10,02,04,106,,05,18,128,,10,05,082,,12,34,190,46,3*71
$GBGSV,3,2,10,13,31,086,23,24,79,278,,25,22,301,,26,47,129,,3*76
$GBGSV,3,3,10,29,06,039,,35,50,066,,3*71
$GNGLL,5025.4459675,N,01411.3815197,E,213539.00,A,A*77
$GNRMC,213540.00,A,5025.4459854,N,01411.3815661,E,0.018,,241021,,,A,V*14
$GNVTG,,T,,M,0.018,N,0.034,K,A*33
$GNGGA,213540.00,5025.4459854,N,01411.3815661,E,1,12,0.84,219.421,M,44.078,M,,*42
$GNGSA,A,3,77,79,88,87,81,69,78,,,,,,1.59,0.84,1.35,2*0C
$GNGSA,A,3,13,12,24,25,26,35,,,,,,,1.59,0.84,1.35,4*00
$GLGSV,2,1,08,69,17,282,46,70,14,342,,77,26,112,21,78,77,050,49,1*75
$GLGSV,2,2,08,79,37,309,50,81,21,184,47,87,48,047,43,88,63,132,46,1*71
$GLGSV,2,1,08,69,17,282,42,70,14,342,,77,26,112,18,78,77,050,43,3*73
$GLGSV,2,2,08,79,37,309,45,81,21,184,42,87,48,047,,88,63,132,40,3*73
$GBGSV,3,1,10,02,04,106,,05,18,128,,10,05,082,19,12,34,190,41,1*7C
$GBGSV,3,2,10,13,31,086,27,24,79,278,43,25,22,301,46,26,47,129,42,1*73
$GBGSV,3,3,10,29,06,039,24,35,50,066,43,1*72
$GBGSV,3,1,10,02,04,106,,05,18,128,,10,05,082,,12,34,190,46,3*71
$GBGSV,3,2,10,13,31,086,22,24,79,278,,25,22,301,,26,47,129,,3*77
$GBGSV,3,3,10,29,06,039,,35,50,066,,3*71
$GNGLL,5025.4459854,N,01411.3815661,E,213540.00,A,A*7A
$GNRMC,213541.00,A,5025.4460028,N,01411.3816200,E,0.011,,241021,,,A,V*15
$GNVTG,,T,,M,0.011,N,0.021,K,A*3E
$GNGGA,213541.00,5025.4460028,N,01411.3816200,E,1,12,0.84,219.349,M,44.078,M,,*43
$GNGSA,A,3,77,79,88,87,81,69,78,,,,,,1.59,0.84,1.35,2*0C
$GNGSA,A,3,13,12,24,25,26,35,,,,,,,1.59,0.84,1.35,4*00
$GLGSV,2,1,08,69,17,282,46,70,14,342,,77,26,112,19,78,77,050,49,1*7E
$GLGSV,2,2,08,79,37,309,50,81,21,184,46,87,48,047,43,88,63,132,46,1*70
$GLGSV,2,1,08,69,17,282,42,70,14,342,,77,26,112,17,78,77,050,43,3*7C
$GLGSV,2,2,08,79,37,309,45,81,21,184,42,87,48,047,,88,63,132,40,3*73
$GBGSV,3,1,10,02,04,106,,05,18,128,,10,05,082,19,12,34,190,41,1*7C
$GBGSV,3,2,10,13,31,086,27,24,79,278,43,25,22,301,46,26,47,129,42,1*73
$GBGSV,3,3,10,29,06,039,24,35,50,066,43,1*72
$GBGSV,3,1,10,02,04,106,,05,18,128,,10,05,082,,12,34,190,46,3*71
$GBGSV,3,2,10,13,31,086,22,24,79,278,,25,22,301,,26,47,129,,3*77
$GBGSV,3,3,10,29,06,039,,35,50,066,,3*71
$GNGLL,5025.4460028,N,01411.3816200,E,213541.00,A,A*72
$GNRMC,213542.00,A,5025.4460176,N,01411.3816574,E,0.019,,241021,,,A,V*10
$GNVTG,,T,,M,0.019,N,0.035,K,A*33
$GNGGA,213542.00,5025.4460176,N,01411.3816574,E,1,12,0.84,219.312,M,44.078,M,,*40
$GNGSA,A,3,77,79,88,87,81,69,78,,,,,,1.59,0.84,1.35,2*0C
$GNGSA,A,3,13,12,24,25,26,35,,,,,,,1.59,0.84,1.35,4*00
$GLGSV,2,1,08,69,17,282,47,70,14,342,,77,26,112,18,78,77,050,49,1*7E
$GLGSV,2,2,08,79,37,309,50,81,21,184,47,87,48,047,43,88,63,132,47,1*70
$GLGSV,2,1,08,69,17,282,42,70,14,342,,77,26,112,18,78,77,050,43,3*73
$GLGSV,2,2,08,79,37,309,45,81,21,184,42,87,48,047,,88,63,132,40,3*73
$GBGSV,3,1,10,02,04,106,,05,18,128,,10,05,082,19,12,34,190,41,1*7C
$GBGSV,3,2,10,13,31,086,27,24,79,278,43,25,22,301,46,26,47,129,42,1*73
$GBGSV,3,3,10,29,06,039,25,35,50,066,43,1*73
$GBGSV,3,1,10,02,04,106,,05,18,128,,10,05,082,,12,34,190,46,3*71
$GBGSV,3,2,10,13,31,086,22,24,79,278,,25,22,301,,26,47,129,,3*77
$GBGSV,3,3,10,29,06,039,,35,50,066,,3*71
$GNGLL,5025.4460176,N,01411.3816574,E,213542.00,A,A*7F
$GNRMC,213543.00,A,5025.4460308,N,01411.3816935,E,0.028,,241021,,,A,V*11
$GNVTG,,T,,M,0.028,N,0.052,K,A*30
$GNGGA,213543.00,5025.4460308,N,01411.3816935,E,1,12,0.84,219.277,M,44.078,M,,*41
$GNGSA,A,3,77,79,88,87,81,69,78,,,,,,1.59,0.84,1.35,2*0C
$GNGSA,A,3,13,12,24,25,26,35,,,,,,,1.59,0.84,1.35,4*00
$GLGSV,2,1,08,69,17,282,47,70,14,342,,77,26,112,16,78,77,050,49,1*70
$GLGSV,2,2,08,79,37,309,50,81,21,184,46,87,48,047,43,88,63,132,47,1*71
$GLGSV,2,1,08,69,17,282,42,70,14,342,,77,26,112,18,78,77,050,43,3*73
$GLGSV,2,2,08,79,37,309,45,81,21,184,42,87,48,047,,88,63,132,40,3*73
$GBGSV,3,1,10,02,04,106,,05,18,128,,10,05,082,19,12,34,190,41,1*7C
$GBGSV,3,2,10,13,31,086,27,24,79,278,43,25,22,301,46,26,47,129,42,1*73
$GBGSV,3,3,10,29,06,039,25,35,50,066,43,1*73
$GBGSV,3,1,10,02,04,106,,05,18,128,,10,05,082,,12,34,190,46,3*71
$GBGSV,3,2,10,13,31,086,21,24,79,278,,25,22,301,,26,47,129,,3*74
$GBGSV,3,3,10,29,06,039,,35,50,066,,3*71
$GNGLL,5025.4460308,N,01411.3816935,E,213543.00,A,A*7C
$GNRMC,213544.00,A,5025.4460415,N,01411.3817186,E,0.033,,241021,,,A,V*16
$GNVTG,,T,,M,0.033,N,0.060,K,A*3B
$GNGGA,213544.00,5025.4460415,N,01411.3817186,E,1,12,0.84,219.255,M,44.078,M,,*4C
$GNGSA,A,3,77,79,88,87,81,69,78,,,,,,1.59,0.84,1.35,2*0C
$GNGSA,A,3,13,12,24,25,26,35,,,,,,,1.59,0.84,1.35,4*00
$GLGSV,2,1,08,69,17,282,47,70,14,342,,77,26,112,16,78,77,050,49,1*70
$GLGSV,2,2,08,79,37,309,50,81,21,184,46,87,48,047,43,88,63,132,47,1*71
$GLGSV,2,1,08,69,17,282,42,70,14,342,,77,26,112,18,78,77,050,43,3*73
$GLGSV,2,2,08,79,37,309,45,81,21,184,42,87,48,047,,88,63,132,40,3*73
$GBGSV,3,1,10,02,04,106,,05,18,128,,10,05,082,19,12,34,190,41,1*7C
$GBGSV,3,2,10,13,31,086,27,24,79,278,43,25,22,301,46,26,47,129,42,1*73
$GBGSV,3,3,10,29,06,039,25,35,50,066,43,1*73
$GBGSV,3,1,10,02,04,106,,05,18,128,,10,05,082,,12,34,190,46,3*71
$GBGSV,3,2,10,13,31,086,21,24,79,278,,25,22,301,,26,47,129,,3*74
$GBGSV,3,3,10,29,06,039,,35,50,066,,3*71
$GNGLL,5025.4460415,N,01411.3817186,E,213544.00,A,A*71
$GNRMC,213545.00,A,5025.4460552,N,01411.3817526,E,0.021,,241021,,,A,V*18
$GNVTG,,T,,M,0.021,N,0.038,K,A*35
$GNGGA,213545.00,5025.4460552,N,01411.3817526,E,1,12,0.84,219.220,M,44.078,M,,*43
$GNGSA,A,3,77,79,88,87,81,69,78,,,,,,1.59,0.84,1.35,2*0C
$GNGSA,A,3,13,12,24,25,26,35,,,,,,,1.59,0.84,1.35,4*00
$GLGSV,2,1,08,69,17,282,47,70,14,342,,77,26,112,15,78,77,050,49,1*73
$GLGSV,2,2,08,79,37,309,50,81,21,184,46,87,48,047,43,88,63,132,47,1*71
$GLGSV,2,1,08,69,17,282,42,70,14,342,,77,26,112,17,78,77,050,43,3*7C
$GLGSV,2,2,08,79,37,309,45,81,21,184,42,87,48,047,,88,63,132,40,3*73
$GBGSV,3,1,10,02,04,106,,05,18,128,,10,05,082,19,12,34,190,41,1*7C
$GBGSV,3,2,10,13,31,086,27,24,79,278,43,25,22,301,46,26,47,129,42,1*73
$GBGSV,3,3,10,29,06,039,24,35,50,066,43,1*72
$GBGSV,3,1,10,02,04,106,,05,18,128,,10,05,082,,12,34,190,46,3*71
$GBGSV,3,2,10,13,31,086,21,24,79,278,,25,22,301,,26,47,129,,3*74
$GBGSV,3,3,10,29,06,039,,35,50,066,,3*71
$GNGLL,5025.4460552,N,01411.3817526,E,213545.00,A,A*7C
$GNRMC,213546.00,A,5025.4460685,N,01411.3817765,E,0.028,,241021,,,A,V*1E
$GNVTG,,T,,M,0.028,N,0.051,K,A*33
$GNGGA,213546.00,5025.4460685,N,01411.3817765,E,1,12,0.84,219.198,M,44.078,M,,*4C
$GNGSA,A,3,77,79,88,87,81,69,78,,,,,,1.59,0.84,1.35,2*0C
$GNGSA,A,3,13,12,24,25,26,35,,,,,,,1.59,0.84,1.35,4*00
$GLGSV,2,1,08,69,17,282,47,70,14,342,,77,26,112,16,78,77,050,49,1*70
$GLGSV,2,2,08,79,37,309,50,81,21,184,46,87,48,047,43,88,63,132,47,1*71
$GLGSV,2,1,08,69,17,282,42,70,14,342,,77,26,112,17,78,77,050,43,3*7C
$GLGSV,2,2,08,79,37,309,45,81,21,184,41,87,48,047,,88,63,132,40,3*70
$GBGSV,3,1,10,02,04,106,,05,18,128,,10,05,082,20,12,34,190,41,1*76
$GBGSV,3,2,10,13,31,086,27,24,79,278,43,25,22,301,46,26,47,129,42,1*73
$GBGSV,3,3,10,29,06,039,25,35,50,066,43,1*73
$GBGSV,3,1,10,02,04,106,,05,18,128,,10,05,082,,12,34,190,46,3*71
$GBGSV,3,2,10,13,31,086,20,24,79,278,,25,22,301,,26,47,129,,3*75
$GBGSV,3,3,10,29,06,039,,35,50,066,,3*71
$GNGLL,5025.4460685,N,01411.3817765,E,213546.00,A,A*73
$GNRMC,213547.00,A,5025.4460876,N,01411.3818085,E,0.013,,241021,,,A,V*13
$GNVTG,,T,,M,0.013,N,0.023,K,A*3E
$GNGGA,213547.00,5025.4460876,N,01411.3818085,E,1,12,0.84,219.153,M,44.078,M,,*4E
$GNGSA,A,3,77,79,88,87,81,69,78,,,,,,1.59,0.84,1.35,2*0C
$GNGSA,A,3,13,12,24,25,26,35,,,,,,,1.59,0.84,1.35,4*00
$GLGSV,2,1,08,69,17,282,47,70,14,342,,77,26,112,17,78,77,050,49,1*71
$GLGSV,2,2,08,79,37,309,50,81,21,184,46,87,48,047,43,88,63,132,47,1*71
$GLGSV,2,1,08,69,17,282,42,70,14,342,,77,26,112,17,78,77,050,43,3*7C
$GLGSV,2,2,08,79,37,309,45,81,21,184,41,87,48,047,,88,63,132,40,3*70
$GBGSV,3,1,10,02,04,106,,05,18,128,,10,05,082,19,12,34,190,41,1*7C
$GBGSV,3,2,10,13,31,086,27,24,79,278,43,25,22,301,46,26,47,129,42,1*73
$GBGSV,3,3,10,29,06,039,25,35,50,066,43,1*73
$GBGSV,3,1,10,02,04,106,,05,18,128,,10,05,082,,12,34,190,46,3*71
$GBGSV,3,2,10,13,31,086,20,24,79,278,,25,22,301,,26,47,129,,3*75
$GBGSV,3,3,10,29,06,039,,35,50,066,,3*71
$GNGLL,5025.4460876,N,01411.3818085,E,213547.00,A,A*76
$GNRMC,213548.00,A,5025.4461061,N,01411.3818400,E,0.000,,241021,,,A,V*18
$GNVTG,,T,,M,0.000,N,0.000,K,A*3D
$GNGGA,213548.00,5025.4461061,N,01411.3818400,E,1,12,0.84,219.108,M,44.078,M,,*49
$GNGSA,A,3,77,79,88,87,81,69,78,,,,,,1.59,0.84,1.35,2*0C
$GNGSA,A,3,13,12,24,25,26,35,,,,,,,1.59,0.84,1.35,4*00
$GLGSV,2,1,08,69,17,282,47,70,14,342,,77,26,112,18,78,77,050,50,1*76
$GLGSV,2,2,08,79,37,309,50,81,21,184,46,87,48,047,43,88,63,132,47,1*71
$GLGSV,2,1,08,69,17,282,42,70,14,342,,77,26,112,17,78,77,050,43,3*7C
$GLGSV,2,2,08,79,37,309,45,81,21,184,41,87,48,047,,88,63,132,40,3*70
$GBGSV,3,1,10,02,04,106,,05,18,128,,10,05,082,20,12,34,190,41,1*76
$GBGSV,3,2,10,13,31,086,27,24,79,278,43,25,22,301,46,26,47,129,42,1*73
$GBGSV,3,3,10,29,06,039,26,35,50,066,43,1*70
$GBGSV,3,1,10,02,04,106,,05,18,128,,10,05,082,26,12,34,190,46,3*75
$GBGSV,3,2,10,13,31,086,20,24,79,278,,25,22,301,,26,47,129,,3*75
$GBGSV,3,3,10,29,06,039,,35,50,066,,3*71
$GNGLL,5025.4461061,N,01411.3818400,E,213548.00,A,A*7F
$GNRMC,213549.00,A,5025.4461248,N,01411.3818737,E,0.004,,241021,,,A,V*13
$GNVTG,,T,,M,0.004,N,0.007,K,A*3E
$GNGGA,213549.00,5025.4461248,N,01411.3818737,E,1,12,0.84,219.056,M,44.078,M,,*4C
$GNGSA,A,3,77,79,88,87,81,69,78,,,,,,1.59,0.84,1.35,2*0C
$GNGSA,A,3,13,12,24,25,26,35,,,,,,,1.59,0.84,1.35,4*00
$GLGSV,2,1,08,69,17,282,47,70,14,342,,77,26,112,20,78,77,050,50,1*7D
$GLGSV,2,2,08,79,37,309,50,81,21,184,46,87,48,047,43,88,63,132,47,1*71
$GLGSV,2,1,08,69,17,282,42,70,14,342,,77,26,112,17,78,77,050,43,3*7C
$GLGSV,2,2,08,79,37,309,45,81,21,184,41,87,48,047,,88,63,132,40,3*70
$GBGSV,3,1,10,02,04,106,,05,18,128,,10,05,082,20,12,34,190,41,1*76
$GBGSV,3,2,10,13,31,086,26,24,79,278,43,25,22,301,46,26,47,129,42,1*72
$GBGSV,3,3,10,29,06,039,26,35,50,066,43,1*70
$GBGSV,3,1,10,02,04,106,,05,18,128,,10,05,082,,12,34,190,46,3*71
$GBGSV,3,2,10,13,31,086,19,24,79,278,,25,22,301,,26,47,129,,3*7F
$GBGSV,3,3,10,29,06,039,,35,50,066,,3*71
$GNGLL,5025.4461248,N,01411.3818737,E,213549.00,A,A*70
$GNRMC,213550.00,A,5025.4461412,N,01411.3819016,E,0.015,,241021,,,A,V*17
$GNVTG,,T,,M,0.015,N,0.027,K,A*3C
$GNGGA,213550.00,5025.4461412,N,01411.3819016,E,1,12,0.84,219.013,M,44.078,M,,*49
$GNGSA,A,3,77,79,88,87,81,69,78,,,,,,1.59,0.84,1.35,2*0C
$GNGSA,A,3,13,12,24,25,26,35,,,,,,,1.59,0.84,1.35,4*00
$GLGSV,2,1,08,69,17,282,47,70,14,342,,77,26,112,20,78,77,050,50,1*7D
$GLGSV,2,2,08,79,37,309,50,81,21,184,47,87,48,047,44,88,63,132,46,1*76
$GLGSV,2,1,08,69,17,282,42,70,14,342,,77,26,112,17,78,77,050,43,3*7C
$GLGSV,2,2,08,79,37,309,45,81,21,184,41,87,48,047,,88,63,132,41,3*71
$GBGSV,3,1,10,02,04,106,,05,18,128,,10,05,082,20,12,34,190,41,1*76
$GBGSV,3,2,10,13,31,086,27,24,79,278,43,25,22,301,46,26,47,129,42,1*73
$GBGSV,3,3,10,29,06,039,25,35,50,066,43,1*73
$GBGSV,3,1,10,02,04,106,,05,18,128,,10,05,082,,12,34,190,46,3*71
$GBGSV,3,2,10,13,31,086,19,24,79,278,,25,22,301,,26,47,129,,3*7F
$GBGSV,3,3,10,29,06,039,,35,50,066,,3*71
$GNGLL,5025.4461412,N,01411.3819016,E,213550.00,A,A*74
$GNRMC,213551.00,A,5025.4461574,N,01411.3819229,E,0.004,,241021,,,A,V*19
$GNVTG,,T,,M,0.004,N,0.008,K,A*31
$GNGGA,213551.00,5025.4461574,N,01411.3819229,E,1,12,0.84,218.972,M,44.078,M,,*48
$GNGSA,A,3,77,79,88,87,81,69,78,,,,,,1.59,0.84,1.35,2*0C
$GNGSA,A,3,13,12,24,25,26,35,,,,,,,1.59,0.84,1.35,4*00
$GLGSV,2,1,08,69,17,282,47,70,14,342,,77,26,112,21,78,77,050,49,1*74
$GLGSV,2,2,08,79,37,309,50,81,21,184,46,87,48,047,44,88,63,132,46,1*77
$GLGSV,2,1,08,69,17,282,42,70,14,342,,77,26,112,19,78,77,050,43,3*72
$GLGSV,2,2,08,79,37,309,45,81,21,184,41,87,48,047,,88,63,132,41,3*71
$GBGSV,3,1,10,02,04,106,,05,18,128,,10,05,082,20,12,34,190,41,1*76
$GBGSV,3,2,10,13,31,086,26,24,79,278,43,25,22,301,46,26,47,130,41,1*79
$GBGSV,3,3,10,29,06,039,25,35,50,066,43,1*73
$GBGSV,3,1,10,02,04,106,,05,18,128,,10,05,082,,12,34,190,46,3*71
$GBGSV,3,2,10,13,31,086,19,24,79,278,,25,22,301,,26,47,130,,3*77
$GBGSV,3,3,10,29,06,039,,35,50,066,,3*71
$GNGLL,5025.4461574,N,01411.3819229,E,213551.00,A,A*7A
$GNRMC,213552.00,A,5025.4461725,N,01411.3819346,E,0.009,,241021,,,A,V*19
$GNVTG,,T,,M,0.009,N,0.017,K,A*32
$GNGGA,213552.00,5025.4461725,N,01411.3819346,E,1,12,0.84,218.951,M,44.078,M,,*44
$GNGSA,A,3,77,79,88,87,81,69,78,,,,,,1.59,0.84,1.35,2*0C
$GNGSA,A,3,13,12,24,25,26,35,,,,,,,1.59,0.84,1.35,4*00
$GLGSV,2,1,08,69,17,282,47,70,14,342,,77,26,112,21,78,77,050,49,1*74
$GLGSV,2,2,08,79,37,309,50,81,21,184,46,87,48,047,44,88,63,132,46,1*77
$GLGSV,2,1,08,69,17,282,42,70,14,342,,77,26,112,20,78,77,050,43,3*78
$GLGSV,2,2,08,79,37,309,45,81,21,184,41,87,48,047,,88,63,132,41,3*71
$GBGSV,3,1,10,02,04,106,,05,18,128,,10,05,082,21,12,34,190,41,1*77
$GBGSV,3,2,10,13,31,086,27,24,79,278,43,25,22,301,46,26,47,130,41,1*78
$GBGSV,3,3,10,29,06,039,25,35,50,066,43,1*73
$GBGSV,3,1,10,02,04,106,,05,18,128,,10,05,082,,12,34,190,46,3*71
$GBGSV,3,2,10,13,31,086,18,24,79,278,,25,22,301,,26,47,130,,3*76
$GBGSV,3,3,10,29,06,039,,35,50,066,,3*71
$GNGLL,5025.4461725,N,01411.3819346,E,213552.00,A,A*77
$GNRMC,213553.00,A,5025.4461861,N,01411.3819443,E,0.008,,241021,,,A,V*14
$GNVTG,,T,,M,0.008,N,0.014,K,A*30
$GNGGA,213553.00,5025.4461861,N,01411.3819443,E,1,12,0.84,218.928,M,44.078,M,,*46
$GNGSA,A,3,77,79,88,87,81,69,78,,,,,,1.59,0.84,1.35,2*0C
$GNGSA,A,3,13,12,24,25,26,35,,,,,,,1.59,0.84,1.35,4*00
$GLGSV,2,1,08,69,17,282,47,70,14,342,,77,26,112,21,78,77,050,50,1*7C
$GLGSV,2,2,08,79,37,309,50,81,21,184,46,87,48,047,44,88,63,132,46,1*77
$GLGSV,2,1,08,69,17,282,42,70,14,342,,77,26,112,21,78,77,050,43,3*79
$GLGSV,2,2,08,79,37,309,45,81,21,184,41,87,48,047,,88,63,132,41,3*71
$GBGSV,3,1,10,02,04,106,,05,18,128,,10,05,082,21,12,34,190,41,1*77
$GBGSV,3,2,10,13,31,086,27,24,79,278,43,25,22,301,46,26,47,130,41,1*78
$GBGSV,3,3,10,29,06,039,25,35,50,066,43,1*73
$GBGSV,3,1,10,02,04,106,,05,18,128,,10,05,082,,12,34,190,46,3*71
$GBGSV,3,2,10,13,31,086,17,24,79,278,,25,22,301,,26,47,130,,3*79
$GBGSV,3,3,10,29,06,039,,35,50,066,,3*71
$GNGLL,5025.4461861,N,01411.3819443,E,213553.00,A,A*7B
$GNRMC,213554.00,A,5025.4461998,N,01411.3819501,E,0.006,,241021,,,A,V*1D
$GNVTG,,T,,M,0.006,N,0.011,K,A*3B
$GNGGA,213554.00,5025.4461998,N,01411.3819501,E,1,12,0.84,218.911,M,44.078,M,,*4B
$GNGSA,A,3,77,79,88,87,81,69,78,,,,,,1.59,0.84,1.35,2*0C
$GNGSA,A,3,13,12,24,25,26,35,,,,,,,1.59,0.84,1.35,4*00
$GLGSV,2,1,08,69,17,282,47,70,14,342,,77,26,112,21,78,77,050,50,1*7C
$GLGSV,2,2,08,79,37,309,50,81,21,184,46,87,48,047,44,88,63,132,46,1*77
$GLGSV,2,1,08,69,17,282,42,70,14,342,,77,26,112,22,78,77,050,43,3*7A
$GLGSV,2,2,08,79,37,309,45,81,21,184,41,87,48,047,,88,63,132,41,3*71
$GBGSV,3,1,10,02,04,106,,05,18,128,,10,05,082,21,12,34,190,41,1*77
$GBGSV,3,2,10,13,31,086,27,24,79,278,43,25,22,301,46,26,47,130,41,1*78
$GBGSV,3,3,10,29,06,039,25,35,50,066,43,1*73
$GBGSV,3,1,10,02,04,106,,05,18,128,,10,05,082,,12,34,190,46,3*71
$GBGSV,3,2,10,13,31,086,17,24,79,278,,25,22,301,,26,47,130,,3*79
$GBGSV,3,3,10,29,06,039,,35,50,066,,3*71
$GNGLL,5025.4461998,N,01411.3819501,E,213554.00,A,A*7C
$GNRMC,213555.00,A,5025.4461071,N,01411.3817892,E,0.092,,241021,,,D,V*13
$GNVTG,,T,,M,0.092,N,0.170,K,D*35
$GNGGA,213555.00,5025.4461071,N,01411.3817892,E,2,12,0.89,219.079,M,44.078,M,1.0,0084*66
$GNGSA,A,3,77,79,88,87,81,69,78,,,,,,1.73,0.89,1.49,2*02
$GNGSA,A,3,13,12,24,25,26,35,,,,,,,1.73,0.89,1.49,4*0E
$GLGSV,2,1,08,69,17,282,47,70,14,342,,77,26,112,21,78,77,050,50,1*7C
$GLGSV,2,2,08,79,37,309,50,81,21,184,46,87,48,047,44,88,63,132,46,1*77
$GLGSV,2,1,08,69,17,282,42,70,14,342,,77,26,112,22,78,77,050,43,3*7A
$GLGSV,2,2,08,79,37,309,45,81,21,184,41,87,48,047,,88,63,132,41,3*71
$GBGSV,3,1,10,02,04,106,,05,18,128,,10,05,082,22,12,34,190,41,1*74
$GBGSV,3,2,10,13,31,086,27,24,79,278,43,25,22,301,46,26,47,130,41,1*78
$GBGSV,3,3,10,29,06,039,25,35,50,066,43,1*73
$GBGSV,3,1,10,02,04,106,,05,18,128,,10,05,082,26,12,34,190,46,3*75
$GBGSV,3,2,10,13,31,086,17,24,79,278,,25,22,301,,26,47,130,,3*79
$GBGSV,3,3,10,29,06,039,,35,50,066,,3*71
$GNGLL,5025.4461071,N,01411.3817892,E,213555.00,A,D*7F
$GNRMC,213556.00,A,5025.4460629,N,01411.3817813,E,0.005,,241021,,,F,V*1F
$GNVTG,,T,,M,0.005,N,0.009,K,D*34
$GNGGA,213556.00,5025.4460629,N,01411.3817813,E,5,12,0.89,219.072,M,44.078,M,1.0,0084*6A
$GNGSA,A,3,77,79,88,87,81,69,78,,,,,,1.73,0.89,1.49,2*02
$GNGSA,A,3,13,12,24,25,26,35,,,,,,,1.73,0.89,1.49,4*0E
$GLGSV,2,1,08,69,17,282,47,70,14,342,,77,26,112,21,78,77,050,50,1*7C
$GLGSV,2,2,08,79,37,309,50,81,21,184,46,87,48,047,44,88,63,132,46,1*77
$GLGSV,2,1,08,69,17,282,42,70,14,342,,77,26,112,23,78,77,050,43,3*7B
$GLGSV,2,2,08,79,37,309,45,81,21,184,41,87,48,047,,88,63,132,41,3*71
$GBGSV,3,1,10,02,04,106,,05,18,128,,10,05,082,22,12,34,190,41,1*74
$GBGSV,3,2,10,13,31,086,27,24,79,278,43,25,22,301,46,26,47,130,41,1*78
$GBGSV,3,3,10,29,06,039,26,35,50,066,43,1*70
$GBGSV,3,1,10,02,04,106,,05,18,128,,10,05,082,26,12,34,190,45,3*76
$GBGSV,3,2,10,13,31,086,17,24,79,278,,25,22,301,,26,47,130,,3*79
$GBGSV,3,3,10,29,06,039,,35,50,066,,3*71
$GNGLL,5025.4460629,N,01411.3817813,E,213556.00,A,D*7F
$GNRMC,213557.00,A,5025.4460133,N,01411.3817303,E,0.012,,241021,,,F,V*1E
$GNVTG,,T,,M,0.012,N,0.023,K,D*3A
$GNGGA,213557.00,5025.4460133,N,01411.3817303,E,5,12,0.89,219.127,M,44.078,M,1.0,0084*6C
$GNGSA,A,3,77,79,88,87,81,69,78,,,,,,1.73,0.89,1.49,2*02
$GNGSA,A,3,13,12,24,25,26,35,,,,,,,1.73,0.89,1.49,4*0E
$GLGSV,2,1,08,69,17,282,46,70,14,342,,77,26,112,21,78,77,050,50,1*7D
$GLGSV,2,2,08,79,37,309,50,81,21,184,46,87,48,047,44,88,63,132,46,1*77
$GLGSV,2,1,08,69,17,282,42,70,14,342,,77,26,112,22,78,77,050,43,3*7A
$GLGSV,2,2,08,79,37,309,45,81,21,184,41,87,48,047,,88,63,132,41,3*71
$GBGSV,3,1,10,02,04,106,,05,18,128,,10,05,082,21,12,34,190,41,1*77
$GBGSV,3,2,10,13,31,086,26,24,79,278,43,25,22,301,46,26,47,130,40,1*78
$GBGSV,3,3,10,29,06,039,25,35,49,065,43,1*78
$GBGSV,3,1,10,02,04,106,,05,18,128,,10,05,082,,12,34,190,45,3*72
$GBGSV,3,2,10,13,31,086,16,24,79,278,,25,22,301,,26,47,130,,3*78
$GBGSV,3,3,10,29,06,039,,35,49,065,,3*7A
$GNGLL,5025.4460133,N,01411.3817303,E,213557.00,A,D*78
$GNRMC,213558.00,A,5025.4459673,N,01411.3816862,E,0.021,,241021,,,F,V*15
$GNVTG,,T,,M,0.021,N,0.038,K,D*30
$GNGGA,213558.00,5025.4459673,N,01411.3816862,E,5,12,0.89,219.146,M,44.078,M,1.0,0084*60
$GNGSA,A,3,77,79,88,87,81,69,78,,,,,,1.73,0.89,1.49,2*02
$GNGSA,A,3,13,12,24,25,26,35,,,,,,,1.73,0.89,1.49,4*0E
$GLGSV,2,1,08,69,17,282,46,70,14,342,,77,26,112,22,78,77,050,50,1*7E
$GLGSV,2,2,08,79,37,309,50,81,21,184,46,87,48,047,44,88,63,132,46,1*77
$GLGSV,2,1,08,69,17,282,42,70,14,342,,77,26,112,22,78,77,050,43,3*7A
$GLGSV,2,2,08,79,37,309,45,81,21,184,41,87,48,047,,88,63,132,41,3*71
$GBGSV,3,1,10,02,04,106,,05,18,128,,10,05,082,21,12,34,190,41,1*77
$GBGSV,3,2,10,13,31,086,26,24,79,278,43,25,22,301,46,26,47,130,40,1*78
$GBGSV,3,3,10,29,06,039,25,35,49,065,43,1*78
$GBGSV,3,1,10,02,04,106,,05,18,128,,10,05,082,26,12,34,190,45,3*76
$GBGSV,3,2,10,13,31,086,17,24,79,278,,25,22,301,,26,47,130,,3*79
$GBGSV,3,3,10,29,06,039,,35,49,065,,3*7A
$GNGLL,5025.4459673,N,01411.3816862,E,213558.00,A,D*73
$GNRMC,213559.00,A,5025.4459123,N,01411.3816203,E,0.032,,241021,,,F,V*19
$GNVTG,,T,,M,0.032,N,0.059,K,D*35
$GNGGA,213559.00,5025.4459123,N,01411.3816203,E,5,12,0.89,219.225,M,44.078,M,1.0,0084*68
$GNGSA,A,3,77,79,88,87,81,69,78,,,,,,1.73,0.89,1.49,2*02
$GNGSA,A,3,13,12,24,25,26,35,,,,,,,1.73,0.89,1.49,4*0E
$GLGSV,2,1,08,69,17,282,46,70,14,342,,77,26,112,22,78,77,050,50,1*7E
$GLGSV,2,2,08,79,37,309,50,81,21,184,46,87,48,047,44,88,63,132,46,1*77
$GLGSV,2,1,08,69,17,282,42,70,14,342,,77,26,112,22,78,77,050,43,3*7A
$GLGSV,2,2,08,79,37,309,45,81,21,184,41,87,48,047,,88,63,132,41,3*71
$GBGSV,3,1,10,02,04,106,,05,18,128,,10,05,082,21,12,34,190,41,1*77
$GBGSV,3,2,10,13,31,086,26,24,79,278,43,25,22,301,46,26,47,130,40,1*78
$GBGSV,3,3,10,29,06,039,25,35,49,065,43,1*78
$GBGSV,3,1,10,02,04,106,,05,18,128,,10,05,082,26,12,34,190,45,3*76
$GBGSV,3,2,10,13,31,086,16,24,79,278,,25,22,301,,26,47,130,,3*78
$GBGSV,3,3,10,29,06,039,,35,49,065,,3*7A
$GNGLL,5025.4459123,N,01411.3816203,E,213559.00,A,D*7D
$GNRMC,213600.00,A,5025.4458563,N,01411.3815661,E,0.027,,241021,,,F,V*10
$GNVTG,,T,,M,0.027,N,0.050,K,D*38
$GNGGA,213600.00,5025.4458563,N,01411.3815661,E,5,12,0.89,219.280,M,44.078,M,1.0,0084*6A
$GNGSA,A,3,77,79,88,87,81,69,78,,,,,,1.73,0.89,1.49,2*02
$GNGSA,A,3,13,12,24,25,26,35,,,,,,,1.73,0.89,1.49,4*0E
$GLGSV,2,1,08,69,17,282,46,70,14,342,,77,26,112,23,78,77,050,50,1*7F
$GLGSV,2,2,08,79,37,309,50,81,21,184,47,87,48,047,44,88,63,132,46,1*76
$GLGSV,2,1,08,69,17,282,42,70,14,342,,77,26,112,22,78,77,050,43,3*7A
$GLGSV,2,2,08,79,37,309,45,81,21,184,41,87,48,047,,88,63,132,41,3*71
$GBGSV,3,1,10,02,04,106,,05,18,128,,10,05,082,21,12,34,190,41,1*77
$GBGSV,3,2,10,13,31,086,26,24,79,278,43,25,22,301,46,26,47,130,40,1*78
$GBGSV,3,3,10,29,06,039,25,35,49,065,43,1*78
$GBGSV,3,1,10,02,04,106,,05,18,128,,10,05,082,26,12,34,190,45,3*76
$GBGSV,3,2,10,13,31,086,16,24,79,278,,25,22,301,,26,47,130,,3*78
$GBGSV,3,3,10,29,06,039,,35,49,065,,3*7A
$GNGLL,5025.4458563,N,01411.3815661,E,213600.00,A,D*70
$GNRMC,213601.00,A,5025.4458001,N,01411.3815226,E,0.027,,241021,,,F,V*17
$GNVTG,,T,,M,0.027,N,0.049,K,D*30
$GNGGA,213601.00,5025.4458001,N,01411.3815226,E,5,12,0.89,219.310,M,44.078,M,1.0,0084*65
$GNGSA,A,3,77,79,88,87,81,69,78,,,,,,1.73,0.89,1.49,2*02
$GNGSA,A,3,13,12,24,25,26,35,,,,,,,1.73,0.89,1.49,4*0E
$GLGSV,2,1,08,69,17,282,46,70,14,342,,77,26,112,23,78,77,050,50,1*7F
$GLGSV,2,2,08,79,37,309,50,81,21,184,47,87,48,047,44,88,63,132,46,1*76
$GLGSV,2,1,08,69,17,282,42,70,14,342,,77,26,112,22,78,77,050,44,3*7D
$GLGSV,2,2,08,79,37,309,45,81,21,184,41,87,48,047,,88,63,132,41,3*71
$GBGSV,3,1,10,02,04,106,,05,18,128,,10,05,082,21,12,34,190,41,1*77
$GBGSV,3,2,10,13,31,086,26,24,79,278,43,25,22,301,46,26,47,130,40,1*78
$GBGSV,3,3,10,29,06,039,25,35,49,065,43,1*78
$GBGSV,3,1,10,02,04,106,,05,18,128,,10,05,082,26,12,34,190,45,3*76
$GBGSV,3,2,10,13,31,086,17,24,79,278,,25,22,301,,26,47,130,,3*79
$GBGSV,3,3,10,29,06,039,,35,49,065,,3*7A
$GNGLL,5025.4458001,N,01411.3815226,E,213601.00,A,D*77
$GNRMC,213602.00,A,5025.4457589,N,01411.3815090,E,0.029,,241021,,,F,V*1F
$GNVTG,,T,,M,0.029,N,0.055,K,D*33
$GNGGA,213602.00,5025.4457589,N,01411.3815090,E,5,12,0.89,219.228,M,44.078,M,1.0,0084*69
$GNGSA,A,3,77,79,88,87,81,69,78,,,,,,1.73,0.89,1.49,2*02
$GNGSA,A,3,13,12,24,25,26,35,,,,,,,1.73,0.89,1.49,4*0E
$GLGSV,2,1,08,69,17,282,46,70,14,342,,77,26,112,24,78,77,050,50,1*78
$GLGSV,2,2,08,79,37,309,50,81,21,184,47,87,48,047,44,88,63,132,46,1*76
$GLGSV,2,1,08,69,17,282,42,70,14,342,,77,26,112,22,78,77,050,44,3*7D
$GLGSV,2,2,08,79,37,309,45,81,21,184,41,87,48,047,,88,63,132,41,3*71
$GBGSV,3,1,10,02,04,106,,05,18,128,,10,05,082,21,12,34,190,41,1*77
$GBGSV,3,2,10,13,31,086,27,24,79,278,43,25,22,301,46,26,47,130,40,1*79
$GBGSV,3,3,10,29,06,039,25,35,49,065,43,1*78
$GBGSV,3,1,10,02,04,106,,05,18,128,,10,05,082,26,12,34,190,45,3*76
$GBGSV,3,2,10,13,31,086,17,24,79,278,,25,22,301,,26,47,130,,3*79
$GBGSV,3,3,10,29,06,039,,35,49,065,,3*7A
$GNGLL,5025.4457589,N,01411.3815090,E,213602.00,A,D*71
$GNRMC,213603.00,A,5025.4457352,N,01411.3815365,E,0.019,,241021,,,F,V*14
$GNVTG,,T,,M,0.019,N,0.034,K,D*37
$GNGGA,213603.00,5025.4457352,N,01411.3815365,E,5,12,0.89,218.987,M,44.078,M,1.0,0084*6E
$GNGSA,A,3,77,79,88,87,81,69,78,,,,,,1.74,0.89,1.49,2*05
$GNGSA,A,3,13,12,24,25,26,35,,,,,,,1.74,0.89,1.49,4*09
$GLGSV,2,1,08,69,17,282,46,70,14,342,,77,26,112,25,78,77,050,50,1*79
$GLGSV,2,2,08,79,37,309,50,81,21,184,47,87,48,047,44,88,63,132,46,1*76
$GLGSV,2,1,08,69,17,282,42,70,14,342,,77,26,112,23,78,77,050,44,3*7C
$GLGSV,2,2,08,79,37,309,45,81,21,184,41,87,48,047,,88,63,132,41,3*71
$GBGSV,3,1,10,02,04,106,,05,18,128,,10,05,082,21,12,34,190,41,1*77
$GBGSV,3,2,10,13,31,086,27,24,79,278,43,25,22,301,46,26,47,130,40,1*79
$GBGSV,3,3,10,29,06,039,25,35,49,065,43,1*78
$GBGSV,3,1,10,02,04,106,,05,18,128,,10,05,082,26,12,34,190,45,3*76
$GBGSV,3,2,10,13,31,086,17,24,79,278,,25,22,301,,26,47,130,,3*79
$GBGSV,3,3,10,29,06,039,,35,49,065,,3*7A
$GNGLL,5025.4457352,N,01411.3815365,E,213603.00,A,D*79
$GNRMC,213604.00,A,5025.4457099,N,01411.3815614,E,0.018,,241021,,,F,V*15
$GNVTG,,T,,M,0.018,N,0.033,K,D*31
$GNGGA,213604.00,5025.4457099,N,01411.3815614,E,5,12,0.89,218.774,M,44.078,M,1.0,0084*6C
$GNGSA,A,3,77,79,88,87,81,69,78,,,,,,1.74,0.89,1.49,2*05
$GNGSA,A,3,13,12,24,25,26,35,,,,,,,1.74,0.89,1.49,4*09
$GLGSV,2,1,08,69,17,282,46,70,14,342,,77,26,112,26,78,77,050,50,1*7A
$GLGSV,2,2,08,79,37,309,50,81,21,184,47,87,48,047,44,88,63,132,46,1*76
$GLGSV,2,1,08,69,17,282,42,70,14,342,,77,26,112,23,78,77,050,43,3*7B
$GLGSV,2,2,08,79,37,309,45,81,21,184,41,87,48,047,,88,63,132,42,3*72
$GBGSV,3,1,10,02,04,106,,05,18,128,,10,05,082,21,12,34,190,41,1*77
$GBGSV,3,2,10,13,31,086,27,24,79,278,43,25,22,301,47,26,47,130,40,1*78
$GBGSV,3,3,10,29,06,039,25,35,49,065,43,1*78
$GBGSV,3,1,10,02,04,106,,05,18,128,,10,05,082,26,12,34,190,45,3*76
$GBGSV,3,2,10,13,31,086,17,24,79,278,,25,22,301,,26,47,130,,3*79
$GBGSV,3,3,10,29,06,039,,35,49,065,,3*7A
$GNGLL,5025.4457099,N,01411.3815614,E,213604.00,A,D*79
$GNRMC,213605.00,A,5025.4456738,N,01411.3815641,E,0.020,,241021,,,F,V*12
$GNVTG,,T,,M,0.020,N,0.038,K,D*31
$GNGGA,213605.00,5025.4456738,N,01411.3815641,E,5,12,0.89,218.669,M,44.078,M,1.0,0084*6D
$GNGSA,A,3,77,79,88,87,81,69,78,,,,,,1.74,0.89,1.49,2*05
$GNGSA,A,3,13,12,24,25,26,35,,,,,,,1.74,0.89,1.49,4*09
$GLGSV,2,1,08,69,17,282,46,70,14,342,,77,26,112,26,78,77,050,50,1*7A
$GLGSV,2,2,08,79,37,309,50,81,21,184,47,87,48,047,44,88,63,132,46,1*76
$GLGSV,2,1,08,69,17,282,42,70,14,342,,77,26,112,23,78,77,050,43,3*7B
$GLGSV,2,2,08,79,37,309,45,81,21,184,41,87,48,047,,88,63,132,42,3*72
$GBGSV,3,1,10,02,04,106,,05,18,128,,10,05,082,21,12,34,190,41,1*77
$GBGSV,3,2,10,13,31,086,26,24,79,278,43,25,22,301,47,26,47,130,39,1*77
$GBGSV,3,3,10,29,06,039,24,35,49,065,43,1*79
$GBGSV,3,1,10,02,04,106,,05,18,128,,10,05,082,26,12,34,190,45,3*76
$GBGSV,3,2,10,13,31,086,17,24,79,278,,25,22,301,,26,47,130,,3*79
$GBGSV,3,3,10,29,06,039,,35,49,065,,3*7A
$GNGLL,5025.4456738,N,01411.3815641,E,213605.00,A,D*75
$GNRMC,213606.00,A,5025.4456295,N,01411.3815507,E,0.015,,241021,,,F,V*14
$GNVTG,,T,,M,0.015,N,0.028,K,D*36
$GNGGA,213606.00,5025.4456295,N,01411.3815507,E,5,12,0.89,218.649,M,44.078,M,1.0,0084*6F
$GNGSA,A,3,77,79,88,87,81,69,78,,,,,,1.74,0.89,1.49,2*05
$GNGSA,A,3,13,12,24,25,26,35,,,,,,,1.74,0.89,1.49,4*09
$GLGSV,2,1,08,69,17,282,46,70,14,342,,77,26,112,26,78,77,050,50,1*7A
$GLGSV,2,2,08,79,37,309,50,81,21,184,47,87,48,047,44,88,63,132,46,1*76
$GLGSV,2,1,08,69,17,282,42,70,14,342,,77,26,112,23,78,77,050,43,3*7B
$GLGSV,2,2,08,79,37,309,45,81,21,184,41,87,48,047,,88,63,132,42,3*72
$GBGSV,3,1,10,02,04,106,,05,18,128,,10,05,082,21,12,34,190,41,1*77
$GBGSV,3,2,10,13,31,086,27,24,79,278,44,25,22,301,46,26,47,130,39,1*70
$GBGSV,3,3,10,29,06,039,25,35,49,065,43,1*78
$GBGSV,3,1,10,02,04,106,,05,18,128,,10,05,082,26,12,34,190,45,3*76
$GBGSV,3,2,10,13,31,086,17,24,79,278,,25,22,301,,26,47,130,,3*79
$GBGSV,3,3,10,29,06,039,,35,49,065,,3*7A
$GNGLL,5025.4456295,N,01411.3815507,E,213606.00,A,D*75
$GNRMC,213607.00,A,5025.4455780,N,01411.3815214,E,0.005,,241021,,,F,V*13
$GNVTG,,T,,M,0.005,N,0.008,K,D*35
$GNGGA,213607.00,5025.4455780,N,01411.3815214,E,5,12,0.89,218.686,M,44.078,M,1.0,0084*6A
$GNGSA,A,3,77,79,88,87,81,69,78,,,,,,1.74,0.89,1.49,2*05
$GNGSA,A,3,13,12,24,25,26,35,,,,,,,1.74,0.89,1.49,4*09
$GLGSV,2,1,08,69,17,282,46,70,14,342,,77,26,112,27,78,77,050,50,1*7B
$GLGSV,2,2,08,79,37,309,50,81,21,184,47,87,48,047,44,88,63,132,46,1*76
$GLGSV,2,1,08,69,17,282,42,70,14,342,,77,26,112,24,78,77,050,43,3*7C
$GLGSV,2,2,08,79,37,309,45,81,21,184,41,87,48,047,,88,63,132,42,3*72
$GBGSV,3,1,10,02,04,106,,05,18,128,,10,05,082,21,12,34,190,41,1*77
$GBGSV,3,2,10,13,31,086,27,24,79,278,44,25,22,301,46,26,47,130,39,1*70
$GBGSV,3,3,10,29,06,039,25,35,49,065,43,1*78
$GBGSV,3,1,10,02,04,106,,05,18,128,,10,05,082,26,12,34,190,45,3*76
$GBGSV,3,2,10,13,31,086,18,24,79,278,,25,22,301,,26,47,130,,3*76
$GBGSV,3,3,10,29,06,039,,35,49,065,,3*7A
$GNGLL,5025.4455780,N,01411.3815214,E,213607.00,A,D*73
$GNRMC,213608.00,A,5025.4455332,N,01411.3815013,E,0.014,,241021,,,F,V*14
$GNVTG,,T,,M,0.014,N,0.026,K,D*39
$GNGGA,213608.00,5025.4455332,N,01411.3815013,E,5,12,0.89,218.698,M,44.078,M,1.0,0084*62
$GNGSA,A,3,77,79,88,87,81,69,78,,,,,,1.74,0.89,1.49,2*05
$GNGSA,A,3,13,12,24,25,26,35,,,,,,,1.74,0.89,1.49,4*09
$GLGSV,2,1,08,69,17,282,46,70,14,342,,77,26,112,26,78,77,050,50,1*7A
$GLGSV,2,2,08,79,37,309,50,81,21,184,47,87,48,047,44,88,63,132,46,1*76
$GLGSV,2,1,08,69,17,282,42,70,14,342,,77,26,112,24,78,77,050,43,3*7C
$GLGSV,2,2,08,79,37,309,45,81,21,184,41,87,48,047,,88,63,132,42,3*72
$GBGSV,3,1,10,02,04,106,,05,18,128,,10,05,082,21,12,34,190,41,1*77
$GBGSV,3,2,10,13,31,086,27,24,79,278,44,25,22,301,46,26,47,130,39,1*70
$GBGSV,3,3,10,29,06,039,25,35,49,065,43,1*78
$GBGSV,3,1,10,02,04,106,,05,18,128,,10,05,082,25,12,34,190,45,3*75
$GBGSV,3,2,10,13,31,086,19,24,79,278,,25,22,301,,26,47,130,,3*77
$GBGSV,3,3,10,29,06,039,,35,49,065,,3*7A
$GNGLL,5025.4455332,N,01411.3815013,E,213608.00,A,D*74
$GNRMC,213609.00,A,5025.4454921,N,01411.3814698,E,0.029,,241021,,,F,V*16
$GNVTG,,T,,M,0.029,N,0.053,K,D*35
$GNGGA,213609.00,5025.4454921,N,01411.3814698,E,5,12,0.89,218.744,M,44.078,M,1.0,0084*6E
$GNGSA,A,3,77,79,88,87,81,69,78,,,,,,1.74,0.89,1.49,2*05
$GNGSA,A,3,13,12,24,25,26,35,,,,,,,1.74,0.89,1.49,4*09
$GLGSV,2,1,08,69,17,282,46,70,14,342,,77,26,112,26,78,77,050,50,1*7A
$GLGSV,2,2,08,79,37,309,50,81,21,184,47,87,48,047,45,88,63,132,45,1*74
$GLGSV,2,1,08,69,17,282,42,70,14,342,,77,26,112,24,78,77,050,43,3*7C
$GLGSV,2,2,08,79,37,309,45,81,21,184,41,87,48,047,,88,63,132,42,3*72
$GBGSV,3,1,10,02,04,106,,05,18,128,,10,05,082,21,12,34,190,42,1*74
$GBGSV,3,2,10,13,31,086,27,24,79,278,44,25,22,301,46,26,47,130,39,1*70
$GBGSV,3,3,10,29,06,039,25,35,49,065,43,1*78
$GBGSV,3,1,10,02,04,106,,05,18,128,,10,05,082,,12,34,190,45,3*72
$GBGSV,3,2,10,13,31,086,20,24,79,278,,25,22,301,,26,47,130,,3*7D
$GBGSV,3,3,10,29,06,039,,35,49,065,,3*7A
$GNGLL,5025.4454921,N,01411.3814698,E,213609.00,A,D*78
$GNRMC,213610.00,A,5025.4454604,N,01411.3814708,E,0.020,,241021,,,F,V*17
$GNVTG,,T,,M,0.020,N,0.037,K,D*3E
$GNGGA,213610.00,5025.4454604,N,01411.3814708,E,5,12,0.89,218.687,M,44.078,M,1.0,0084*68
$GNGSA,A,3,77,79,88,87,81,69,78,,,,,,1.74,0.89,1.49,2*05
$GNGSA,A,3,13,12,24,25,26,35,,,,,,,1.74,0.89,1.49,4*09
$GLGSV,2,1,08,69,17,282,46,70,14,342,,77,26,112,26,78,77,050,50,1*7A
$GLGSV,2,2,08,79,37,309,50,81,21,184,47,87,48,047,45,88,63,132,46,1*77
$GLGSV,2,1,08,69,17,282,42,70,14,342,,77,26,112,24,78,77,050,43,3*7C
$GLGSV,2,2,08,79,37,309,45,81,21,184,41,87,48,047,,88,63,132,42,3*72
$GBGSV,3,1,10,02,04,106,,05,18,128,,10,05,082,20,12,34,190,42,1*75
$GBGSV,3,2,10,13,31,086,27,24,79,278,44,25,22,301,46,26,47,130,39,1*70
$GBGSV,3,3,10,29,06,039,25,35,49,065,43,1*78
$GBGSV,3,1,10,02,04,106,,05,18,128,,10,05,082,,12,34,190,45,3*72
$GBGSV,3,2,10,13,31,086,20,24,79,278,,25,22,301,,26,47,130,,3*7D
$GBGSV,3,3,10,29,06,039,,35,49,065,,3*7A
$GNGLL,5025.4454604,N,01411.3814708,E,213610.00,A,D*70
$GNRMC,213611.00,A,5025.4454289,N,01411.3815009,E,0.001,,241021,,,F,V*13
$GNVTG,,T,,M,0.001,N,0.002,K,D*3B
$GNGGA,213611.00,5025.4454289,N,01411.3815009,E,5,12,0.89,218.565,M,44.078,M,1.0,0084*60
$GNGSA,A,3,77,79,88,87,81,69,78,,,,,,1.74,0.89,1.49,2*05
$GNGSA,A,3,13,12,24,25,26,35,,,,,,,1.74,0.89,1.49,4*09
$GLGSV,2,1,08,69,17,282,46,70,14,342,,77,26,112,27,78,77,051,50,1*7A
$GLGSV,2,2,08,79,37,309,50,81,21,184,47,87,48,047,45,88,63,132,45,1*74
$GLGSV,2,1,08,69,17,282,42,70,14,342,,77,26,112,24,78,77,051,43,3*7D
$GLGSV,2,2,08,79,37,309,45,81,21,184,41,87,48,047,,88,63,132,42,3*72
$GBGSV,3,1,10,02,04,106,,05,18,128,,10,05,082,19,12,34,190,42,1*7F
$GBGSV,3,2,10,13,31,086,27,24,79,278,43,25,22,301,46,26,47,130,39,1*77
$GBGSV,3,3,10,29,06,039,25,35,49,065,43,1*78
$GBGSV,3,1,10,02,04,106,,05,18,128,,10,05,082,,12,34,190,45,3*72
$GBGSV,3,2,10,13,31,086,20,24,79,278,,25,22,301,,26,47,130,,3*7D
$GBGSV,3,3,10,29,06,039,,35,49,065,,3*7A
$GNGLL,5025.4454289,N,01411.3815009,E,213611.00,A,D*77
$GNRMC,213612.00,A,5025.4453889,N,01411.3815260,E,0.015,,241021,,,F,V*15
$GNVTG,,T,,M,0.015,N,0.028,K,D*36
$GNGGA,213612.00,5025.4453889,N,01411.3815260,E,5,12,0.84,218.458,M,44.078,M,1.0,0084*61
$GNGSA,A,3,77,79,88,87,81,69,78,,,,,,1.59,0.84,1.35,2*0C
$GNGSA,A,3,13,12,24,25,26,35,,,,,,,1.59,0.84,1.35,4*00
$GLGSV,2,1,08,69,17,282,46,70,14,342,,77,26,112,27,78,77,051,50,1*7A
$GLGSV,2,2,08,79,37,309,50,81,21,184,47,87,48,047,45,88,63,132,45,1*74
$GLGSV,2,1,08,69,17,282,42,70,14,342,,77,26,112,24,78,77,051,43,3*7D
$GLGSV,2,2,08,79,37,309,45,81,21,184,41,87,48,047,,88,63,132,42,3*72
$GBGSV,3,1,10,02,04,106,,05,18,128,,10,05,082,19,12,34,190,41,1*7C
$GBGSV,3,2,10,13,31,086,27,24,79,278,43,25,22,301,46,26,47,130,39,1*77
$GBGSV,3,3,10,29,06,039,25,35,49,065,43,1*78
$GBGSV,3,1,10,02,04,106,,05,18,128,,10,05,082,,12,34,190,45,3*72
$GBGSV,3,2,10,13,31,086,20,24,79,278,,25,22,301,,26,47,130,,3*7D
$GBGSV,3,3,10,29,06,039,,35,49,065,,3*7A
$GNGLL,5025.4453889,N,01411.3815260,E,213612.00,A,D*74
$GNRMC,213613.00,A,5025.4453464,N,01411.3815207,E,0.022,,241021,,,F,V*1E
$GNVTG,,T,,M,0.022,N,0.041,K,D*3D
$GNGGA,213613.00,5025.4453464,N,01411.3815207,E,5,12,0.84,218.463,M,44.078,M,1.0,0084*66
$GNGSA,A,3,77,79,88,87,81,69,78,,,,,,1.59,0.84,1.35,2*0C
$GNGSA,A,3,13,12,24,25,26,35,,,,,,,1.59,0.84,1.35,4*00
$GLGSV,2,1,08,69,17,282,46,70,14,342,,77,26,112,27,78,77,051,50,1*7A
$GLGSV,2,2,08,79,37,309,50,81,21,184,47,87,48,047,45,88,63,132,45,1*74
$GLGSV,2,1,08,69,17,282,42,70,14,342,,77,26,112,24,78,77,051,43,3*7D
$GLGSV,2,2,08,79,37,309,45,81,21,184,41,87,48,047,,88,63,132,42,3*72
$GBGSV,3,1,10,02,04,106,,05,18,128,,10,05,082,19,12,34,190,42,1*7F
$GBGSV,3,2,10,13,31,086,27,24,79,278,43,25,22,301,46,26,47,130,39,1*77
$GBGSV,3,3,10,29,06,039,25,35,49,065,43,1*78
$GBGSV,3,1,10,02,04,106,,05,18,128,,10,05,082,,12,34,190,45,3*72
$GBGSV,3,2,10,13,31,086,21,24,79,278,,25,22,301,,26,47,130,,3*7C
$GBGSV,3,3,10,29,06,039,,35,49,065,,3*7A
$GNGLL,5025.4453464,N,01411.3815207,E,213613.00,A,D*7B
$GNRMC,213614.00,A,5025.4452999,N,01411.3814958,E,0.010,,241021,,,F,V*16
$GNVTG,,T,,M,0.010,N,0.018,K,D*30
$GNGGA,213614.00,5025.4452999,N,01411.3814958,E,5,12,0.84,218.547,M,44.078,M,1.0,0084*68
$GNGSA,A,3,77,79,88,87,81,69,78,,,,,,1.59,0.84,1.35,2*0C
$GNGSA,A,3,13,12,24,25,26,35,,,,,,,1.59,0.84,1.35,4*00
$GLGSV,2,1,08,69,17,282,46,70,14,342,,77,26,112,27,78,77,051,50,1*7A
$GLGSV,2,2,08,79,37,309,50,81,21,184,47,87,48,047,45,88,63,132,46,1*77
$GLGSV,2,1,08,69,17,282,42,70,14,342,,77,26,112,23,78,77,051,43,3*7A
$GLGSV,2,2,08,79,37,309,45,81,21,184,41,87,48,047,,88,63,132,41,3*71
$GBGSV,3,1,10,02,04,106,,05,18,128,,10,05,082,18,12,34,190,42,1*7E
$GBGSV,3,2,10,13,31,086,27,24,79,278,43,25,22,301,46,26,47,130,39,1*77
$GBGSV,3,3,10,29,06,039,25,35,49,065,43,1*78
$GBGSV,3,1,10,02,04,106,,05,18,128,,10,05,082,,12,34,190,46,3*71
$GBGSV,3,2,10,13,31,086,21,24,79,278,,25,22,301,,26,47,130,,3*7C
$GBGSV,3,3,10,29,06,039,,35,49,065,,3*7A
$GNGLL,5025.4452999,N,01411.3814958,E,213614.00,A,D*72
$GNRMC,213615.00,A,5025.4452582,N,01411.3814526,E,0.035,,241021,,,F,V*13
$GNVTG,,T,,M,0.035,N,0.064,K,D*3C
$GNGGA,213615.00,5025.4452582,N,01411.3814526,E,5,12,0.84,218.707,M,44.078,M,1.0,0084*6C
$GNGSA,A,3,77,79,88,87,81,69,78,,,,,,1.59,0.84,1.35,2*0C
$GNGSA,A,3,13,12,24,25,26,35,,,,,,,1.59,0.84,1.35,4*00
$GLGSV,2,1,08,69,17,282,47,70,14,342,,77,26,112,27,78,77,051,50,1*7B
$GLGSV,2,2,08,79,37,309,50,81,21,184,47,87,48,047,45,88,63,132,46,1*77
$GLGSV,2,1,08,69,17,282,42,70,14,342,,77,26,112,23,78,77,051,43,3*7A
$GLGSV,2,2,08,79,37,309,45,81,21,184,41,87,48,047,,88,63,132,41,3*71
$GBGSV,3,1,10,02,04,106,,05,18,128,,10,05,082,16,12,34,190,42,1*70
$GBGSV,3,2,10,13,31,086,27,24,79,278,43,25,22,301,46,26,47,130,39,1*77
$GBGSV,3,3,10,29,06,039,25,35,49,065,43,1*78
$GBGSV,3,1,10,02,04,106,,05,18,128,,10,05,082,,12,34,190,46,3*71
$GBGSV,3,2,10,13,31,086,22,24,79,278,,25,22,301,,26,47,130,,3*7F
$GBGSV,3,3,10,29,06,039,,35,49,065,,3*7A
$GNGLL,5025.4452582,N,01411.3814526,E,213615.00,A,D*70
$GNRMC,213616.00,A,5025.4452139,N,01411.3813893,E,0.029,,241021,,,F,V*1D
$GNVTG,,T,,M,0.029,N,0.054,K,D*32
$GNGGA,213616.00,5025.4452139,N,01411.3813893,E,5,12,0.84,218.943,M,44.078,M,1.0,0084*61
$GNGSA,A,3,77,79,88,87,81,69,78,,,,,,1.59,0.84,1.35,2*0C
$GNGSA,A,3,13,12,24,25,26,35,,,,,,,1.59,0.84,1.35,4*00
$GLGSV,2,1,08,69,17,282,47,70,14,342,,77,26,112,28,78,77,051,50,1*74
$GLGSV,2,2,08,79,37,309,50,81,21,184,47,87,48,047,46,88,63,132,46,1*74
$GLGSV,2,1,08,69,17,282,42,70,14,342,,77,26,112,23,78,77,051,43,3*7A
$GLGSV,2,2,08,79,37,309,45,81,21,184,41,87,48,047,,88,63,132,42,3*72
$GBGSV,3,1,10,02,04,106,,05,18,128,,10,05,082,16,12,34,190,42,1*70
$GBGSV,3,2,10,13,31,086,26,24,79,278,43,25,22,301,46,26,47,130,39,1*76
$GBGSV,3,3,10,29,06,039,24,35,49,065,43,1*79
$GBGSV,3,1,10,02,04,106,,05,18,128,,10,05,082,,12,34,190,46,3*71
$GBGSV,3,2,10,13,31,086,22,24,79,278,,25,22,301,,26,47,130,,3*7F
$GBGSV,3,3,10,29,06,039,,35,49,065,,3*7A
$GNGLL,5025.4452139,N,01411.3813893,E,213616.00,A,D*73
$GNRMC,213617.00,A,5025.4451691,N,01411.3813401,E,0.033,,241021,,,F,V*16
$GNVTG,,T,,M,0.033,N,0.062,K,D*3C
$GNGGA,213617.00,5025.4451691,N,01411.3813401,E,5,12,0.84,219.118,M,44.078,M,1.0,0084*66
$GNGSA,A,3,77,79,88,87,81,69,78,,,,,,1.59,0.84,1.35,2*0C
$GNGSA,A,3,13,12,24,25,26,35,,,,,,,1.59,0.84,1.35,4*00
$GLGSV,2,1,08,69,17,282,47,70,14,342,,77,26,112,28,78,77,051,50,1*74
$GLGSV,2,2,08,79,37,309,50,81,21,184,47,87,48,047,46,88,63,132,46,1*74
$GLGSV,2,1,08,69,17,282,42,70,14,342,,77,26,112,22,78,77,051,43,3*7B
$GLGSV,2,2,08,79,37,309,45,81,21,184,41,87,48,047,,88,63,132,42,3*72
$GBGSV,3,1,10,02,04,106,,05,18,128,,10,05,082,16,12,34,190,42,1*70
$GBGSV,3,2,10,13,31,086,27,24,79,278,43,25,22,301,46,26,47,130,40,1*79
$GBGSV,3,3,10,29,06,039,24,35,49,065,43,1*79
$GBGSV,3,1,10,02,04,106,,05,18,128,,10,05,082,,12,34,190,46,3*71
$GBGSV,3,2,10,13,31,086,22,24,79,278,,25,22,301,,26,47,130,,3*7F
$GBGSV,3,3,10,29,06,039,,35,49,065,,3*7A
$GNGLL,5025.4451691,N,01411.3813401,E,213617.00,A,D*73
$GNRMC,213618.00,A,5025.4451100,N,01411.3813011,E,0.050,,241021,,,F,V*16
$GNVTG,,T,,M,0.050,N,0.093,K,D*37
$GNGGA,213618.00,5025.4451100,N,01411.3813011,E,5,12,0.84,219.254,M,44.078,M,1.0,0084*68
$GNGSA,A,3,77,79,88,87,81,69,78,,,,,,1.59,0.84,1.35,2*0C
$GNGSA,A,3,13,12,24,25,26,35,,,,,,,1.59,0.84,1.35,4*00
$GLGSV,2,1,08,69,17,282,47,70,14,342,,77,26,112,28,78,77,051,50,1*74
$GLGSV,2,2,08,79,37,309,50,81,21,184,47,87,48,047,46,88,63,132,46,1*74
$GLGSV,2,1,08,69,17,282,43,70,14,342,,77,26,112,22,78,77,051,43,3*7A
$GLGSV,2,2,08,79,37,309,45,81,21,184,41,87,48,047,,88,63,132,42,3*72
$GBGSV,3,1,10,02,04,106,,05,18,128,,10,05,082,16,12,34,190,42,1*70
$GBGSV,3,2,10,13,31,086,27,24,79,278,43,25,22,301,46,26,47,130,40,1*79
$GBGSV,3,3,10,29,06,039,24,35,49,065,43,1*79
$GBGSV,3,1,10,02,04,106,,05,18,128,,10,05,082,,12,34,190,46,3*71
$GBGSV,3,2,10,13,31,086,22,24,79,278,,25,22,301,,26,47,130,,3*7F
$GBGSV,3,3,10,29,06,039,,35,49,065,,3*7A
$GNGLL,5025.4451100,N,01411.3813011,E,213618.00,A,D*76
$GNRMC,213619.00,A,5025.4450455,N,01411.3812657,E,0.058,,241021,,,F,V*1E
$GNVTG,,T,,M,0.058,N,0.107,K,D*33
$GNGGA,213619.00,5025.4450455,N,01411.3812657,E,5,12,0.84,219.386,M,44.078,M,1.0,0084*66
$GNGSA,A,3,77,79,88,87,81,69,78,,,,,,1.59,0.84,1.35,2*0C
$GNGSA,A,3,13,12,24,25,26,35,,,,,,,1.59,0.84,1.35,4*00
$GLGSV,2,1,08,69,17,282,47,70,14,342,,77,26,112,28,78,77,051,50,1*74
$GLGSV,2,2,08,79,37,309,50,81,21,184,47,87,48,047,46,88,63,132,46,1*74
$GLGSV,2,1,08,69,17,282,43,70,14,342,,77,26,112,22,78,77,051,43,3*7A
$GLGSV,2,2,08,79,37,309,45,81,21,184,41,87,48,047,,88,63,132,42,3*72
$GBGSV,3,1,10,02,04,106,,05,18,128,,10,05,082,15,12,34,190,42,1*73
$GBGSV,3,2,10,13,31,086,27,24,79,278,43,25,22,301,46,26,47,130,40,1*79
$GBGSV,3,3,10,29,06,039,24,35,49,065,43,1*79
$GBGSV,3,1,10,02,04,106,,05,18,128,,10,05,082,,12,34,190,46,3*71
$GBGSV,3,2,10,13,31,086,23,24,79,278,,25,22,301,,26,47,130,,3*7E
$GBGSV,3,3,10,29,06,039,,35,49,065,,3*7A
$GNGLL,5025.4450455,N,01411.3812657,E,213619.00,A,D*76
$GNRMC,213620.00,A,5025.4449796,N,01411.3812406,E,0.035,,241021,,,F,V*1D
$GNVTG,,T,,M,0.035,N,0.064,K,D*3C
$GNGGA,213620.00,5025.4449796,N,01411.3812406,E,5,12,0.84,219.500,M,44.078,M,1.0,0084*66
$GNGSA,A,3,77,79,88,87,81,69,78,,,,,,1.59,0.84,1.35,2*0C
$GNGSA,A,3,13,12,24,25,26,35,,,,,,,1.59,0.84,1.35,4*00
$GLGSV,2,1,08,69,17,282,47,70,14,342,,77,26,112,28,78,77,051,50,1*74
$GLGSV,2,2,08,79,37,309,50,81,21,184,47,87,47,046,46,88,63,132,46,1*7A
$GLGSV,2,1,08,69,17,282,43,70,14,342,,77,26,112,21,78,77,051,43,3*79
$GLGSV,2,2,08,79,37,309,45,81,21,184,41,87,47,046,,88,63,132,42,3*7C
$GBGSV,3,1,10,02,04,106,,05,18,128,,10,05,082,13,12,34,190,42,1*75
$GBGSV,3,2,10,13,31,086,27,24,79,278,43,25,22,301,46,26,47,130,40,1*79
$GBGSV,3,3,10,29,06,039,24,35,49,065,43,1*79
$GBGSV,3,1,10,02,04,106,,05,18,128,,10,05,082,,12,34,190,46,3*71
$GBGSV,3,2,10,13,31,086,23,24,79,278,,25,22,301,,26,47,130,,3*7E
$GBGSV,3,3,10,29,06,039,,35,49,065,,3*7A
$GNGLL,5025.4449796,N,01411.3812406,E,213620.00,A,D*7E
$GNRMC,213621.00,A,5025.4449314,N,01411.3812333,E,0.029,,241021,,,F,V*1E
$GNVTG,,T,,M,0.029,N,0.053,K,D*35
$GNGGA,213621.00,5025.4449314,N,01411.3812333,E,5,12,0.84,219.530,M,44.078,M,1.0,0084*6B
$GNGSA,A,3,77,79,88,87,81,69,78,,,,,,1.59,0.84,1.35,2*0C
$GNGSA,A,3,13,12,24,25,26,35,,,,,,,1.59,0.84,1.35,4*00
$GLGSV,2,1,08,69,17,282,47,70,14,342,,77,26,112,28,78,77,051,50,1*74
$GLGSV,2,2,08,79,37,309,50,81,21,184,47,87,47,046,46,88,63,131,45,1*7A
$GLGSV,2,1,08,69,17,282,43,70,14,342,,77,26,112,21,78,77,051,43,3*79
$GLGSV,2,2,08,79,37,309,45,81,21,184,41,87,47,046,,88,63,131,42,3*7F
$GBGSV,3,1,10,02,04,106,,05,18,128,,10,05,082,12,12,34,190,42,1*74
$GBGSV,3,2,10,13,31,086,26,24,79,278,43,25,22,301,46,26,47,130,40,1*78
$GBGSV,3,3,10,29,06,039,24,35,49,065,43,1*79
$GBGSV,3,1,10,02,04,106,,05,18,128,,10,05,082,,12,34,190,46,3*71
$GBGSV,3,2,10,13,31,086,23,24,79,278,,25,22,301,,26,47,130,,3*7E
$GBGSV,3,3,10,29,06,039,,35,49,065,,3*7A
$GNGLL,5025.4449314,N,01411.3812333,E,213621.00,A,D*70
$GNRMC,213622.00,A,5025.4449078,N,01411.3812386,E,0.030,,241021,,,F,V*12
$GNVTG,,T,,M,0.030,N,0.056,K,D*38
$GNGGA,213622.00,5025.4449078,N,01411.3812386,E,5,12,0.84,219.481,M,44.078,M,1.0,0084*64
$GNGSA,A,3,77,79,88,87,81,69,78,,,,,,1.59,0.84,1.35,2*0C
$GNGSA,A,3,13,12,24,25,26,35,,,,,,,1.59,0.84,1.35,4*00
$GLGSV,2,1,08,69,17,282,47,70,14,342,,77,26,112,27,78,77,051,50,1*7B
$GLGSV,2,2,08,79,37,309,50,81,21,184,47,87,47,046,46,88,63,131,45,1*7A
$GLGSV,2,1,08,69,17,282,43,70,14,342,,77,26,112,21,78,77,051,43,3*79
$GLGSV,2,2,08,79,37,309,45,81,21,184,41,87,47,046,,88,63,131,42,3*7F
$GBGSV,3,1,10,02,04,106,,05,18,128,,10,05,082,12,12,34,190,42,1*74
$GBGSV,3,2,10,13,31,086,26,24,79,278,43,25,22,301,46,26,47,130,41,1*79
$GBGSV,3,3,10,29,06,039,24,35,49,065,43,1*79
$GBGSV,3,1,10,02,04,106,,05,18,128,,10,05,082,,12,34,190,46,3*71
$GBGSV,3,2,10,13,31,086,24,24,79,278,,25,22,301,,26,47,130,,3*79
$GBGSV,3,3,10,29,06,039,,35,49,065,,3*7A
$GNGLL,5025.4449078,N,01411.3812386,E,213622.00,A,D*74
$GNRMC,213623.00,A,5025.4448945,N,01411.3812312,E,0.007,,241021,,,F,V*1C
$GNVTG,,T,,M,0.007,N,0.013,K,D*3D
$GNGGA,213623.00,5025.4448945,N,01411.3812312,E,5,12,0.84,219.463,M,44.078,M,1.0,0084*62
$GNGSA,A,3,77,79,88,87,81,69,78,,,,,,1.59,0.84,1.35,2*0C
$GNGSA,A,3,13,12,24,25,26,35,,,,,,,1.59,0.84,1.35,4*00
$GLGSV,2,1,08,69,17,282,47,70,14,342,,77,26,112,27,78,77,051,51,1*7A
$GLGSV,2,2,08,79,37,309,50,81,21,184,47,87,47,046,46,88,63,131,45,1*7A
$GLGSV,2,1,08,69,17,282,43,70,14,342,,77,26,112,21,78,77,051,43,3*79
$GLGSV,2,2,08,79,37,309,45,81,21,184,41,87,47,046,,88,63,131,42,3*7F
$GBGSV,3,1,10,02,04,106,,05,18,128,,10,05,082,12,12,34,190,42,1*74
$GBGSV,3,2,10,13,31,086,26,24,79,278,43,25,22,301,46,26,47,130,41,1*79
$GBGSV,3,3,10,29,06,039,24,35,49,065,44,1*7E
$GBGSV,3,1,10,02,04,106,,05,18,128,,10,05,082,,12,34,190,46,3*71
$GBGSV,3,2,10,13,31,086,23,24,79,278,,25,22,301,,26,47,130,,3*7E
$GBGSV,3,3,10,29,06,039,,35,49,065,,3*7A
$GNGLL,5025.4448945,N,01411.3812312,E,213623.00,A,D*7E
$GNRMC,213624.00,A,5025.4448677,N,01411.3812035,E,0.006,,241021,,,F,V*12
$GNVTG,,T,,M,0.006,N,0.012,K,D*3D
$GNGGA,213624.00,5025.4448677,N,01411.3812035,E,5,12,0.84,219.518,M,44.078,M,1.0,0084*60
$GNGSA,A,3,77,79,88,87,81,69,78,,,,,,1.59,0.84,1.35,2*0C
$GNGSA,A,3,13,12,24,25,26,35,,,,,,,1.59,0.84,1.35,4*00
$GLGSV,2,1,08,69,17,282,48,70,14,342,,77,26,112,26,78,77,051,51,1*74
$GLGSV,2,2,08,79,37,309,50,81,21,184,47,87,47,046,46,88,63,131,45,1*7A
$GLGSV,2,1,08,69,17,282,43,70,14,342,,77,26,112,20,78,77,051,43,3*78
$GLGSV,2,2,08,79,37,309,45,81,21,184,41,87,47,046,,88,63,131,42,3*7F
$GBGSV,3,1,10,02,04,106,,05,18,128,,10,05,082,11,12,34,190,42,1*77
$GBGSV,3,2,10,13,31,086,26,24,79,278,43,25,22,301,46,26,47,130,41,1*79
$GBGSV,3,3,10,29,06,039,24,35,49,065,44,1*7E
$GBGSV,3,1,10,02,04,106,,05,18,128,,10,05,082,,12,34,190,46,3*71
