$GNGGA,214439.00,5025.4447538,N,01411.3817939,E,4,12,0.63,217.791,M,44.078,M,1.0,0084*6B
$GNGSA,A,3,24,29,31,32,25,12,06,02,,,,,1.29,0.63,1.12,1*02
$GNGSA,A,3,33,31,26,01,24,09,05,13,,,,,1.29,0.63,1.12,3*01
$GNGSA,A,3,13,12,25,26,24,35,,,,,,,1.29,0.63,1.12,4*0B
$GPGSV,3,1,09,02,42,091,39,03,00,345,,06,24,045,30,12,63,078,50,1*66
$GPGSV,3,2,09,24,23,155,45,25,78,304,42,29,44,213,45,31,24,310,47,1*6D
$GPGSV,3,3,09,32,28,260,43,1*55
$GPGSV,3,1,09,02,42,091,,03,00,345,,06,24,045,21,12,63,078,42,6*68
$GPGSV,3,2,09,24,23,155,43,25,78,304,45,29,44,213,45,31,24,310,39,6*62
$GPGSV,3,3,09,32,28,260,42,6*53
$GAGSV,3,1,12,01,46,096,39,03,00,350,,04,00,206,,05,21,305,46,7*73
$GAGSV,3,2,12,09,21,252,47,12,02,183,,13,11,029,20,21,00,102,,7*7D
$GAGSV,3,3,12,24,24,286,48,26,45,077,36,31,74,303,43,33,39,146,36,7*7A
$GAGSV,3,1,12,01,46,096,38,03,00,350,,04,00,206,,05,21,305,46,2*77
$GAGSV,3,2,12,09,21,252,48,12,02,183,,13,11,029,23,21,00,102,,2*74
$GAGSV,3,3,12,24,24,286,49,26,45,077,36,31,74,303,48,33,39,146,41,2*75
$GBGSV,3,1,10,02,04,106,,05,18,128,,10,04,083,21,12,37,191,45,1*71
$GBGSV,3,2,10,13,32,085,28,24,82,263,39,25,25,302,47,26,44,131,33,1*76
$GBGSV,3,3,10,29,03,039,22,35,47,062,39,1*7E
$GBGSV,3,1,10,02,04,106,,05,18,128,,10,04,083,24,12,37,191,47,3*74
$GBGSV,3,2,10,13,32,085,33,24,82,263,,25,25,302,,26,44,131,,3*77
$GBGSV,3,3,10,29,03,039,,35,47,062,,3*76
$GNGLL,5025.4447538,N,01411.3817939,E,214439.00,A,D*7F
$GNTXT,01,01,02,Starting GNSS*5A
$GNRMC,214439.58,V,,,,,,,241021,,,N,V*19
$GNVTG,,,,,,,,,N*2E
$GNGGA,214439.58,,,,,0,00,99.99,,,,,,*7C
$GNGSA,A,1,,,,,,,,,,,,,99.99,99.99,99.99,2*30
$GNGSA,A,1,,,,,,,,,,,,,99.99,99.99,99.99,4*36
$GLGSV,1,1,00,1*78
$GLGSV,1,1,00,3*7A
$GBGSV,1,1,00,1*76
$GBGSV,1,1,00,3*74
$GNGLL,,,,,214439.58,V,N*50
$GNRMC,214440.00,A,5025.4457890,N,01411.3871955,E,1.259,,241021,,,A,V*18
$GNVTG,,T,,M,1.259,N,2.331,K,A*31
$GNGGA,214440.00,5025.4457890,N,01411.3871955,E,1,09,0.92,217.779,M,44.078,M,,*45
$GNGSA,A,2,79,87,81,69,78,,,,,,,,1.31,0.92,0.93,2*09
$GNGSA,A,2,12,25,26,35,,,,,,,,,1.31,0.92,0.93,4*01
$GLGSV,2,1,08,69,15,279,45,70,15,338,,77,22,115,26,78,76,071,43,1*70
$GLGSV,2,2,08,79,41,311,44,81,26,184,43,87,44,042,39,88,66,122,47,1*7E
$GLGSV,2,1,08,69,15,279,,70,15,338,,77,22,115,,78,76,071,,3*70
$GLGSV,2,2,08,79,41,311,,81,26,184,,87,44,042,,88,66,122,,3*72
$GBGSV,3,1,10,02,04,106,,05,18,128,,10,04,084,,12,38,191,44,1*7B
$GBGSV,3,2,10,13,33,085,26,24,82,261,37,25,25,302,46,26,44,132,32,1*76
$GBGSV,3,3,10,29,03,039,,35,47,062,39,1*7E
$GBGSV,3,1,10,02,04,106,,05,18,128,,10,04,084,,12,38,191,,3*79
$GBGSV,3,2,10,13,33,085,,24,82,261,,25,25,302,,26,44,132,,3*77
$GBGSV,3,3,10,29,03,039,,35,47,062,,3*76
$GNGLL,5025.4457890,N,01411.3871955,E,214440.00,A,A*70
$GNRMC,214441.00,A,5025.4464450,N,01411.3817120,E,0.053,,241021,,,A,V*1A
$GNVTG,,T,,M,0.053,N,0.098,K,A*3A
$GNGGA,214441.00,5025.4464450,N,01411.3817120,E,1,12,0.88,224.708,M,44.078,M,,*49
$GNGSA,A,3,77,79,88,87,81,69,78,,,,,,1.65,0.88,1.39,2*03
$GNGSA,A,3,13,12,24,25,26,35,,,,,,,1.65,0.88,1.39,4*0F
$GLGSV,2,1,08,69,15,279,46,70,15,338,,77,22,115,29,78,76,071,46,1*79
$GLGSV,2,2,08,79,41,311,48,81,26,184,47,87,44,042,40,88,66,122,47,1*78
$GLGSV,2,1,08,69,15,279,40,70,15,338,,77,22,115,,78,76,071,40,3*70
$GLGSV,2,2,08,79,41,311,40,81,26,184,42,87,44,042,,88,66,122,42,3*76
$GBGSV,3,1,10,02,04,106,,05,18,128,,10,04,084,21,12,38,191,44,1*78
$GBGSV,3,2,10,13,33,085,27,24,82,261,38,25,25,302,46,26,44,132,32,1*78
$GBGSV,3,3,10,29,03,039,20,35,47,062,39,1*7C
$GBGSV,3,1,10,02,04,106,,05,18,128,,10,04,084,26,12,38,191,46,3*7F
$GBGSV,3,2,10,13,33,085,32,24,82,261,,25,25,302,,26,44,132,,3*76
$GBGSV,3,3,10,29,03,039,,35,47,062,,3*76
$GNGLL,5025.4464450,N,01411.3817120,E,214441.00,A,A*7B
$GNRMC,214442.00,A,5025.4470059,N,01411.3816556,E,0.042,,241021,,,A,V*15
$GNVTG,,T,,M,0.042,N,0.077,K,A*3B
$GNGGA,214442.00,5025.4470059,N,01411.3816556,E,1,12,0.82,224.670,M,44.078,M,,*42
$GNGSA,A,3,77,79,88,87,81,69,78,,,,,,1.56,0.82,1.33,2*03
$GNGSA,A,3,13,12,24,25,26,35,,,,,,,1.56,0.82,1.33,4*0F
$GLGSV,2,1,08,69,15,279,47,70,15,338,,77,22,115,29,78,76,071,47,1*79
$GLGSV,2,2,08,79,41,311,49,81,26,184,48,87,44,042,41,88,66,122,48,1*78
$GLGSV,2,1,08,69,15,279,40,70,15,338,,77,22,115,,78,76,071,40,3*70
$GLGSV,2,2,08,79,41,311,40,81,26,184,42,87,44,042,,88,66,122,43,3*77
$GBGSV,3,1,10,02,04,106,,05,18,128,,10,04,084,21,12,38,191,45,1*79
$GBGSV,3,2,10,13,33,085,27,24,82,261,39,25,25,302,47,26,44,132,33,1*79
$GBGSV,3,3,10,29,03,039,21,35,47,062,39,1*7D
$GBGSV,3,1,10,02,04,106,,05,18,128,,10,04,084,25,12,38,191,47,3*7D
$GBGSV,3,2,10,13,33,085,33,24,82,261,,25,25,302,,26,44,132,,3*77
$GBGSV,3,3,10,29,03,039,,35,47,062,,3*76
$GNGLL,5025.4470059,N,01411.3816556,E,214442.00,A,A*74
$GNRMC,214443.00,A,5025.4470213,N,01411.3817601,E,0.018,,241021,,,A,V*17
$GNVTG,,T,,M,0.018,N,0.033,K,A*34
$GNGGA,214443.00,5025.4470213,N,01411.3817601,E,1,12,0.82,224.206,M,44.078,M,,*4A
$GNGSA,A,3,77,79,88,87,81,69,78,,,,,,1.56,0.82,1.33,2*03
$GNGSA,A,3,13,12,24,25,26,35,,,,,,,1.56,0.82,1.33,4*0F
$GLGSV,2,1,08,69,15,279,47,70,15,338,,77,22,115,30,78,76,071,47,1*71
$GLGSV,2,2,08,79,41,311,49,81,26,184,48,87,44,042,42,88,66,122,48,1*7B
$GLGSV,2,1,08,69,15,279,41,70,15,338,,77,22,115,19,78,76,071,40,3*79
$GLGSV,2,2,08,79,41,311,40,81,26,184,42,87,44,042,,88,66,122,43,3*77
$GBGSV,3,1,10,02,04,106,,05,18,128,,10,04,084,20,12,38,191,45,1*78
$GBGSV,3,2,10,13,33,085,27,24,82,261,39,25,25,302,47,26,44,132,32,1*78
$GBGSV,3,3,10,29,03,039,21,35,47,062,39,1*7D
$GBGSV,3,1,10,02,04,106,,05,18,128,,10,04,084,24,12,38,191,47,3*7C
$GBGSV,3,2,10,13,33,085,33,24,82,261,,25,25,302,,26,44,132,,3*77
$GBGSV,3,3,10,29,03,039,,35,47,062,,3*76
$GNGLL,5025.4470213,N,01411.3817601,E,214443.00,A,A*79
$GNRMC,214444.00,A,5025.4472053,N,01411.3817502,E,0.019,,241021,,,A,V*15
$GNVTG,,T,,M,0.019,N,0.036,K,A*30
$GNGGA,214444.00,5025.4472053,N,01411.3817502,E,1,12,0.82,223.870,M,44.078,M,,*45
$GNGSA,A,3,77,79,88,87,81,69,78,,,,,,1.56,0.82,1.33,2*03
$GNGSA,A,3,13,12,24,25,26,35,,,,,,,1.56,0.82,1.33,4*0F
$GLGSV,2,1,08,69,15,279,48,70,15,338,,77,22,115,30,78,76,071,47,1*7E
$GLGSV,2,2,08,79,41,311,49,81,26,184,48,87,44,042,41,88,66,122,48,1*78
$GLGSV,2,1,08,69,15,279,42,70,15,338,,77,22,115,19,78,76,071,40,3*7A
$GLGSV,2,2,08,79,41,311,41,81,26,184,43,87,44,042,,88,66,122,44,3*70
$GBGSV,3,1,10,02,04,106,,05,18,128,,10,04,084,19,12,38,191,45,1*72
$GBGSV,3,2,10,13,33,085,27,24,82,261,39,25,25,302,47,26,44,132,32,1*78
$GBGSV,3,3,10,29,03,039,20,35,47,062,38,1*7D
$GBGSV,3,1,10,02,04,106,,05,18,128,,10,04,084,23,12,38,191,47,3*7B
$GBGSV,3,2,10,13,33,085,32,24,82,261,,25,25,302,,26,44,132,,3*76
$GBGSV,3,3,10,29,03,039,,35,47,062,,3*76
$GNGLL,5025.4472053,N,01411.3817502,E,214444.00,A,A*7A
$GNRMC,214445.00,A,5025.4472483,N,01411.3818616,E,0.031,,241021,,,A,V*1E
$GNVTG,,T,,M,0.031,N,0.057,K,A*3D
$GNGGA,214445.00,5025.4472483,N,01411.3818616,E,1,12,0.82,223.586,M,44.078,M,,*40
$GNGSA,A,3,77,79,88,87,81,69,78,,,,,,1.56,0.82,1.33,2*03
$GNGSA,A,3,13,12,24,25,26,35,,,,,,,1.56,0.82,1.33,4*0F
$GLGSV,2,1,08,69,15,279,48,70,15,338,,77,22,115,30,78,76,071,47,1*7E
$GLGSV,2,2,08,79,41,311,49,81,26,184,48,87,44,042,42,88,66,122,48,1*7B
$GLGSV,2,1,08,69,15,279,41,70,15,338,,77,22,115,20,78,76,071,40,3*73
$GLGSV,2,2,08,79,41,311,41,81,26,184,43,87,44,042,,88,66,122,44,3*70
$GBGSV,3,1,10,02,04,106,,05,18,128,,10,04,084,19,12,38,191,45,1*72
$GBGSV,3,2,10,13,33,085,27,24,82,261,39,25,25,302,47,26,44,132,32,1*78
$GBGSV,3,3,10,29,03,039,21,35,47,062,38,1*7C
$GBGSV,3,1,10,02,04,106,,05,18,128,,10,04,084,23,12,38,191,47,3*7B
$GBGSV,3,2,10,13,33,085,33,24,82,261,,25,25,302,,26,44,132,,3*77
$GBGSV,3,3,10,29,03,039,,35,47,062,,3*76
$GNGLL,5025.4472483,N,01411.3818616,E,214445.00,A,A*7B
$GNRMC,214446.00,A,5025.4472843,N,01411.3818712,E,0.031,,241021,,,A,V*18
$GNVTG,,T,,M,0.031,N,0.058,K,A*32
$GNGGA,214446.00,5025.4472843,N,01411.3818712,E,1,12,0.82,223.408,M,44.078,M,,*41
$GNGSA,A,3,77,79,88,87,81,69,78,,,,,,1.56,0.82,1.33,2*03
$GNGSA,A,3,13,12,24,25,26,35,,,,,,,1.56,0.82,1.33,4*0F
$GLGSV,2,1,08,69,15,279,48,70,15,338,18,77,22,115,30,78,76,071,47,1*77
$GLGSV,2,2,08,79,41,311,49,81,26,184,49,87,44,042,42,88,66,122,48,1*7A
$GLGSV,2,1,08,69,15,279,41,70,15,338,,77,22,115,20,78,76,071,40,3*73
$GLGSV,2,2,08,79,41,311,41,81,26,184,43,87,44,042,,88,66,122,44,3*70
$GBGSV,3,1,10,02,04,106,,05,18,128,,10,04,084,19,12,38,191,45,1*72
$GBGSV,3,2,10,13,33,085,27,24,82,261,40,25,25,302,47,26,44,132,32,1*76
$GBGSV,3,3,10,29,03,039,21,35,47,062,38,1*7C
$GBGSV,3,1,10,02,04,106,,05,18,128,,10,04,084,23,12,38,191,47,3*7B
$GBGSV,3,2,10,13,33,085,33,24,82,261,,25,25,302,,26,44,132,,3*77
$GBGSV,3,3,10,29,03,039,,35,47,062,,3*76
$GNGLL,5025.4472843,N,01411.3818712,E,214446.00,A,A*7D
$GNRMC,214447.00,A,5025.4472921,N,01411.3818445,E,0.029,,241021,,,A,V*14
$GNVTG,,T,,M,0.029,N,0.054,K,A*37
$GNGGA,214447.00,5025.4472921,N,01411.3818445,E,1,12,0.82,223.271,M,44.078,M,,*4C
$GNGSA,A,3,77,79,88,87,81,69,78,,,,,,1.56,0.82,1.33,2*03
$GNGSA,A,3,13,12,24,25,26,35,,,,,,,1.56,0.82,1.33,4*0F
$GLGSV,2,1,08,69,15,279,48,70,15,338,19,77,22,115,30,78,76,071,47,1*76
$GLGSV,2,2,08,79,41,311,50,81,26,184,49,87,44,042,42,88,66,122,49,1*73
$GLGSV,2,1,08,69,15,279,41,70,15,338,,77,22,115,21,78,76,071,40,3*72
$GLGSV,2,2,08,79,41,311,41,81,26,184,43,87,44,042,,88,66,122,44,3*70
$GBGSV,3,1,10,02,04,106,,05,18,128,,10,04,084,18,12,38,191,45,1*73
$GBGSV,3,2,10,13,33,085,28,24,82,261,40,25,25,302,47,26,44,132,32,1*79
$GBGSV,3,3,10,29,03,039,21,35,47,062,38,1*7C
$GBGSV,3,1,10,02,04,106,,05,18,128,,10,04,084,23,12,38,191,47,3*7B
$GBGSV,3,2,10,13,33,085,33,24,82,261,,25,25,302,,26,44,132,,3*77
$GBGSV,3,3,10,29,03,039,,35,47,062,,3*76
$GNGLL,5025.4472921,N,01411.3818445,E,214447.00,A,A*78
$GNRMC,214448.00,A,5025.4472990,N,01411.3818329,E,0.021,,241021,,,A,V*14
$GNVTG,,T,,M,0.021,N,0.039,K,A*34
$GNGGA,214448.00,5025.4472990,N,01411.3818329,E,1,12,0.82,223.087,M,44.078,M,,*4F
$GNGSA,A,3,77,79,88,87,81,69,78,,,,,,1.56,0.82,1.33,2*03
$GNGSA,A,3,13,12,24,25,26,35,,,,,,,1.56,0.82,1.33,4*0F
$GLGSV,2,1,08,69,15,279,48,70,15,338,18,77,22,115,30,78,76,071,47,1*77
$GLGSV,2,2,08,79,41,311,50,81,26,184,49,87,44,042,42,88,66,122,49,1*73
$GLGSV,2,1,08,69,15,279,42,70,15,338,,77,22,115,21,78,76,071,40,3*71
$GLGSV,2,2,08,79,41,311,42,81,26,184,44,87,44,042,,88,66,122,44,3*74
$GBGSV,3,1,10,02,04,106,,05,18,128,,10,04,084,18,12,38,191,45,1*73
$GBGSV,3,2,10,13,33,085,27,24,82,261,40,25,25,302,47,26,44,132,31,1*75
$GBGSV,3,3,10,29,03,039,20,35,47,062,38,1*7D
$GBGSV,3,1,10,02,04,106,,05,18,128,,10,04,084,23,12,38,191,47,3*7B
$GBGSV,3,2,10,13,33,085,33,24,82,261,,25,25,302,,26,44,132,,3*77
$GBGSV,3,3,10,29,03,039,,35,47,062,,3*76
$GNGLL,5025.4472990,N,01411.3818329,E,214448.00,A,A*70
$GNRMC,214449.00,A,5025.4472984,N,01411.3818083,E,0.033,,241021,,,A,V*10
$GNVTG,,T,,M,0.033,N,0.061,K,A*3A
$GNGGA,214449.00,5025.4472984,N,01411.3818083,E,1,12,0.76,222.975,M,44.078,M,,*46
$GNGSA,A,3,77,70,79,88,87,81,69,78,,,,,1.43,0.76,1.21,2*08
$GNGSA,A,3,13,12,24,25,26,35,,,,,,,1.43,0.76,1.21,4*03
$GLGSV,2,1,08,69,15,279,48,70,15,338,17,77,22,115,30,78,76,071,47,1*78
$GLGSV,2,2,08,79,41,311,50,81,26,184,49,87,44,042,42,88,66,122,49,1*73
$GLGSV,2,1,08,69,15,279,42,70,15,338,,77,22,115,22,78,76,071,40,3*72
$GLGSV,2,2,08,79,41,311,42,81,26,184,44,87,44,042,,88,66,122,44,3*74
$GBGSV,3,1,10,02,04,106,,05,18,128,,10,04,084,17,12,38,191,45,1*7C
$GBGSV,3,2,10,13,33,085,27,24,82,261,40,25,25,302,47,26,44,132,32,1*76
$GBGSV,3,3,10,29,03,039,21,35,47,062,38,1*7C
$GBGSV,3,1,10,02,04,106,,05,18,128,,10,04,084,22,12,38,191,47,3*7A
$GBGSV,3,2,10,13,33,085,33,24,82,261,,25,25,302,,26,44,132,,3*77
$GBGSV,3,3,10,29,03,039,,35,47,062,,3*76
$GNGLL,5025.4472984,N,01411.3818083,E,214449.00,A,A*77
$GNRMC,214450.00,A,5025.4472925,N,01411.3817735,E,0.017,,241021,,,A,V*10
$GNVTG,,T,,M,0.017,N,0.031,K,A*39
$GNGGA,214450.00,5025.4472925,N,01411.3817735,E,1,12,0.76,222.902,M,44.078,M,,*40
$GNGSA,A,3,77,70,79,88,87,81,69,78,,,,,1.43,0.76,1.21,2*08
$GNGSA,A,3,13,12,24,25,26,35,,,,,,,1.43,0.76,1.21,4*03
$GLGSV,2,1,08,69,15,279,48,70,15,338,17,77,22,115,30,78,76,071,47,1*78
$GLGSV,2,2,08,79,41,311,50,81,26,184,49,87,44,042,42,88,66,122,48,1*72
$GLGSV,2,1,08,69,15,279,42,70,15,338,,77,22,115,22,78,76,071,40,3*72
$GLGSV,2,2,08,79,41,311,42,81,26,184,44,87,44,042,,88,66,122,44,3*74
$GBGSV,3,1,10,02,04,106,,05,18,128,,10,04,084,17,12,38,191,45,1*7C
$GBGSV,3,2,10,13,33,085,28,24,82,261,40,25,25,302,47,26,44,132,32,1*79
$GBGSV,3,3,10,29,03,039,21,35,47,062,38,1*7C
$GBGSV,3,1,10,02,04,106,,05,18,128,,10,04,084,22,12,38,191,47,3*7A
$GBGSV,3,2,10,13,33,085,33,24,82,261,,25,25,302,,26,44,132,,3*77
$GBGSV,3,3,10,29,03,039,,35,47,062,,3*76
$GNGLL,5025.4472925,N,01411.3817735,E,214450.00,A,A*71
$GNRMC,214451.00,A,5025.4472767,N,01411.3817296,E,0.028,,241021,,,A,V*19
$GNVTG,,T,,M,0.028,N,0.051,K,A*33
$GNGGA,214451.00,5025.4472767,N,01411.3817296,E,1,12,0.76,222.862,M,44.078,M,,*42
$GNGSA,A,3,77,70,79,88,87,81,69,78,,,,,1.43,0.76,1.21,2*08
$GNGSA,A,3,13,12,24,25,26,35,,,,,,,1.43,0.76,1.21,4*03
$GLGSV,2,1,08,69,15,279,48,70,15,338,16,77,22,115,30,78,76,071,47,1*79
$GLGSV,2,2,08,79,41,311,50,81,26,184,49,87,44,042,42,88,66,122,48,1*72
$GLGSV,2,1,08,69,15,279,42,70,15,338,,77,22,115,22,78,76,071,40,3*72
$GLGSV,2,2,08,79,41,311,42,81,26,184,44,87,44,042,,88,66,122,45,3*75
$GBGSV,3,1,10,02,04,106,,05,18,128,,10,04,084,17,12,38,191,45,1*7C
$GBGSV,3,2,10,13,33,085,28,24,82,261,40,25,25,302,47,26,44,132,31,1*7A
$GBGSV,3,3,10,29,03,039,22,35,47,062,38,1*7F
$GBGSV,3,1,10,02,04,106,,05,18,128,,10,04,084,22,12,38,191,47,3*7A
$GBGSV,3,2,10,13,33,085,33,24,82,261,,25,25,302,,26,44,132,,3*77
$GBGSV,3,3,10,29,03,039,,35,47,062,,3*76
$GNGLL,5025.4472767,N,01411.3817296,E,214451.00,A,A*74
$GNRMC,214452.00,A,5025.4472577,N,01411.3816926,E,0.032,,241021,,,A,V*13
$GNVTG,,T,,M,0.032,N,0.058,K,A*31
$GNGGA,214452.00,5025.4472577,N,01411.3816926,E,1,12,0.76,222.806,M,44.078,M,,*41
$GNGSA,A,3,77,70,79,88,87,81,69,78,,,,,1.43,0.76,1.21,2*08
$GNGSA,A,3,13,12,24,25,26,35,,,,,,,1.43,0.76,1.21,4*03
$GLGSV,2,1,08,69,15,279,48,70,15,338,16,77,22,115,30,78,76,071,47,1*79
$GLGSV,2,2,08,79,41,311,50,81,26,184,49,87,44,042,42,88,66,122,48,1*72
$GLGSV,2,1,08,69,15,279,42,70,15,338,,77,22,115,22,78,76,071,40,3*72
$GLGSV,2,2,08,79,41,311,42,81,26,184,44,87,44,042,,88,66,122,45,3*75
$GBGSV,3,1,10,02,04,106,,05,18,128,,10,04,084,17,12,38,191,45,1*7C
$GBGSV,3,2,10,13,33,085,28,24,82,261,40,25,25,302,47,26,44,132,32,1*79
$GBGSV,3,3,10,29,03,039,22,35,47,062,38,1*7F
$GBGSV,3,1,10,02,04,106,,05,18,128,,10,04,084,23,12,38,191,47,3*7B
$GBGSV,3,2,10,13,33,085,33,24,82,261,,25,25,302,,26,44,132,,3*77
$GBGSV,3,3,10,29,03,039,,35,47,062,,3*76
$GNGLL,5025.4472577,N,01411.3816926,E,214452.00,A,A*75
$GNRMC,214453.00,A,5025.4472411,N,01411.3816619,E,0.020,,241021,,,A,V*13
$GNVTG,,T,,M,0.020,N,0.038,K,A*34
$GNGGA,214453.00,5025.4472411,N,01411.3816619,E,1,12,0.76,222.770,M,44.078,M,,*4C
$GNGSA,A,3,77,70,79,88,87,81,69,78,,,,,1.43,0.76,1.21,2*08
$GNGSA,A,3,13,12,24,25,26,35,,,,,,,1.43,0.76,1.21,4*03
$GLGSV,2,1,08,69,15,279,48,70,15,338,16,77,22,115,30,78,76,071,47,1*79
$GLGSV,2,2,08,79,41,311,51,81,26,184,49,87,44,042,42,88,66,122,48,1*73
$GLGSV,2,1,08,69,15,279,42,70,15,338,,77,22,115,23,78,76,071,40,3*73
$GLGSV,2,2,08,79,41,311,42,81,26,184,44,87,44,042,,88,66,122,45,3*75
$GBGSV,3,1,10,02,04,106,,05,18,128,,10,04,084,16,12,38,191,45,1*7D
$GBGSV,3,2,10,13,33,085,28,24,82,261,40,25,25,302,47,26,44,132,31,1*7A
$GBGSV,3,3,10,29,03,039,22,35,47,062,38,1*7F
$GBGSV,3,1,10,02,04,106,,05,18,128,,10,04,084,23,12,38,191,47,3*7B
$GBGSV,3,2,10,13,33,085,33,24,82,261,,25,25,302,,26,44,132,,3*77
$GBGSV,3,3,10,29,03,039,,35,47,062,,3*76
$GNGLL,5025.4472411,N,01411.3816619,E,214453.00,A,A*76
$GNRMC,214454.00,A,5025.4472260,N,01411.3816290,E,0.018,,241021,,,A,V*1A
$GNVTG,,T,,M,0.018,N,0.034,K,A*33
$GNGGA,214454.00,5025.4472260,N,01411.3816290,E,1,12,0.76,222.756,M,44.078,M,,*4A
$GNGSA,A,3,77,70,79,88,87,81,69,78,,,,,1.43,0.76,1.21,2*08
$GNGSA,A,3,13,12,24,25,26,35,,,,,,,1.43,0.76,1.21,4*03
$GLGSV,2,1,08,69,15,279,48,70,15,338,15,77,22,115,30,78,76,071,47,1*7A
$GLGSV,2,2,08,79,41,311,51,81,26,184,49,87,44,042,42,88,66,122,48,1*73
$GLGSV,2,1,08,69,15,279,42,70,15,338,,77,22,115,23,78,76,071,40,3*73
$GLGSV,2,2,08,79,41,311,42,81,26,184,44,87,44,042,,88,66,122,45,3*75
$GBGSV,3,1,10,02,04,106,,05,18,128,,10,04,084,16,12,38,191,45,1*7D
$GBGSV,3,2,10,13,33,085,28,24,82,261,40,25,25,302,47,26,44,132,31,1*7A
$GBGSV,3,3,10,29,03,039,22,35,47,062,38,1*7F
$GBGSV,3,1,10,02,04,106,,05,18,128,,10,04,084,22,12,38,191,47,3*7A
$GBGSV,3,2,10,13,33,085,33,24,82,261,,25,25,302,,26,44,132,,3*77
$GBGSV,3,3,10,29,03,039,,35,47,062,,3*76
$GNGLL,5025.4472260,N,01411.3816290,E,214454.00,A,A*74
$GNRMC,214455.00,A,5025.4472125,N,01411.3815995,E,0.034,,241021,,,A,V*1A
$GNVTG,,T,,M,0.034,N,0.062,K,A*3E
$GNGGA,214455.00,5025.4472125,N,01411.3815995,E,1,12,0.76,222.742,M,44.078,M,,*41
$GNGSA,A,3,77,70,79,88,87,81,69,78,,,,,1.43,0.76,1.21,2*08
$GNGSA,A,3,13,12,24,25,26,35,,,,,,,1.43,0.76,1.21,4*03
$GLGSV,2,1,08,69,15,279,48,70,15,338,11,77,22,115,30,78,76,071,47,1*7E
$GLGSV,2,2,08,79,41,311,51,81,26,184,49,87,44,042,42,88,66,122,48,1*73
$GLGSV,2,1,08,69,15,279,42,70,15,338,,77,22,115,23,78,76,071,40,3*73
$GLGSV,2,2,08,79,41,311,42,81,26,184,44,87,44,042,,88,66,122,45,3*75
$GBGSV,3,1,10,02,04,106,,05,18,128,,10,04,084,16,12,38,191,45,1*7D
$GBGSV,3,2,10,13,33,085,28,24,82,261,40,25,25,302,47,26,44,132,31,1*7A
$GBGSV,3,3,10,29,03,039,22,35,47,062,38,1*7F
$GBGSV,3,1,10,02,04,106,,05,18,128,,10,04,084,23,12,38,191,47,3*7B
$GBGSV,3,2,10,13,33,085,33,24,82,261,,25,25,302,,26,44,132,,3*77
$GBGSV,3,3,10,29,03,039,,35,47,062,,3*76
$GNGLL,5025.4472125,N,01411.3815995,E,214455.00,A,A*7A
$GNRMC,214456.00,A,5025.4472035,N,01411.3815888,E,0.028,,241021,,,A,V*19
$GNVTG,,T,,M,0.028,N,0.051,K,A*33
$GNGGA,214456.00,5025.4472035,N,01411.3815888,E,1,12,0.82,222.703,M,44.078,M,,*41
$GNGSA,A,3,77,79,88,87,81,69,78,,,,,,1.56,0.82,1.32,2*02
$GNGSA,A,3,13,12,24,25,26,35,,,,,,,1.56,0.82,1.32,4*0E
$GLGSV,2,1,08,69,15,279,48,70,15,338,08,77,22,115,29,78,76,071,47,1*7E
$GLGSV,2,2,08,79,41,311,51,81,26,184,49,87,44,042,42,88,66,122,48,1*73
$GLGSV,2,1,08,69,15,279,42,70,15,338,,77,22,115,23,78,76,071,40,3*73
$GLGSV,2,2,08,79,41,311,42,81,26,184,44,87,44,042,,88,66,122,45,3*75
$GBGSV,3,1,10,02,04,106,,05,18,128,,10,04,084,15,12,38,191,45,1*7E
$GBGSV,3,2,10,13,33,085,28,24,82,261,40,25,25,302,47,26,44,132,30,1*7B
$GBGSV,3,3,10,29,03,039,22,35,47,062,38,1*7F
$GBGSV,3,1,10,02,04,106,,05,18,128,,10,04,084,23,12,38,191,47,3*7B
$GBGSV,3,2,10,13,33,085,33,24,82,261,,25,25,302,,26,44,132,,3*77
$GBGSV,3,3,10,29,03,039,,35,47,062,,3*76
$GNGLL,5025.4472035,N,01411.3815888,E,214456.00,A,A*74
$GNRMC,214457.00,A,5025.4471919,N,01411.3815755,E,0.012,,241021,,,A,V*1A
$GNVTG,,T,,M,0.012,N,0.022,K,A*3E
$GNGGA,214457.00,5025.4471919,N,01411.3815755,E,1,12,0.82,222.693,M,44.078,M,,*43
$GNGSA,A,3,77,79,88,87,81,69,78,,,,,,1.56,0.82,1.32,2*02
$GNGSA,A,3,13,12,24,25,26,35,,,,,,,1.56,0.82,1.32,4*0E
$GLGSV,2,1,08,69,15,279,48,70,15,338,10,77,22,115,29,78,76,071,47,1*77
$GLGSV,2,2,08,79,41,311,51,81,26,184,49,87,44,042,42,88,66,122,48,1*73
$GLGSV,2,1,08,69,15,279,42,70,15,338,,77,22,115,24,78,76,071,40,3*74
$GLGSV,2,2,08,79,41,311,42,81,26,184,44,87,44,042,,88,66,122,45,3*75
$GBGSV,3,1,10,02,04,106,,05,18,128,,10,04,084,14,12,38,191,45,1*7F
$GBGSV,3,2,10,13,33,085,28,24,82,261,40,25,25,302,47,26,44,132,30,1*7B
$GBGSV,3,3,10,29,03,039,22,35,47,062,38,1*7F
$GBGSV,3,1,10,02,04,106,,05,18,128,,10,04,084,24,12,38,191,47,3*7C
$GBGSV,3,2,10,13,33,085,33,24,82,261,,25,25,302,,26,44,132,,3*77
$GBGSV,3,3,10,29,03,039,,35,47,062,,3*76
$GNGLL,5025.4471919,N,01411.3815755,E,214457.00,A,A*7E
$GNRMC,214458.00,A,5025.4471845,N,01411.3815781,E,0.023,,241021,,,A,V*16
$GNVTG,,T,,M,0.023,N,0.042,K,A*3A
$GNGGA,214458.00,5025.4471845,N,01411.3815781,E,1,12,0.82,222.654,M,44.078,M,,*46
$GNGSA,A,3,77,79,88,87,81,69,78,,,,,,1.56,0.82,1.32,2*02
$GNGSA,A,3,13,12,24,25,26,35,,,,,,,1.56,0.82,1.32,4*0E
$GLGSV,2,1,08,69,15,279,48,70,15,338,10,77,22,115,29,78,76,071,47,1*77
$GLGSV,2,2,08,79,41,311,51,81,26,184,49,87,44,042,42,88,66,122,48,1*73
$GLGSV,2,1,08,69,15,279,42,70,15,338,,77,22,115,24,78,76,071,40,3*74
$GLGSV,2,2,08,79,41,311,41,81,26,184,44,87,44,042,,88,66,122,44,3*77
$GBGSV,3,1,10,02,04,106,,05,18,128,,10,04,084,14,12,38,191,45,1*7F
$GBGSV,3,2,10,13,33,085,27,24,82,261,40,25,25,302,47,26,44,132,30,1*74
$GBGSV,3,3,10,29,03,039,21,35,47,062,38,1*7C
$GBGSV,3,1,10,02,04,106,,05,18,128,,10,04,084,24,12,38,191,47,3*7C
$GBGSV,3,2,10,13,33,085,33,24,82,261,,25,25,302,,26,44,132,,3*77
$GBGSV,3,3,10,29,03,039,,35,47,062,,3*76
$GNGLL,5025.4471845,N,01411.3815781,E,214458.00,A,A*70
$GNRMC,214459.00,A,5025.4471718,N,01411.3815653,E,0.027,,241021,,,A,V*1A
$GNVTG,,T,,M,0.027,N,0.051,K,A*3C
$GNGGA,214459.00,5025.4471718,N,01411.3815653,E,1,12,0.82,222.635,M,44.078,M,,*49
$GNGSA,A,3,77,79,88,87,81,69,78,,,,,,1.56,0.82,1.32,2*02
$GNGSA,A,3,13,12,24,25,26,35,,,,,,,1.56,0.82,1.32,4*0E
$GLGSV,2,1,08,69,15,279,48,70,15,338,10,77,22,115,29,78,76,071,47,1*77
$GLGSV,2,2,08,79,41,311,51,81,26,184,49,87,44,042,42,88,66,122,48,1*73
$GLGSV,2,1,08,69,15,279,42,70,15,338,,77,22,115,24,78,76,071,40,3*74
$GLGSV,2,2,08,79,41,311,41,81,26,184,44,87,44,042,,88,66,122,44,3*77
$GBGSV,3,1,10,02,04,106,,05,18,128,,10,04,084,14,12,38,191,45,1*7F
$GBGSV,3,2,10,13,33,085,27,24,82,261,40,25,25,302,47,26,44,132,30,1*74
$GBGSV,3,3,10,29,03,039,22,35,47,062,39,1*7E
$GBGSV,3,1,10,02,04,106,,05,18,128,,10,04,084,23,12,38,191,47,3*7B
$GBGSV,3,2,10,13,33,085,33,24,82,261,,25,25,302,,26,44,132,,3*77
$GBGSV,3,3,10,29,03,039,,35,47,062,,3*76
$GNGLL,5025.4471718,N,01411.3815653,E,214459.00,A,A*78
$GNRMC,214500.00,A,5025.4471618,N,01411.3815545,E,0.013,,241021,,,A,V*15
$GNVTG,,T,,M,0.013,N,0.023,K,A*3E
$GNGGA,214500.00,5025.4471618,N,01411.3815545,E,1,12,0.82,222.607,M,44.078,M,,*40
$GNGSA,A,3,77,79,88,87,81,69,78,,,,,,1.56,0.82,1.32,2*02
$GNGSA,A,3,13,12,24,25,26,35,,,,,,,1.56,0.82,1.32,4*0E
$GLGSV,2,1,08,69,15,279,48,70,15,338,05,77,22,115,29,78,76,071,46,1*72
$GLGSV,2,2,08,79,41,311,51,81,26,184,49,87,44,042,42,88,66,122,48,1*73
$GLGSV,2,1,08,69,15,279,42,70,15,338,,77,22,115,24,78,76,071,40,3*74
$GLGSV,2,2,08,79,41,311,41,81,26,184,44,87,44,042,,88,66,122,44,3*77
$GBGSV,3,1,10,02,04,106,,05,18,128,,10,04,084,14,12,38,191,45,1*7F
$GBGSV,3,2,10,13,33,085,27,24,82,261,40,25,25,302,47,26,44,132,29,1*7C
$GBGSV,3,3,10,29,03,039,22,35,47,062,39,1*7E
$GBGSV,3,1,10,02,04,106,,05,18,128,,10,04,084,23,12,38,191,47,3*7B
$GBGSV,3,2,10,13,33,085,33,24,82,261,,25,25,302,,26,44,132,,3*77
$GBGSV,3,3,10,29,03,039,,35,47,062,,3*76
$GNGLL,5025.4471618,N,01411.3815545,E,214500.00,A,A*70
$GNRMC,214501.00,A,5025.4471548,N,01411.3815394,E,0.030,,241021,,,A,V*19
$GNVTG,,T,,M,0.030,N,0.055,K,A*3E
$GNGGA,214501.00,5025.4471548,N,01411.3815394,E,1,12,0.82,222.572,M,44.078,M,,*4C
$GNGSA,A,3,77,79,88,87,81,69,78,,,,,,1.56,0.82,1.32,2*02
$GNGSA,A,3,13,12,24,25,26,35,,,,,,,1.56,0.82,1.32,4*0E
$GLGSV,2,1,08,69,15,279,48,70,15,338,08,77,22,115,29,78,76,071,46,1*7F
$GLGSV,2,2,08,79,41,311,51,81,26,184,49,87,44,042,42,88,66,122,48,1*73
$GLGSV,2,1,08,69,15,279,42,70,15,338,,77,22,115,24,78,76,071,39,3*7A
$GLGSV,2,2,08,79,41,311,41,81,26,184,44,87,44,042,,88,66,122,44,3*77
$GBGSV,3,1,10,02,04,106,,05,18,128,,10,04,084,13,12,38,191,45,1*78
$GBGSV,3,2,10,13,33,085,27,24,82,261,40,25,25,302,47,26,44,132,29,1*7C
$GBGSV,3,3,10,29,03,039,22,35,47,062,39,1*7E
$GBGSV,3,1,10,02,04,106,,05,18,128,,10,04,084,23,12,38,191,47,3*7B
$GBGSV,3,2,10,13,33,085,33,24,82,261,,25,25,302,,26,44,132,,3*77
$GBGSV,3,3,10,29,03,039,,35,47,062,,3*76
$GNGLL,5025.4471548,N,01411.3815394,E,214501.00,A,A*7D
$GNRMC,214502.00,A,5025.4471465,N,01411.3815325,E,0.018,,241021,,,A,V*14
$GNVTG,,T,,M,0.018,N,0.033,K,A*34
$GNGGA,214502.00,5025.4471465,N,01411.3815325,E,1,12,0.76,222.532,M,44.078,M,,*44
$GNGSA,A,3,77,70,79,88,87,81,69,78,,,,,1.43,0.76,1.21,2*08
$GNGSA,A,3,13,12,24,25,26,35,,,,,,,1.43,0.76,1.21,4*03
$GLGSV,2,1,08,69,15,279,48,70,15,338,14,77,22,115,28,78,76,071,46,1*73
$GLGSV,2,2,08,79,41,311,51,81,26,184,49,87,44,042,41,88,66,122,48,1*70
$GLGSV,2,1,08,69,15,279,42,70,15,338,,77,22,115,23,78,76,071,39,3*7D
$GLGSV,2,2,08,79,41,311,41,81,26,184,44,87,44,042,,88,66,122,44,3*77
$GBGSV,3,1,10,02,04,106,,05,18,128,,10,04,084,14,12,38,191,45,1*7F
$GBGSV,3,2,10,13,33,085,27,24,82,261,40,25,25,302,47,26,44,132,28,1*7D
$GBGSV,3,3,10,29,03,039,22,35,47,062,39,1*7E
$GBGSV,3,1,10,02,04,106,,05,18,128,,10,04,084,23,12,38,191,47,3*7B
$GBGSV,3,2,10,13,33,085,33,24,82,261,,25,25,302,,26,44,132,,3*77
$GBGSV,3,3,10,29,03,039,,35,47,062,,3*76
$GNGLL,5025.4471465,N,01411.3815325,E,214502.00,A,A*7A
$GNRMC,214503.00,A,5025.4471367,N,01411.3815225,E,0.022,,241021,,,A,V*18
$GNVTG,,T,,M,0.022,N,0.041,K,A*38
$GNGGA,214503.00,5025.4471367,N,01411.3815225,E,1,12,0.76,222.504,M,44.078,M,,*44
$GNGSA,A,3,77,70,79,88,87,81,69,78,,,,,1.43,0.76,1.21,2*08
$GNGSA,A,3,13,12,24,25,26,35,,,,,,,1.43,0.76,1.21,4*03
$GLGSV,2,1,08,69,15,279,48,70,15,338,17,77,22,115,28,78,76,071,46,1*70
$GLGSV,2,2,08,79,41,311,51,81,26,184,49,87,44,042,41,88,66,122,48,1*70
$GLGSV,2,1,08,69,15,279,42,70,15,338,,77,22,115,24,78,76,071,39,3*7A
$GLGSV,2,2,08,79,41,311,42,81,26,184,44,87,44,042,,88,66,122,44,3*74
$GBGSV,3,1,10,02,04,106,,05,18,128,,10,04,084,18,12,38,191,45,1*73
$GBGSV,3,2,10,13,33,085,27,24,82,260,40,25,25,302,47,26,44,132,28,1*7C
$GBGSV,3,3,10,29,03,039,22,35,47,062,39,1*7E
$GBGSV,3,1,10,02,04,106,,05,18,128,,10,04,084,22,12,38,191,48,3*75
$GBGSV,3,2,10,13,33,085,33,24,82,260,,25,25,302,,26,44,132,,3*76
$GBGSV,3,3,10,29,03,039,,35,47,062,,3*76
$GNGLL,5025.4471367,N,01411.3815225,E,214503.00,A,A*7F
$GNRMC,214504.00,A,5025.4471263,N,01411.3815174,E,0.010,,241021,,,A,V*1C
$GNVTG,,T,,M,0.010,N,0.018,K,A*35
$GNGGA,214504.00,5025.4471263,N,01411.3815174,E,1,12,0.76,222.476,M,44.078,M,,*45
$GNGSA,A,3,77,70,79,88,87,81,69,78,,,,,1.43,0.76,1.21,2*08
$GNGSA,A,3,13,12,24,25,26,35,,,,,,,1.43,0.76,1.21,4*03
$GLGSV,2,1,08,69,15,279,48,70,15,338,18,77,22,115,27,78,76,071,46,1*70
$GLGSV,2,2,08,79,41,311,51,81,26,184,49,87,44,042,41,88,66,122,48,1*70
$GLGSV,2,1,08,69,15,279,42,70,15,338,,77,22,115,23,78,76,071,39,3*7D
$GLGSV,2,2,08,79,41,311,42,81,26,184,44,87,44,042,,88,66,122,44,3*74
$GBGSV,3,1,10,02,04,106,,05,18,128,,10,04,084,18,12,38,191,45,1*73
$GBGSV,3,2,10,13,33,085,27,24,82,260,39,25,25,302,47,26,44,132,27,1*7D
$GBGSV,3,3,10,29,03,039,22,35,47,062,39,1*7E
$GBGSV,3,1,10,02,04,106,,05,18,128,,10,04,084,22,12,38,191,48,3*75
$GBGSV,3,2,10,13,33,085,33,24,82,260,,25,25,302,,26,44,132,,3*76
$GBGSV,3,3,10,29,03,039,,35,47,062,,3*76
$GNGLL,5025.4471263,N,01411.3815174,E,214504.00,A,A*7A
$GNRMC,214505.00,A,5025.4471204,N,01411.3815270,E,0.001,,241021,,,A,V*1B
$GNVTG,,T,,M,0.001,N,0.003,K,A*3F
$GNGGA,214505.00,5025.4471204,N,01411.3815270,E,1,12,0.76,222.421,M,44.078,M,,*40
$GNGSA,A,3,77,70,79,88,87,81,69,78,,,,,1.43,0.76,1.21,2*08
$GNGSA,A,3,13,12,24,25,26,35,,,,,,,1.43,0.76,1.21,4*03
$GLGSV,2,1,08,69,15,279,48,70,15,338,19,77,22,115,27,78,76,071,46,1*71
$GLGSV,2,2,08,79,41,311,51,81,26,184,49,87,44,042,41,88,66,122,47,1*7F
$GLGSV,2,1,08,69,15,279,42,70,15,338,,77,22,115,23,78,76,071,39,3*7D
$GLGSV,2,2,08,79,41,311,42,81,26,184,44,87,44,042,,88,66,122,44,3*74
$GBGSV,3,1,10,02,04,106,,05,18,128,,10,04,084,18,12,38,191,45,1*73
$GBGSV,3,2,10,13,33,085,27,24,82,260,40,25,25,302,48,26,43,132,27,1*7B
$GBGSV,3,3,10,29,03,039,22,35,47,062,39,1*7E
$GBGSV,3,1,10,02,04,106,,05,18,128,,10,04,084,22,12,38,191,48,3*75
$GBGSV,3,2,10,13,33,085,33,24,82,260,,25,25,302,,26,43,132,,3*71
$GBGSV,3,3,10,29,03,039,,35,47,062,,3*76
$GNGLL,5025.4471204,N,01411.3815270,E,214505.00,A,A*7D
$GNRMC,214506.00,A,5025.4471119,N,01411.3815241,E,0.012,,241021,,,A,V*17
$GNVTG,,T,,M,0.012,N,0.023,K,A*3F
$GNGGA,214506.00,5025.4471119,N,01411.3815241,E,1,12,0.76,222.400,M,44.078,M,,*4D
$GNGSA,A,3,77,70,79,88,87,81,69,78,,,,,1.43,0.76,1.21,2*08
$GNGSA,A,3,13,12,24,25,26,35,,,,,,,1.43,0.76,1.21,4*03
$GLGSV,2,1,08,69,15,279,48,70,15,338,20,77,22,115,27,78,76,071,46,1*7B
$GLGSV,2,2,08,79,41,311,51,81,26,184,49,87,44,042,41,88,66,122,47,1*7F
$GLGSV,2,1,08,69,15,279,42,70,15,338,,77,22,115,22,78,76,071,39,3*7C
$GLGSV,2,2,08,79,41,311,42,81,26,184,44,87,44,042,,88,66,122,44,3*74
$GBGSV,3,1,10,02,04,106,,05,18,128,,10,04,084,18,12,38,191,45,1*73
$GBGSV,3,2,10,13,33,085,27,24,82,260,39,25,25,302,48,26,43,132,26,1*74
$GBGSV,3,3,10,29,03,039,22,35,47,062,39,1*7E
$GBGSV,3,1,10,02,04,106,,05,18,128,,10,04,084,22,12,38,191,48,3*75
$GBGSV,3,2,10,13,33,085,33,24,82,260,,25,25,302,,26,43,132,,3*71
$GBGSV,3,3,10,29,03,039,,35,47,062,,3*76
$GNGLL,5025.4471119,N,01411.3815241,E,214506.00,A,A*73
$GNRMC,214507.00,A,5025.4471037,N,01411.3815190,E,0.019,,241021,,,A,V*1F
$GNVTG,,T,,M,0.019,N,0.035,K,A*33
$GNGGA,214507.00,5025.4471037,N,01411.3815190,E,1,12,0.76,222.384,M,44.078,M,,*45
$GNGSA,A,3,77,70,79,88,87,81,69,78,,,,,1.43,0.76,1.21,2*08
$GNGSA,A,3,13,12,24,25,26,35,,,,,,,1.43,0.76,1.21,4*03
$GLGSV,2,1,08,69,15,279,48,70,15,338,21,77,22,115,26,78,76,071,46,1*7B
$GLGSV,2,2,08,79,41,311,51,81,26,184,49,87,44,042,41,88,66,122,47,1*7F
$GLGSV,2,1,08,69,15,279,42,70,15,338,,77,22,115,22,78,76,071,40,3*72
$GLGSV,2,2,08,79,41,311,42,81,26,184,44,87,44,042,,88,66,122,44,3*74
$GBGSV,3,1,10,02,04,106,,05,18,128,,10,04,084,19,12,38,191,45,1*72
$GBGSV,3,2,10,13,33,085,27,24,82,260,39,25,25,302,48,26,43,132,26,1*74
$GBGSV,3,3,10,29,03,039,22,35,47,062,39,1*7E
$GBGSV,3,1,10,02,04,106,,05,18,128,,10,04,084,21,12,38,191,48,3*76
$GBGSV,3,2,10,13,33,085,33,24,82,260,,25,25,302,,26,43,132,,3*71
$GBGSV,3,3,10,29,03,039,,35,47,062,,3*76
$GNGLL,5025.4471037,N,01411.3815190,E,214507.00,A,A*70
$GNRMC,214508.00,A,5025.4470969,N,01411.3815158,E,0.021,,241021,,,A,V*1C
$GNVTG,,T,,M,0.021,N,0.039,K,A*34
$GNGGA,214508.00,5025.4470969,N,01411.3815158,E,1,12,0.76,222.366,M,44.078,M,,*41
$GNGSA,A,3,77,70,79,88,87,81,69,78,,,,,1.43,0.76,1.21,2*08
$GNGSA,A,3,13,12,24,25,26,35,,,,,,,1.43,0.76,1.21,4*03
$GLGSV,2,1,08,69,15,279,48,70,15,338,21,77,22,115,26,78,76,071,46,1*7B
$GLGSV,2,2,08,79,41,311,50,81,26,184,49,87,44,042,41,88,66,122,48,1*71
$GLGSV,2,1,08,69,15,279,42,70,15,338,,77,22,115,22,78,76,071,40,3*72
$GLGSV,2,2,08,79,41,311,41,81,26,184,44,87,44,042,,88,66,122,44,3*77
$GBGSV,3,1,10,02,04,106,,05,18,128,,10,04,084,19,12,38,191,44,1*73
$GBGSV,3,2,10,13,33,085,27,24,82,260,39,25,25,302,48,26,43,132,25,1*77
$GBGSV,3,3,10,29,02,039,21,35,47,062,39,1*7C
$GBGSV,3,1,10,02,04,106,,05,18,128,,10,04,084,21,12,38,191,48,3*76
$GBGSV,3,2,10,13,33,085,33,24,82,260,,25,25,302,,26,43,132,,3*71
$GBGSV,3,3,10,29,02,039,,35,47,062,,3*77
$GNGLL,5025.4470969,N,01411.3815158,E,214508.00,A,A*78
$GNRMC,214509.00,A,5025.4470905,N,01411.3815263,E,0.031,,241021,,,A,V*1D
$GNVTG,,T,,M,0.031,N,0.058,K,A*32
$GNGGA,214509.00,5025.4470905,N,01411.3815263,E,1,12,0.76,222.319,M,44.078,M,,*49
$GNGSA,A,3,77,70,79,88,87,81,69,78,,,,,1.43,0.76,1.21,2*08
$GNGSA,A,3,13,12,24,25,26,35,,,,,,,1.43,0.76,1.21,4*03
$GLGSV,2,1,08,69,15,279,48,70,15,338,21,77,22,115,25,78,76,071,45,1*7B
$GLGSV,2,2,08,79,41,311,50,81,26,184,49,87,44,042,41,88,66,122,48,1*71
$GLGSV,2,1,08,69,15,279,42,70,15,338,,77,22,115,23,78,76,071,40,3*73
$GLGSV,2,2,08,79,41,311,41,81,26,184,44,87,44,042,,88,66,122,44,3*77
$GBGSV,3,1,10,02,04,106,,05,18,128,,10,04,084,19,12,38,191,44,1*73
$GBGSV,3,2,10,13,33,085,27,24,82,260,39,25,25,302,48,26,43,132,25,1*77
$GBGSV,3,3,10,29,02,039,21,35,47,062,39,1*7C
$GBGSV,3,1,10,02,04,106,,05,18,128,,10,04,084,20,12,38,191,48,3*77
$GBGSV,3,2,10,13,33,085,32,24,82,260,,25,25,302,,26,43,132,,3*70
$GBGSV,3,3,10,29,02,039,,35,47,062,,3*77
$GNGLL,5025.4470905,N,01411.3815263,E,214509.00,A,A*78
$GNRMC,214510.00,A,5025.4470388,N,01411.3815829,E,0.070,,241021,,,D,V*1E
$GNVTG,,T,,M,0.070,N,0.130,K,D*3D
$GNGGA,214510.00,5025.4470388,N,01411.3815829,E,2,12,0.88,222.113,M,44.078,M,1.0,0084*63
$GNGSA,A,3,77,70,79,88,87,81,69,78,,,,,1.76,0.88,1.52,2*0B
$GNGSA,A,3,13,12,24,25,26,35,,,,,,,1.76,0.88,1.52,4*00
$GLGSV,2,1,08,69,15,279,48,70,15,338,22,77,22,115,24,78,76,071,45,1*79
$GLGSV,2,2,08,79,41,311,50,81,26,184,49,87,44,042,41,88,66,122,48,1*71
$GLGSV,2,1,08,69,15,279,42,70,15,338,,77,22,115,23,78,76,071,40,3*73
$GLGSV,2,2,08,79,41,311,41,81,26,184,44,87,44,042,,88,66,122,44,3*77
$GBGSV,3,1,10,02,04,106,,05,18,128,,10,04,084,19,12,38,191,44,1*73
$GBGSV,3,2,10,13,33,085,26,24,82,260,39,25,25,302,48,26,43,132,25,1*76
$GBGSV,3,3,10,29,02,039,21,35,47,062,40,1*72
$GBGSV,3,1,10,02,04,106,,05,18,128,,10,04,084,20,12,38,191,48,3*77
$GBGSV,3,2,10,13,33,085,32,24,82,260,,25,25,302,,26,43,132,,3*70
$GBGSV,3,3,10,29,02,039,,35,47,062,,3*77
$GNGLL,5025.4470388,N,01411.3815829,E,214510.00,A,D*7E
$GNRMC,214511.00,A,5025.4469814,N,01411.3815581,E,0.009,,241021,,,F,V*1A
$GNVTG,,T,,M,0.009,N,0.017,K,D*37
$GNGGA,214511.00,5025.4469814,N,01411.3815581,E,5,12,0.88,222.120,M,44.078,M,1.0,0084*6C
$GNGSA,A,3,77,70,79,88,87,81,69,78,,,,,1.76,0.88,1.52,2*0B
$GNGSA,A,3,13,12,24,25,26,35,,,,,,,1.76,0.88,1.52,4*00
$GLGSV,2,1,08,69,15,279,47,70,15,338,22,77,22,115,23,78,76,071,45,1*71
$GLGSV,2,2,08,79,41,311,50,81,26,184,49,87,44,042,41,88,66,122,47,1*7E
$GLGSV,2,1,08,69,15,279,42,70,15,338,,77,22,115,22,78,76,071,40,3*72
$GLGSV,2,2,08,79,41,311,41,81,26,184,44,87,44,042,,88,66,122,44,3*77
$GBGSV,3,1,10,02,04,106,,05,18,128,,10,04,084,19,12,38,191,44,1*73
$GBGSV,3,2,10,13,33,085,26,24,82,260,39,25,25,302,48,26,43,132,25,1*76
$GBGSV,3,3,10,29,02,039,21,35,47,062,40,1*72
$GBGSV,3,1,10,02,04,106,,05,18,128,,10,04,084,20,12,38,191,48,3*77
$GBGSV,3,2,10,13,33,085,33,24,82,260,,25,25,302,,26,43,132,,3*71
$GBGSV,3,3,10,29,02,039,,35,47,062,,3*77
$GNGLL,5025.4469814,N,01411.3815581,E,214511.00,A,D*76
$GNRMC,214512.00,A,5025.4469434,N,01411.3815731,E,0.004,,241021,,,F,V*13
$GNVTG,,T,,M,0.004,N,0.007,K,D*3B
$GNGGA,214512.00,5025.4469434,N,01411.3815731,E,5,12,0.88,222.041,M,44.078,M,1.0,0084*6E
$GNGSA,A,3,77,70,79,88,87,81,69,78,,,,,1.76,0.88,1.52,2*0B
$GNGSA,A,3,13,12,24,25,26,35,,,,,,,1.76,0.88,1.52,4*00
$GLGSV,2,1,08,69,15,279,47,70,15,338,22,77,22,115,22,78,76,071,45,1*70
$GLGSV,2,2,08,79,41,311,50,81,26,184,49,87,44,042,41,88,66,122,47,1*7E
$GLGSV,2,1,08,69,15,279,42,70,15,338,,77,22,115,23,78,76,071,40,3*73
$GLGSV,2,2,08,79,41,311,41,81,26,184,44,87,44,042,,88,66,122,44,3*77
$GBGSV,3,1,10,02,04,106,,05,18,128,,10,04,084,19,12,38,191,44,1*73
$GBGSV,3,2,10,13,33,085,26,24,82,260,39,25,25,302,48,26,43,132,24,1*77
$GBGSV,3,3,10,29,02,039,21,35,47,062,40,1*72
$GBGSV,3,1,10,02,04,106,,05,18,128,,10,04,084,19,12,38,191,48,3*7D
$GBGSV,3,2,10,13,33,085,32,24,82,260,,25,25,302,,26,43,132,,3*70
$GBGSV,3,3,10,29,02,039,,35,47,062,,3*77
$GNGLL,5025.4469434,N,01411.3815731,E,214512.00,A,D*72
$GNRMC,214513.00,A,5025.4469101,N,01411.3815830,E,0.017,,241021,,,F,V*1D
$GNVTG,,T,,M,0.017,N,0.032,K,D*3F
$GNGGA,214513.00,5025.4469101,N,01411.3815830,E,5,12,0.88,221.962,M,44.078,M,1.0,0084*69
$GNGSA,A,3,77,70,79,88,87,81,69,78,,,,,1.76,0.88,1.52,2*0B
$GNGSA,A,3,13,12,24,25,26,35,,,,,,,1.76,0.88,1.52,4*00
$GLGSV,2,1,08,69,15,279,47,70,15,338,22,77,22,115,22,78,76,071,46,1*73
$GLGSV,2,2,08,79,41,311,50,81,26,184,49,87,44,042,41,88,66,122,47,1*7E
$GLGSV,2,1,08,69,15,279,42,70,15,338,,77,22,115,23,78,76,071,41,3*72
$GLGSV,2,2,08,79,41,311,41,81,26,184,44,87,44,042,,88,66,122,44,3*77
$GBGSV,3,1,10,02,04,106,,05,18,128,,10,04,084,19,12,38,191,44,1*73
$GBGSV,3,2,10,13,33,085,26,24,82,260,39,25,25,302,48,26,43,132,24,1*77
$GBGSV,3,3,10,29,02,039,22,35,47,062,40,1*71
$GBGSV,3,1,10,02,04,106,,05,18,128,,10,04,084,19,12,38,191,48,3*7D
$GBGSV,3,2,10,13,33,085,33,24,82,260,,25,25,302,,26,43,132,,3*71
$GBGSV,3,3,10,29,02,039,,35,47,062,,3*77
$GNGLL,5025.4469101,N,01411.3815830,E,214513.00,A,D*7E
$GNRMC,214514.00,A,5025.4468785,N,01411.3815971,E,0.015,,241021,,,F,V*17
$GNVTG,,T,,M,0.015,N,0.027,K,D*39
$GNGGA,214514.00,5025.4468785,N,01411.3815971,E,5,12,0.88,221.861,M,44.078,M,1.0,0084*63
$GNGSA,A,3,77,70,79,88,87,81,69,78,,,,,1.76,0.88,1.52,2*0B
$GNGSA,A,3,13,12,24,25,26,35,,,,,,,1.76,0.88,1.52,4*00
$GLGSV,2,1,08,69,15,279,47,70,15,338,21,77,22,115,21,78,76,071,46,1*73
$GLGSV,2,2,08,79,41,311,50,81,26,184,49,87,44,042,41,88,66,122,47,1*7E
$GLGSV,2,1,08,69,15,279,43,70,15,338,,77,22,115,23,78,76,071,41,3*73
$GLGSV,2,2,08,79,41,311,41,81,26,184,44,87,44,042,,88,66,122,44,3*77
$GBGSV,3,1,10,02,04,106,,05,18,128,,10,04,084,18,12,38,191,44,1*72
$GBGSV,3,2,10,13,33,085,26,24,82,260,39,25,25,302,48,26,43,132,25,1*76
$GBGSV,3,3,10,29,02,039,23,35,47,062,40,1*70
$GBGSV,3,1,10,02,04,106,,05,18,128,,10,04,084,18,12,38,191,48,3*7C
$GBGSV,3,2,10,13,33,085,32,24,82,260,,25,25,302,,26,43,132,,3*70
$GBGSV,3,3,10,29,02,039,,35,47,062,,3*77
$GNGLL,5025.4468785,N,01411.3815971,E,214514.00,A,D*76
$GNRMC,214515.00,A,5025.4468511,N,01411.3816201,E,0.016,,241021,,,F,V*15
$GNVTG,,T,,M,0.016,N,0.030,K,D*3C
$GNGGA,214515.00,5025.4468511,N,01411.3816201,E,5,12,0.88,221.710,M,44.078,M,1.0,0084*6B
$GNGSA,A,3,77,70,79,88,87,81,69,78,,,,,1.76,0.88,1.52,2*0B
$GNGSA,A,3,13,12,24,25,26,35,,,,,,,1.76,0.88,1.52,4*00
$GLGSV,2,1,08,69,15,279,47,70,15,338,22,77,22,115,20,78,76,071,46,1*71
$GLGSV,2,2,08,79,41,311,50,81,26,184,49,87,44,042,42,88,66,122,47,1*7D
$GLGSV,2,1,08,69,15,279,43,70,15,338,,77,22,115,23,78,76,071,40,3*72
$GLGSV,2,2,08,79,41,311,41,81,26,184,44,87,44,042,,88,66,122,44,3*77
$GBGSV,3,1,10,02,04,106,,05,18,128,,10,04,084,18,12,38,191,44,1*72
$GBGSV,3,2,10,13,33,085,26,24,82,260,39,25,25,302,48,26,43,132,25,1*76
$GBGSV,3,3,10,29,02,039,23,35,47,062,40,1*70
$GBGSV,3,1,10,02,04,106,,05,18,128,,10,04,084,18,12,38,191,48,3*7C
$GBGSV,3,2,10,13,33,085,32,24,82,260,,25,25,302,,26,43,132,,3*70
$GBGSV,3,3,10,29,02,039,,35,47,062,,3*77
$GNGLL,5025.4468511,N,01411.3816201,E,214515.00,A,D*77
$GNRMC,214516.00,A,5025.4468218,N,01411.3816378,E,0.005,,241021,,,F,V*15
$GNVTG,,T,,M,0.005,N,0.009,K,D*34
$GNGGA,214516.00,5025.4468218,N,01411.3816378,E,5,12,0.88,221.574,M,44.078,M,1.0,0084*69
$GNGSA,A,3,77,70,79,88,87,81,69,78,,,,,1.76,0.88,1.52,2*0B
$GNGSA,A,3,13,12,24,25,26,35,,,,,,,1.76,0.88,1.52,4*00
$GLGSV,2,1,08,69,14,278,47,70,15,338,23,77,22,115,19,78,76,071,46,1*7A
$GLGSV,2,2,08,79,41,311,50,81,26,184,49,87,44,042,42,88,66,122,47,1*7D
$GLGSV,2,1,08,69,14,278,43,70,15,338,,77,22,115,23,78,76,071,40,3*72
$GLGSV,2,2,08,79,41,311,41,81,26,184,44,87,44,042,,88,66,122,44,3*77
$GBGSV,3,1,10,02,04,106,,05,18,128,,10,04,084,18,12,38,191,44,1*72
$GBGSV,3,2,10,13,33,085,25,24,82,260,39,25,25,302,48,26,43,132,25,1*75
$GBGSV,3,3,10,29,02,039,23,35,47,062,40,1*70
$GBGSV,3,1,10,02,04,106,,05,18,128,,10,04,084,18,12,38,191,48,3*7C
$GBGSV,3,2,10,13,33,085,32,24,82,260,,25,25,302,,26,43,132,,3*70
$GBGSV,3,3,10,29,02,039,,35,47,062,,3*77
$GNGLL,5025.4468218,N,01411.3816378,E,214516.00,A,D*75
$GNRMC,214517.00,A,5025.4467867,N,01411.3816440,E,0.002,,241021,,,F,V*12
$GNVTG,,T,,M,0.002,N,0.003,K,D*39
$GNGGA,214517.00,5025.4467867,N,01411.3816440,E,5,12,0.88,221.464,M,44.078,M,1.0,0084*69
$GNGSA,A,3,77,70,79,88,87,81,69,78,,,,,1.76,0.88,1.52,2*0B
$GNGSA,A,3,13,12,24,25,26,35,,,,,,,1.76,0.88,1.52,4*00
$GLGSV,2,1,08,69,14,278,47,70,15,337,23,77,22,115,18,78,76,071,46,1*74
$GLGSV,2,2,08,79,41,311,50,81,26,184,49,87,44,042,42,88,66,122,47,1*7D
$GLGSV,2,1,08,69,14,278,43,70,15,337,,77,22,115,23,78,76,071,40,3*7D
$GLGSV,2,2,08,79,41,311,42,81,26,184,44,87,44,042,,88,66,122,44,3*74
$GBGSV,3,1,10,02,04,106,,05,18,128,,10,04,084,19,12,38,191,44,1*73
$GBGSV,3,2,10,13,33,085,25,24,82,260,39,25,25,302,48,26,43,132,25,1*75
$GBGSV,3,3,10,29,02,039,24,35,47,062,40,1*77
$GBGSV,3,1,10,02,04,106,,05,18,128,,10,04,084,18,12,38,191,48,3*7C
$GBGSV,3,2,10,13,33,085,32,24,82,260,,25,25,302,,26,43,132,,3*70
$GBGSV,3,3,10,29,02,039,,35,47,062,,3*77
$GNGLL,5025.4467867,N,01411.3816440,E,214517.00,A,D*75
$GNRMC,214518.00,A,5025.4467514,N,01411.3816303,E,0.005,,241021,,,F,V*13
$GNVTG,,T,,M,0.005,N,0.008,K,D*35
$GNGGA,214518.00,5025.4467514,N,01411.3816303,E,5,12,0.88,221.418,M,44.078,M,1.0,0084*64
$GNGSA,A,3,77,70,79,88,87,81,69,78,,,,,1.76,0.88,1.52,2*0B
$GNGSA,A,3,13,12,24,25,26,35,,,,,,,1.76,0.88,1.52,4*00
$GLGSV,2,1,08,69,14,278,47,70,15,337,23,77,22,115,17,78,76,071,46,1*7B
$GLGSV,2,2,08,79,41,311,50,81,26,184,49,87,44,042,42,88,66,122,47,1*7D
$GLGSV,2,1,08,69,14,278,43,70,15,337,,77,22,115,23,78,76,071,40,3*7D
$GLGSV,2,2,08,79,41,311,42,81,26,184,44,87,44,042,,88,66,122,44,3*74
$GBGSV,3,1,10,02,04,106,,05,18,128,,10,04,084,19,12,38,191,44,1*73
$GBGSV,3,2,10,13,33,085,26,24,82,260,40,25,25,302,48,26,43,132,26,1*7B
$GBGSV,3,3,10,29,02,039,24,35,47,062,40,1*77
$GBGSV,3,1,10,02,04,106,,05,18,128,,10,04,084,18,12,38,191,48,3*7C
$GBGSV,3,2,10,13,33,085,32,24,82,260,,25,25,302,,26,43,132,,3*70
$GBGSV,3,3,10,29,02,039,,35,47,062,,3*77
$GNGLL,5025.4467514,N,01411.3816303,E,214518.00,A,D*73
$GNRMC,214519.00,A,5025.4467174,N,01411.3816144,E,0.016,,241021,,,F,V*13
$GNVTG,,T,,M,0.016,N,0.030,K,D*3C
$GNGGA,214519.00,5025.4467174,N,01411.3816144,E,5,12,0.88,221.387,M,44.078,M,1.0,0084*67
$GNGSA,A,3,77,70,79,88,87,81,69,78,,,,,1.76,0.88,1.52,2*0B
$GNGSA,A,3,13,12,24,25,26,35,,,,,,,1.76,0.88,1.52,4*00
$GLGSV,2,1,08,69,14,278,47,70,15,337,24,77,22,115,16,78,76,071,46,1*7D
$GLGSV,2,2,08,79,41,311,50,81,26,184,49,87,44,042,42,88,66,122,47,1*7D
$GLGSV,2,1,08,69,14,278,43,70,15,337,,77,22,115,23,78,76,071,40,3*7D
$GLGSV,2,2,08,79,41,311,41,81,26,184,44,87,44,042,,88,66,122,44,3*77
$GBGSV,3,1,10,02,04,106,,05,18,128,,10,04,084,,12,38,191,44,1*7B
$GBGSV,3,2,10,13,33,085,26,24,82,260,40,25,25,302,48,26,43,132,27,1*7A
$GBGSV,3,3,10,29,02,039,23,35,47,062,40,1*70
$GBGSV,3,1,10,02,04,106,,05,18,128,,10,04,084,17,12,38,191,48,3*73
$GBGSV,3,2,10,13,33,085,32,24,82,260,,25,25,302,,26,43,132,,3*70
$GBGSV,3,3,10,29,02,039,,35,47,062,,3*77
$GNGLL,5025.4467174,N,01411.3816144,E,214519.00,A,D*71
$GNRMC,214520.00,A,5025.4466694,N,01411.3815936,E,0.009,,241021,,,F,V*11
$GNVTG,,T,,M,0.009,N,0.018,K,D*38
$GNGGA,214520.00,5025.4466694,N,01411.3815936,E,5,12,0.88,221.396,M,44.078,M,1.0,0084*6B
$GNGSA,A,3,77,70,79,88,87,81,69,78,,,,,1.76,0.88,1.52,2*0B
$GNGSA,A,3,13,12,24,25,26,35,,,,,,,1.76,0.88,1.52,4*00
$GLGSV,2,1,08,69,14,278,48,70,15,337,24,77,22,115,15,78,76,071,46,1*71
$GLGSV,2,2,08,79,41,311,50,81,26,184,49,87,44,042,42,88,66,122,47,1*7D
$GLGSV,2,1,08,69,14,278,43,70,15,337,,77,22,115,22,78,76,071,41,3*7D
$GLGSV,2,2,08,79,41,311,41,81,26,184,44,87,44,042,,88,66,122,44,3*77
$GBGSV,3,1,10,02,04,106,,05,18,128,,10,04,084,19,12,38,191,44,1*73
$GBGSV,3,2,10,13,33,085,25,24,82,260,40,25,25,302,48,26,43,132,28,1*76
$GBGSV,3,3,10,29,02,039,22,35,47,062,40,1*71
$GBGSV,3,1,10,02,04,106,,05,18,128,,10,04,084,16,12,38,191,48,3*72
$GBGSV,3,2,10,13,33,085,32,24,82,260,,25,25,302,,26,43,132,,3*70
$GBGSV,3,3,10,29,02,039,,35,47,062,,3*77
$GNGLL,5025.4466694,N,01411.3815936,E,214520.00,A,D*7D
$GNRMC,214521.00,A,5025.4466042,N,01411.3815834,E,0.022,,241021,,,F,V*17
$GNVTG,,T,,M,0.022,N,0.041,K,D*3D
$GNGGA,214521.00,5025.4466042,N,01411.3815834,E,5,12,0.88,221.379,M,44.078,M,1.0,0084*65
$GNGSA,A,3,77,70,79,88,87,81,69,78,,,,,1.76,0.88,1.52,2*0B
$GNGSA,A,3,13,12,24,25,26,35,,,,,,,1.76,0.88,1.52,4*00
$GLGSV,2,1,08,69,14,278,48,70,15,337,24,77,22,115,15,78,76,071,46,1*71
$GLGSV,2,2,08,79,41,311,50,81,26,184,49,87,44,042,42,88,66,122,47,1*7D
$GLGSV,2,1,08,69,14,278,43,70,15,337,,77,22,115,22,78,76,071,41,3*7D
$GLGSV,2,2,08,79,41,311,41,81,26,184,44,87,44,042,,88,66,122,44,3*77
$GBGSV,3,1,10,02,04,106,,05,18,128,,10,04,084,20,12,38,191,43,1*7E
$GBGSV,3,2,10,13,33,085,25,24,82,260,40,25,25,302,48,26,43,132,30,1*7F
$GBGSV,3,3,10,29,02,039,22,35,47,062,40,1*71
$GBGSV,3,1,10,02,04,106,,05,18,128,,10,04,084,17,12,38,191,48,3*73
$GBGSV,3,2,10,13,33,085,32,24,82,260,,25,25,302,,26,43,132,,3*70
$GBGSV,3,3,10,29,02,039,,35,47,062,,3*77
$GNGLL,5025.4466042,N,01411.3815834,E,214521.00,A,D*72
$GNRMC,214522.00,A,5025.4465418,N,01411.3815987,E,0.014,,241021,,,F,V*10
$GNVTG,,T,,M,0.014,N,0.026,K,D*39
$GNGGA,214522.00,5025.4465418,N,01411.3815987,E,5,12,0.88,221.278,M,44.078,M,1.0,0084*67
$GNGSA,A,3,77,70,79,88,87,81,69,78,,,,,1.76,0.88,1.52,2*0B
$GNGSA,A,3,13,12,24,25,26,35,,,,,,,1.76,0.88,1.52,4*00
$GLGSV,2,1,08,69,14,278,48,70,15,337,25,77,22,115,15,78,76,071,46,1*70
$GLGSV,2,2,08,79,41,311,50,81,26,184,49,87,44,042,42,88,66,122,47,1*7D
$GLGSV,2,1,08,69,14,278,43,70,15,337,,77,22,115,21,78,76,071,41,3*7E
$GLGSV,2,2,08,79,41,311,41,81,26,184,44,87,44,042,,88,66,122,44,3*77
$GBGSV,3,1,10,02,04,106,,05,18,128,,10,04,084,21,12,38,191,43,1*7F
$GBGSV,3,2,10,13,33,085,25,24,82,260,40,25,25,302,48,26,43,132,30,1*7F
$GBGSV,3,3,10,29,02,039,21,35,47,062,40,1*72
$GBGSV,3,1,10,02,04,106,,05,18,128,,10,04,084,18,12,38,191,48,3*7C
$GBGSV,3,2,10,13,33,085,32,24,82,260,,25,25,302,,26,43,132,,3*70
$GBGSV,3,3,10,29,02,039,,35,47,062,,3*77
$GNGLL,5025.4465418,N,01411.3815987,E,214522.00,A,D*70
$GNRMC,214523.00,A,5025.4464927,N,01411.3816534,E,0.008,,241021,,,F,V*1B
$GNVTG,,T,,M,0.008,N,0.015,K,D*34
$GNGGA,214523.00,5025.4464927,N,01411.3816534,E,5,12,0.88,221.014,M,44.078,M,1.0,0084*69
$GNGSA,A,3,77,70,79,88,87,81,69,78,,,,,1.76,0.88,1.52,2*0B
$GNGSA,A,3,13,12,24,25,26,35,,,,,,,1.76,0.88,1.52,4*00
$GLGSV,2,1,08,69,14,278,48,70,15,337,25,77,22,115,15,78,76,071,46,1*70
$GLGSV,2,2,08,79,41,311,50,81,26,184,49,87,44,042,42,88,66,122,47,1*7D
$GLGSV,2,1,08,69,14,278,43,70,15,337,,77,22,115,21,78,76,071,41,3*7E
$GLGSV,2,2,08,79,41,311,41,81,26,184,44,87,44,042,,88,66,122,44,3*77
$GBGSV,3,1,10,02,04,106,,05,18,128,,10,04,084,21,12,38,191,43,1*7F
$GBGSV,3,2,10,13,33,085,25,24,82,260,41,25,25,302,48,26,43,132,31,1*7F
$GBGSV,3,3,10,29,02,039,21,35,47,062,40,1*72
$GBGSV,3,1,10,02,04,106,,05,18,128,,10,04,084,18,12,38,191,48,3*7C
$GBGSV,3,2,10,13,33,085,32,24,82,260,,25,25,302,,26,43,132,,3*70
$GBGSV,3,3,10,29,02,039,,35,47,062,,3*77
$GNGLL,5025.4464927,N,01411.3816534,E,214523.00,A,D*76
$GNRMC,214524.00,A,5025.4464590,N,01411.3817419,E,0.019,,241021,,,F,V*13
$GNVTG,,T,,M,0.019,N,0.035,K,D*36
$GNGGA,214524.00,5025.4464590,N,01411.3817419,E,5,12,0.88,220.614,M,44.078,M,1.0,0084*66
$GNGSA,A,3,77,70,79,88,87,81,69,78,,,,,1.76,0.88,1.52,2*0B
$GNGSA,A,3,13,12,24,25,26,35,,,,,,,1.76,0.88,1.52,4*00
$GLGSV,2,1,08,69,14,278,48,70,15,337,25,77,22,115,14,78,76,071,46,1*71
$GLGSV,2,2,08,79,41,311,50,81,26,184,49,87,44,042,43,88,66,122,47,1*7C
$GLGSV,2,1,08,69,14,278,43,70,15,337,,77,22,115,20,78,76,071,42,3*7C
$GLGSV,2,2,08,79,41,311,41,81,26,184,44,87,44,042,,88,66,122,44,3*77
$GBGSV,3,1,10,02,04,106,,05,18,128,,10,04,084,21,12,38,191,43,1*7F
$GBGSV,3,2,10,13,33,085,25,24,82,260,41,25,25,302,48,26,43,132,32,1*7C
$GBGSV,3,3,10,29,02,039,21,35,47,062,40,1*72
$GBGSV,3,1,10,02,04,106,,05,18,128,,10,04,084,19,12,38,191,48,3*7D
$GBGSV,3,2,10,13,33,085,32,24,82,260,,25,25,302,,26,43,132,,3*70
$GBGSV,3,3,10,29,02,039,,35,47,062,,3*77
$GNGLL,5025.4464590,N,01411.3817419,E,214524.00,A,D*7E
$GNRMC,214525.00,A,5025.4464261,N,01411.3818487,E,0.035,,241021,,,F,V*1D
$GNVTG,,T,,M,0.035,N,0.064,K,D*3C
$GNGGA,214525.00,5025.4464261,N,01411.3818487,E,5,12,0.88,220.173,M,44.078,M,1.0,0084*60
$GNGSA,A,3,77,70,79,88,87,81,69,78,,,,,1.76,0.88,1.52,2*0B
$GNGSA,A,3,13,12,24,25,26,35,,,,,,,1.76,0.88,1.52,4*00
$GLGSV,2,1,08,69,14,278,48,70,15,337,26,77,22,115,16,78,76,073,46,1*72
$GLGSV,2,2,08,79,41,311,50,81,26,184,49,87,44,042,43,88,66,122,47,1*7C
$GLGSV,2,1,08,69,14,278,43,70,15,337,,77,22,115,21,78,76,073,42,3*7F
$GLGSV,2,2,08,79,41,311,41,81,26,184,44,87,44,042,,88,66,122,44,3*77
$GBGSV,3,1,10,02,04,106,,05,18,128,,10,04,084,22,12,38,191,43,1*7C
$GBGSV,3,2,10,13,33,085,25,24,82,260,41,25,25,302,48,26,43,132,32,1*7C
$GBGSV,3,3,10,29,02,039,20,35,47,062,40,1*73
$GBGSV,3,1,10,02,04,106,,05,18,128,,10,04,084,19,12,38,191,48,3*7D
$GBGSV,3,2,10,13,33,085,33,24,82,260,,25,25,302,,26,43,132,,3*71
$GBGSV,3,3,10,29,02,039,,35,47,062,,3*77
$GNGLL,5025.4464261,N,01411.3818487,E,214525.00,A,D*7E
$GNRMC,214526.00,A,5025.4463834,N,01411.3819173,E,0.048,,241021,,,F,V*16
$GNVTG,,T,,M,0.048,N,0.088,K,D*34
$GNGGA,214526.00,5025.4463834,N,01411.3819173,E,5,12,0.88,219.889,M,44.078,M,1.0,0084*67
$GNGSA,A,3,77,70,79,88,87,81,69,78,,,,,1.76,0.88,1.52,2*0B
$GNGSA,A,3,13,12,24,25,26,35,,,,,,,1.76,0.88,1.52,4*00
$GLGSV,2,1,08,69,14,278,48,70,15,337,27,77,22,115,17,78,76,073,46,1*72
$GLGSV,2,2,08,79,42,311,50,81,26,184,48,87,44,042,43,88,66,122,47,1*7E
$GLGSV,2,1,08,69,14,278,43,70,15,337,,77,22,115,21,78,76,073,42,3*7F
$GLGSV,2,2,08,79,42,311,41,81,26,184,43,87,44,042,,88,66,122,44,3*73
$GBGSV,3,1,10,02,04,106,,05,18,128,,10,04,084,22,12,38,191,43,1*7C
$GBGSV,3,2,10,13,33,085,26,24,82,260,41,25,25,302,48,26,43,132,33,1*7E
$GBGSV,3,3,10,29,02,039,21,35,47,062,40,1*72
$GBGSV,3,1,10,02,04,106,,05,18,128,,10,04,084,20,12,38,191,48,3*77
$GBGSV,3,2,10,13,33,085,32,24,82,260,,25,25,302,,26,43,132,,3*70
$GBGSV,3,3,10,29,02,039,,35,47,062,,3*77
$GNGLL,5025.4463834,N,01411.3819173,E,214526.00,A,D*7F
$GNRMC,214527.00,A,5025.4463313,N,01411.3819667,E,0.060,,241021,,,F,V*11
$GNVTG,,T,,M,0.060,N,0.111,K,D*3F
$GNGGA,214527.00,5025.4463313,N,01411.3819667,E,5,12,0.82,219.695,M,44.078,M,1.0,0084*63
$GNGSA,A,3,77,70,79,88,87,81,69,78,,,,,1.61,0.82,1.38,2*0B
$GNGSA,A,3,13,12,24,25,26,35,,,,,,,1.61,0.82,1.38,4*00
$GLGSV,2,1,08,69,14,278,48,70,15,337,27,77,22,115,18,78,76,073,46,1*7D
$GLGSV,2,2,08,79,42,311,51,81,26,184,48,87,44,042,43,88,66,122,47,1*7F
$GLGSV,2,1,08,69,14,278,43,70,15,337,,77,22,115,21,78,76,073,42,3*7F
$GLGSV,2,2,08,79,42,311,41,81,26,184,43,87,44,042,,88,66,122,44,3*73
$GBGSV,3,1,10,02,04,106,,05,18,128,,10,04,084,22,12,38,191,43,1*7C
$GBGSV,3,2,10,13,33,085,26,24,82,260,41,25,25,302,48,26,43,132,33,1*7E
$GBGSV,3,3,10,29,02,039,21,35,47,062,40,1*72
$GBGSV,3,1,10,02,04,106,,05,18,128,,10,04,084,20,12,38,191,48,3*77
$GBGSV,3,2,10,13,33,085,33,24,82,260,,25,25,302,,26,43,132,,3*71
$GBGSV,3,3,10,29,02,039,,35,47,062,,3*77
$GNGLL,5025.4463313,N,01411.3819667,E,214527.00,A,D*72
$GNRMC,214528.00,A,5025.4462777,N,01411.3820391,E,0.017,,241021,,,F,V*1F
$GNVTG,,T,,M,0.017,N,0.031,K,D*3C
$GNGGA,214528.00,5025.4462777,N,01411.3820391,E,5,12,0.82,219.411,M,44.078,M,1.0,0084*63
$GNGSA,A,3,77,70,79,88,87,81,69,78,,,,,1.61,0.82,1.38,2*0B
$GNGSA,A,3,13,12,24,25,26,35,,,,,,,1.61,0.82,1.38,4*00
$GLGSV,2,1,08,69,14,278,48,70,15,337,27,77,22,115,18,78,76,073,46,1*7D
$GLGSV,2,2,08,79,42,311,51,81,26,184,48,87,44,042,43,88,66,122,48,1*70
$GLGSV,2,1,08,69,14,278,43,70,15,337,,77,22,115,21,78,76,073,42,3*7F
$GLGSV,2,2,08,79,42,311,41,81,26,184,43,87,44,042,,88,66,122,44,3*73
$GBGSV,3,1,10,02,04,106,,05,18,128,,10,04,084,23,12,38,191,43,1*7D
$GBGSV,3,2,10,13,33,085,26,24,82,260,41,25,25,302,48,26,43,132,33,1*7E
$GBGSV,3,3,10,29,02,039,21,35,47,062,40,1*72
$GBGSV,3,1,10,02,04,106,,05,18,128,,10,04,084,21,12,38,191,48,3*76
$GBGSV,3,2,10,13,33,085,32,24,82,260,,25,25,302,,26,43,132,,3*70
$GBGSV,3,3,10,29,02,039,,35,47,062,,3*77
$GNGLL,5025.4462777,N,01411.3820391,E,214528.00,A,D*7C
$GNRMC,214529.00,A,5025.4462254,N,01411.3821219,E,0.007,,241021,,,F,V*1B
$GNVTG,,T,,M,0.007,N,0.013,K,D*3D
$GNGGA,214529.00,5025.4462254,N,01411.3821219,E,5,12,0.82,219.115,M,44.078,M,1.0,0084*67
$GNGSA,A,3,77,70,79,88,87,81,69,78,,,,,1.61,0.82,1.38,2*0B
$GNGSA,A,3,13,12,24,25,26,35,,,,,,,1.61,0.82,1.38,4*00
$GLGSV,2,1,08,69,14,278,48,70,15,337,27,77,22,115,20,78,76,073,46,1*76
$GLGSV,2,2,08,79,42,311,51,81,26,184,48,87,44,042,43,88,66,122,48,1*70
$GLGSV,2,1,08,69,14,278,43,70,15,337,,77,22,115,20,78,76,073,42,3*7E
$GLGSV,2,2,08,79,42,311,41,81,26,184,43,87,44,042,,88,66,122,44,3*73
$GBGSV,3,1,10,02,04,106,,05,18,128,,10,04,084,23,12,38,191,43,1*7D
$GBGSV,3,2,10,13,33,085,26,24,82,260,42,25,25,302,48,26,43,132,34,1*7A
$GBGSV,3,3,10,29,02,039,22,35,47,062,40,1*71
$GBGSV,3,1,10,02,04,106,,05,18,128,,10,04,084,21,12,38,191,48,3*76
$GBGSV,3,2,10,13,33,085,32,24,82,260,,25,25,302,,26,43,132,,3*70
$GBGSV,3,3,10,29,02,039,,35,47,062,,3*77
$GNGLL,5025.4462254,N,01411.3821219,E,214529.00,A,D*79
$GNRMC,214530.00,A,5025.4461740,N,01411.3821972,E,0.038,,241021,,,F,V*1A
$GNVTG,,T,,M,0.038,N,0.070,K,D*34
$GNGGA,214530.00,5025.4461740,N,01411.3821972,E,5,12,0.82,218.869,M,44.078,M,1.0,0084*69
$GNGSA,A,3,77,70,79,88,87,81,69,78,,,,,1.61,0.82,1.38,2*0B
$GNGSA,A,3,13,12,24,25,26,35,,,,,,,1.61,0.82,1.38,4*00
$GLGSV,2,1,08,69,14,278,48,70,15,337,27,77,22,115,20,78,76,073,46,1*76
$GLGSV,2,2,08,79,42,311,51,81,26,184,48,87,44,042,43,88,66,122,48,1*70
$GLGSV,2,1,08,69,14,278,43,70,15,337,,77,22,115,20,78,76,073,42,3*7E
$GLGSV,2,2,08,79,42,311,41,81,26,184,43,87,44,042,,88,66,122,44,3*73
$GBGSV,3,1,10,02,04,106,,05,18,128,,10,04,084,23,12,38,191,43,1*7D
$GBGSV,3,2,10,13,33,085,26,24,82,260,42,25,25,302,48,26,43,132,34,1*7A
$GBGSV,3,3,10,29,02,039,22,35,47,062,40,1*71
$GBGSV,3,1,10,02,04,106,,05,18,128,,10,04,084,22,12,38,191,48,3*75
$GBGSV,3,2,10,13,33,085,32,24,82,260,,25,25,302,,26,43,132,,3*70
$GBGSV,3,3,10,29,02,039,,35,47,062,,3*77
$GNGLL,5025.4461740,N,01411.3821972,E,214530.00,A,D*74
$GNRMC,214531.00,A,5025.4461244,N,01411.3822596,E,0.026,,241021,,,F,V*10
$GNVTG,,T,,M,0.026,N,0.048,K,D*30
$GNGGA,214531.00,5025.4461244,N,01411.3822596,E,5,12,0.82,218.666,M,44.078,M,1.0,0084*6D
$GNGSA,A,3,77,70,79,88,87,81,69,78,,,,,1.61,0.82,1.38,2*0B
$GNGSA,A,3,13,12,24,25,26,35,,,,,,,1.61,0.82,1.38,4*00
$GLGSV,2,1,08,69,14,278,48,70,15,337,27,77,22,115,20,78,76,073,46,1*76
$GLGSV,2,2,08,79,42,311,51,81,26,184,48,87,44,042,43,88,66,122,48,1*70
$GLGSV,2,1,08,69,14,278,43,70,15,337,,77,22,115,20,78,76,073,42,3*7E
$GLGSV,2,2,08,79,42,311,42,81,26,184,43,87,44,042,,88,66,122,44,3*70
$GBGSV,3,1,10,02,04,106,,05,18,128,,10,04,084,23,12,38,191,43,1*7D
$GBGSV,3,2,10,13,33,085,26,24,82,260,42,25,25,302,48,26,43,132,34,1*7A
$GBGSV,3,3,10,29,02,039,22,35,47,062,39,1*7F
$GBGSV,3,1,10,02,04,106,,05,18,128,,10,04,084,23,12,38,191,48,3*74
$GBGSV,3,2,10,13,33,085,32,24,82,260,,25,25,302,,26,43,132,,3*70
$GBGSV,3,3,10,29,02,039,,35,47,062,,3*77
$GNGLL,5025.4461244,N,01411.3822596,E,214531.00,A,D*71
$GNRMC,214532.00,A,5025.4460757,N,01411.3822998,E,0.020,,241021,,,F,V*11
$GNVTG,,T,,M,0.020,N,0.037,K,D*3E
$GNGGA,214532.00,5025.4460757,N,01411.3822998,E,5,12,0.82,218.530,M,44.078,M,1.0,0084*6A
$GNGSA,A,3,77,70,79,88,87,81,69,78,,,,,1.61,0.82,1.38,2*0B
$GNGSA,A,3,13,12,24,25,26,35,,,,,,,1.61,0.82,1.38,4*00
$GLGSV,2,1,08,69,14,278,48,70,15,337,27,77,22,115,21,78,76,073,46,1*77
$GLGSV,2,2,08,79,42,311,51,81,26,184,48,87,44,042,43,88,66,122,48,1*70
$GLGSV,2,1,08,69,14,278,43,70,15,337,,77,22,115,19,78,76,073,42,3*74
$GLGSV,2,2,08,79,42,311,42,81,26,184,43,87,44,042,,88,66,122,44,3*70
$GBGSV,3,1,10,02,04,106,,05,18,128,,10,04,084,24,12,38,191,43,1*7A
$GBGSV,3,2,10,13,33,085,26,24,82,260,42,25,25,302,48,26,43,132,34,1*7A
$GBGSV,3,3,10,29,02,039,22,35,47,062,39,1*7F
$GBGSV,3,1,10,02,04,106,,05,18,128,,10,04,084,22,12,38,191,48,3*75
$GBGSV,3,2,10,13,33,085,32,24,82,260,,25,25,302,,26,43,132,,3*70
$GBGSV,3,3,10,29,02,039,,35,47,062,,3*77
$GNGLL,5025.4460757,N,01411.3822998,E,214532.00,A,D*76
$GNRMC,214533.00,A,5025.4460356,N,01411.3823479,E,0.009,,241021,,,F,V*1D
$GNVTG,,T,,M,0.009,N,0.017,K,D*37
$GNGGA,214533.00,5025.4460356,N,01411.3823479,E,5,12,0.82,218.379,M,44.078,M,1.0,0084*66
$GNGSA,A,3,77,70,79,88,87,81,69,78,,,,,1.61,0.82,1.38,2*0B
$GNGSA,A,3,13,12,24,25,26,35,,,,,,,1.61,0.82,1.38,4*00
$GLGSV,2,1,08,69,14,278,48,70,15,337,28,77,22,115,21,78,76,073,46,1*78
$GLGSV,2,2,08,79,42,311,51,81,26,184,48,87,44,042,43,88,66,122,48,1*70
$GLGSV,2,1,08,69,14,278,43,70,15,337,,77,22,115,20,78,76,073,42,3*7E
$GLGSV,2,2,08,79,42,311,42,81,26,184,43,87,44,042,,88,66,122,44,3*70
$GBGSV,3,1,10,02,04,106,,05,18,128,,10,04,084,24,12,38,191,43,1*7A
$GBGSV,3,2,10,13,33,085,27,24,82,260,42,25,25,302,48,26,43,132,35,1*7A
$GBGSV,3,3,10,29,02,039,22,35,47,062,39,1*7F
$GBGSV,3,1,10,02,04,106,,05,18,128,,10,04,084,23,12,38,191,49,3*75
$GBGSV,3,2,10,13,33,085,32,24,82,260,,25,25,302,,26,43,132,,3*70
$GBGSV,3,3,10,29,02,039,,35,47,062,,3*77
$GNGLL,5025.4460356,N,01411.3823479,E,214533.00,A,D*71
$GNRMC,214534.00,A,5025.4459952,N,01411.3824115,E,0.020,,241021,,,F,V*1D
$GNVTG,,T,,M,0.020,N,0.036,K,D*3F
$GNGGA,214534.00,5025.4459952,N,01411.3824115,E,5,12,0.82,218.184,M,44.078,M,1.0,0084*6D
$GNGSA,A,3,77,70,79,88,87,81,69,78,,,,,1.61,0.82,1.38,2*0B
$GNGSA,A,3,13,12,24,25,26,35,,,,,,,1.61,0.82,1.38,4*00
$GLGSV,2,1,08,69,14,278,48,70,15,337,28,77,22,115,21,78,76,073,46,1*78
$GLGSV,2,2,08,79,42,311,51,81,26,184,48,87,44,042,43,88,66,122,48,1*70
$GLGSV,2,1,08,69,14,278,43,70,15,337,,77,22,115,20,78,76,073,42,3*7E
$GLGSV,2,2,08,79,42,311,42,81,26,184,43,87,44,042,,88,66,122,44,3*70
$GBGSV,3,1,10,02,04,106,,05,18,128,,10,04,084,24,12,38,191,43,1*7A
$GBGSV,3,2,10,13,33,085,27,24,82,260,42,25,25,302,48,26,43,132,35,1*7A
$GBGSV,3,3,10,29,02,039,22,35,47,062,39,1*7F
$GBGSV,3,1,10,02,04,106,,05,18,128,,10,04,084,23,12,38,191,49,3*75
$GBGSV,3,2,10,13,33,085,32,24,82,260,,25,25,302,,26,43,132,,3*70
$GBGSV,3,3,10,29,02,039,,35,47,062,,3*77
$GNGLL,5025.4459952,N,01411.3824115,E,214534.00,A,D*7A
$GNRMC,214535.00,A,5025.4459503,N,01411.3824898,E,0.033,,241021,,,F,V*1A
$GNVTG,,T,,M,0.033,N,0.061,K,D*3F
$GNGGA,214535.00,5025.4459503,N,01411.3824898,E,5,12,0.82,217.953,M,44.078,M,1.0,0084*65
$GNGSA,A,3,77,70,79,88,87,81,69,78,,,,,1.61,0.82,1.38,2*0B
$GNGSA,A,3,13,12,24,25,26,35,,,,,,,1.61,0.82,1.38,4*00
$GLGSV,2,1,08,69,14,278,48,70,15,337,28,77,22,115,21,78,76,073,46,1*78
$GLGSV,2,2,08,79,42,311,51,81,26,184,48,87,44,042,44,88,66,121,48,1*74
$GLGSV,2,1,08,69,14,278,43,70,15,337,,77,22,115,20,78,76,073,42,3*7E
$GLGSV,2,2,08,79,42,311,42,81,26,184,43,87,44,042,,88,66,121,44,3*73
$GBGSV,3,1,10,02,04,106,,05,18,128,,10,04,084,24,12,38,191,43,1*7A
$GBGSV,3,2,10,13,33,085,27,24,82,260,42,25,25,302,48,26,43,132,35,1*7A
$GBGSV,3,3,10,29,02,039,22,35,47,062,39,1*7F
$GBGSV,3,1,10,02,04,106,,05,18,128,,10,04,084,24,12,38,191,49,3*72
$GBGSV,3,2,10,13,33,085,32,24,82,260,,25,25,302,,26,43,132,,3*70
$GBGSV,3,3,10,29,02,039,,35,47,062,,3*77
$GNGLL,5025.4459503,N,01411.3824898,E,214535.00,A,D*7F
$GNRMC,214536.00,A,5025.4458944,N,01411.3825486,E,0.035,,241021,,,F,V*13
$GNVTG,,T,,M,0.035,N,0.066,K,D*3E
$GNGGA,214536.00,5025.4458944,N,01411.3825486,E,5,12,0.82,217.797,M,44.078,M,1.0,0084*6C
$GNGSA,A,3,77,70,79,88,87,81,69,78,,,,,1.61,0.82,1.38,2*0B
$GNGSA,A,3,13,12,24,25,26,35,,,,,,,1.61,0.82,1.38,4*00
$GLGSV,2,1,08,69,14,278,48,70,15,337,27,77,22,115,22,78,76,073,46,1*74
$GLGSV,2,2,08,79,42,311,51,81,26,184,48,87,44,042,44,88,66,121,48,1*74
$GLGSV,2,1,08,69,14,278,43,70,15,337,,77,22,115,20,78,76,073,42,3*7E
$GLGSV,2,2,08,79,42,311,42,81,26,184,43,87,44,042,,88,66,121,44,3*73
$GBGSV,3,1,10,02,04,106,,05,18,128,,10,04,084,23,12,38,191,43,1*7D
$GBGSV,3,2,10,13,33,085,27,24,82,260,42,25,25,302,48,26,43,132,36,1*79
$GBGSV,3,3,10,29,02,039,22,35,47,062,39,1*7F
$GBGSV,3,1,10,02,04,106,,05,18,128,,10,04,084,24,12,38,191,49,3*72
$GBGSV,3,2,10,13,33,085,32,24,82,260,,25,25,302,,26,43,132,,3*70
$GBGSV,3,3,10,29,02,039,,35,47,062,,3*77
$GNGLL,5025.4458944,N,01411.3825486,E,214536.00,A,D*70
$GNRMC,214537.00,A,5025.4458403,N,01411.3825743,E,0.018,,241021,,,F,V*19
$GNVTG,,T,,M,0.018,N,0.034,K,D*36
$GNGGA,214537.00,5025.4458403,N,01411.3825743,E,5,12,0.82,217.742,M,44.078,M,1.0,0084*61
$GNGSA,A,3,77,70,79,88,87,81,69,78,,,,,1.61,0.82,1.38,2*0B
$GNGSA,A,3,13,12,24,25,26,35,,,,,,,1.61,0.82,1.38,4*00
$GLGSV,2,1,08,69,14,278,48,70,15,337,27,77,22,115,22,78,76,073,46,1*74
$GLGSV,2,2,08,79,42,311,51,81,26,184,48,87,44,042,44,88,66,121,48,1*74
$GLGSV,2,1,08,69,14,278,44,70,15,337,,77,22,115,19,78,76,073,42,3*73
$GLGSV,2,2,08,79,42,311,42,81,26,184,43,87,44,042,,88,66,121,44,3*73
$GBGSV,3,1,10,02,04,106,,05,18,128,,10,04,084,24,12,38,191,43,1*7A
$GBGSV,3,2,10,13,33,085,27,24,82,260,42,25,25,302,48,26,43,132,36,1*79
$GBGSV,3,3,10,29,02,039,23,35,47,062,39,1*7E
$GBGSV,3,1,10,02,04,106,,05,18,128,,10,04,084,25,12,38,191,49,3*73
$GBGSV,3,2,10,13,33,085,32,24,82,260,,25,25,302,,26,43,132,,3*70
$GBGSV,3,3,10,29,02,039,,35,47,062,,3*77
$GNGLL,5025.4458403,N,01411.3825743,E,214537.00,A,D*75
$GNRMC,214538.00,A,5025.4457996,N,01411.3825881,E,0.021,,241021,,,F,V*13
$GNVTG,,T,,M,0.021,N,0.038,K,D*30
$GNGGA,214538.00,5025.4457996,N,01411.3825881,E,5,12,0.82,217.682,M,44.078,M,1.0,0084*6C
$GNGSA,A,3,77,70,79,88,87,81,69,78,,,,,1.61,0.82,1.38,2*0B
$GNGSA,A,3,13,12,24,25,26,35,,,,,,,1.61,0.82,1.38,4*00
$GLGSV,2,1,08,69,14,278,48,70,15,337,27,77,22,115,22,78,76,073,45,1*77
$GLGSV,2,2,08,79,42,311,51,81,26,184,48,87,44,042,44,88,66,121,48,1*74
