$GNGGA,214348.00,5025.4447518,N,01411.3818009,E,4,12,0.63,217.803,M,44.078,M,1.0,0084*69
$GNGSA,A,3,24,31,32,25,12,29,02,06,,,,,1.26,0.63,1.08,1*06
$GNGSA,A,3,81,87,88,69,79,77,78,70,,,,,1.26,0.63,1.08,2*04
$GNGSA,A,3,12,13,24,25,26,35,,,,,,,1.26,0.63,1.08,4*0F
$GPGSV,3,1,09,02,42,092,35,03,00,346,,06,24,046,29,12,64,077,50,1*69
$GPGSV,3,2,09,24,23,155,46,25,78,303,40,29,44,213,42,31,24,310,48,1*63
$GPGSV,3,3,09,32,28,261,44,1*53
$GPGSV,3,1,09,02,42,092,,03,00,346,,06,24,046,18,12,64,077,43,6*68
$GPGSV,3,2,09,24,23,155,44,25,78,303,46,29,44,213,44,31,24,310,38,6*61
$GPGSV,3,3,09,32,28,261,43,6*53
$GLGSV,2,1,08,69,15,279,48,70,15,339,19,77,23,115,20,78,76,068,49,1*71
$GLGSV,2,2,08,79,40,311,50,81,25,184,49,87,45,043,44,88,66,124,48,1*70
$GLGSV,2,1,08,69,15,279,43,70,15,339,,77,23,115,21,78,76,068,42,3*7A
$GLGSV,2,2,08,79,40,311,44,81,25,184,44,87,45,043,,88,66,124,43,3*71
$GBGSV,3,1,10,02,04,106,,05,18,128,,10,04,083,25,12,37,191,45,1*75
$GBGSV,3,2,10,13,32,085,30,24,82,265,40,25,24,302,49,26,44,131,30,1*7B
$GBGSV,3,3,10,29,03,039,19,35,47,062,38,1*77
$GBGSV,3,1,10,02,04,106,,05,18,128,,10,04,083,22,12,37,191,48,3*7D
$GBGSV,3,2,10,13,32,085,29,24,82,265,,25,24,302,,26,44,131,,3*7B
$GBGSV,3,3,10,29,03,039,,35,47,062,,3*76
$GNGLL,5025.4447518,N,01411.3818009,E,214348.00,A,D*79
$GNTXT,01,01,02,Starting GNSS*5A
$GNRMC,214348.24,V,,,,,,,241021,,,N,V*13
$GNVTG,,,,,,,,,N*2E
$GNGGA,214348.24,,,,,0,00,99.99,,,,,,*76
$GNGSA,A,1,,,,,,,,,,,,,99.99,99.99,99.99,1*33
$GNGSA,A,1,,,,,,,,,,,,,99.99,99.99,99.99,3*31
$GNGSA,A,1,,,,,,,,,,,,,99.99,99.99,99.99,4*36
$GPGSV,1,1,00,1*64
$GPGSV,1,1,00,6*63
$GAGSV,1,1,00,7*73
$GAGSV,1,1,00,2*76
$GBGSV,1,1,00,1*76
$GBGSV,1,1,00,3*74
$GNGLL,,,,,214348.24,V,N*5A
$GNRMC,214349.00,A,5025.4464405,N,01411.3794801,E,0.069,,241021,,,A,V*12
$GNVTG,,T,,M,0.069,N,0.127,K,A*36
$GNGGA,214349.00,5025.4464405,N,01411.3794801,E,1,12,0.70,228.487,M,44.078,M,,*47
$GNGSA,A,3,24,29,31,32,25,12,02,,,,,,1.39,0.70,1.20,1*06
$GNGSA,A,3,33,31,26,01,24,09,05,,,,,,1.39,0.70,1.20,3*01
$GNGSA,A,3,13,12,25,24,35,,,,,,,,1.39,0.70,1.20,4*0D
$GPGSV,3,1,09,02,42,091,35,03,00,345,,06,24,046,28,12,63,078,49,1*68
$GPGSV,3,2,09,24,23,155,45,25,78,304,38,29,44,213,41,31,24,310,47,1*64
$GPGSV,3,3,09,32,28,261,43,1*54
$GPGSV,3,1,09,02,42,091,,03,00,345,,06,24,046,,12,63,078,44,5*6D
$GPGSV,3,2,09,24,23,155,45,25,78,304,47,29,44,213,45,31,24,310,39,5*65
$GPGSV,3,3,09,32,28,261,44,5*57
$GAGSV,3,1,12,01,46,096,39,03,00,350,,04,00,206,,05,21,305,48,7*7D
$GAGSV,3,2,12,09,21,252,46,12,02,183,,13,11,029,27,21,00,102,,7*7B
$GAGSV,3,3,12,24,24,286,47,26,45,077,34,31,74,302,43,33,38,146,43,7*75
$GAGSV,3,1,12,01,46,096,39,03,00,350,,04,00,206,,05,21,305,47,2*77
$GAGSV,3,2,12,09,21,252,49,12,02,183,,13,11,029,,21,00,102,,2*74
$GAGSV,3,3,12,24,24,286,51,26,45,077,37,31,74,302,49,33,38,146,40,2*7D
$GBGSV,3,1,10,02,04,106,,05,18,128,,10,04,083,25,12,37,191,45,1*75
$GBGSV,3,2,10,13,32,085,30,24,82,263,40,25,25,302,48,26,44,131,28,1*74
$GBGSV,3,3,10,29,03,039,18,35,47,062,38,1*76
$GBGSV,3,1,10,02,04,106,,05,18,128,,10,04,083,21,12,37,191,49,3*7F
$GBGSV,3,2,10,13,32,085,28,24,82,263,,25,25,302,,26,44,131,,3*7D
$GBGSV,3,3,10,29,03,039,,35,47,062,,3*76
$GNGLL,5025.4464405,N,01411.3794801,E,214349.00,A,A*7A
$GNRMC,214350.00,A,5025.4467499,N,01411.3807089,E,0.089,,241021,,,A,V*1F
$GNVTG,,T,,M,0.089,N,0.166,K,A*3D
$GNGGA,214350.00,5025.4467499,N,01411.3807089,E,1,12,0.64,226.970,M,44.078,M,,*4A
$GNGSA,A,3,24,29,31,32,25,12,06,02,,,,,1.29,0.64,1.12,1*05
$GNGSA,A,3,33,31,26,01,24,09,05,,,,,,1.29,0.64,1.12,3*04
$GNGSA,A,3,13,12,25,26,24,35,,,,,,,1.29,0.64,1.12,4*0C
$GPGSV,3,1,09,02,42,091,34,03,00,345,,06,24,046,29,12,63,078,49,1*68
$GPGSV,3,2,09,24,23,155,45,25,78,304,39,29,44,213,42,31,24,310,47,1*66
$GPGSV,3,3,09,32,28,261,43,1*54
$GPGSV,3,1,09,02,42,091,,03,00,345,,06,24,046,,12,63,078,44,6*6E
$GPGSV,3,2,09,24,23,155,45,25,78,304,47,29,44,213,45,31,24,310,38,6*67
$GPGSV,3,3,09,32,28,261,44,6*54
$GAGSV,3,1,12,01,46,096,39,03,00,350,,04,00,206,,05,21,305,47,7*72
$GAGSV,3,2,12,09,21,252,46,12,02,183,,13,11,029,26,21,00,102,,7*7A
$GAGSV,3,3,12,24,24,286,47,26,45,077,33,31,74,302,43,33,38,146,43,7*72
$GAGSV,3,1,12,01,46,096,39,03,00,350,,04,00,206,,05,21,305,47,2*77
$GAGSV,3,2,12,09,21,252,50,12,02,183,,13,11,029,26,21,00,102,,2*78
$GAGSV,3,3,12,24,24,286,51,26,45,077,36,31,74,302,50,33,38,146,40,2*74
$GBGSV,3,1,10,02,04,106,,05,18,128,,10,04,083,25,12,37,191,45,1*75
$GBGSV,3,2,10,13,32,085,30,24,82,263,40,25,25,302,49,26,44,131,29,1*74
$GBGSV,3,3,10,29,03,039,19,35,47,062,39,1*76
$GBGSV,3,1,10,02,04,106,,05,18,128,,10,04,083,22,12,37,191,50,3*74
$GBGSV,3,2,10,13,32,085,29,24,82,263,,25,25,302,,26,44,131,,3*7C
$GBGSV,3,3,10,29,03,039,,35,47,062,,3*76
$GNGLL,5025.4467499,N,01411.3807089,E,214350.00,A,A*79
$GNRMC,214351.00,A,5025.4461352,N,01411.3802887,E,0.010,,241021,,,A,V*1B
$GNVTG,,T,,M,0.010,N,0.019,K,A*34
$GNGGA,214351.00,5025.4461352,N,01411.3802887,E,1,12,0.60,228.251,M,44.078,M,,*4C
$GNGSA,A,3,24,29,31,32,25,12,06,02,,,,,1.18,0.60,1.02,1*02
$GNGSA,A,3,33,31,26,01,24,09,05,13,,,,,1.18,0.60,1.02,3*01
$GNGSA,A,3,13,12,25,26,24,35,,,,,,,1.18,0.60,1.02,4*0B
$GPGSV,3,1,09,02,42,091,35,03,00,345,,06,24,046,29,12,63,078,50,1*61
$GPGSV,3,2,09,24,23,155,46,25,78,304,40,29,44,213,42,31,24,310,47,1*6B
$GPGSV,3,3,09,32,28,261,43,1*54
$GPGSV,3,1,09,02,42,091,,03,00,345,,06,24,046,20,12,63,078,44,6*6C
$GPGSV,3,2,09,24,23,155,44,25,78,304,46,29,44,213,45,31,24,310,38,6*67
$GPGSV,3,3,09,32,28,261,43,6*53
$GAGSV,3,1,12,01,46,096,39,03,00,350,,04,00,206,,05,21,305,47,7*72
$GAGSV,3,2,12,09,21,252,45,12,02,183,,13,11,029,23,21,00,102,,7*7C
$GAGSV,3,3,12,24,24,286,46,26,45,077,32,31,74,302,42,33,38,146,43,7*73
$GAGSV,3,1,12,01,46,096,38,03,00,350,,04,00,206,,05,21,305,46,2*77
$GAGSV,3,2,12,09,21,252,48,12,02,183,,13,11,029,24,21,00,102,,2*73
$GAGSV,3,3,12,24,24,286,49,26,45,077,35,31,74,302,48,33,38,146,38,2*78
$GBGSV,3,1,10,02,04,106,,05,18,128,,10,04,083,24,12,37,191,45,1*74
$GBGSV,3,2,10,13,32,085,30,24,82,263,40,25,25,302,48,26,44,131,29,1*75
$GBGSV,3,3,10,29,03,039,19,35,47,062,38,1*77
$GBGSV,3,1,10,02,04,106,,05,18,128,,10,04,083,22,12,37,191,50,3*74
$GBGSV,3,2,10,13,32,085,29,24,82,263,,25,25,302,,26,44,131,,3*7C
$GBGSV,3,3,10,29,03,039,,35,47,062,,3*76
$GNGLL,5025.4461352,N,01411.3802887,E,214351.00,A,A*7D
$GNRMC,214352.00,A,5025.4461458,N,01411.3803321,E,0.009,,241021,,,A,V*1B
$GNVTG,,T,,M,0.009,N,0.017,K,A*32
$GNGGA,214352.00,5025.4461458,N,01411.3803321,E,1,12,0.60,227.845,M,44.078,M,,*44
$GNGSA,A,3,24,29,31,32,25,12,06,02,,,,,1.18,0.60,1.02,1*02
$GNGSA,A,3,33,31,26,01,24,09,05,13,,,,,1.18,0.60,1.02,3*01
$GNGSA,A,3,13,12,25,26,24,35,,,,,,,1.18,0.60,1.02,4*0B
$GPGSV,3,1,09,02,42,091,36,03,00,345,,06,24,046,29,12,63,078,50,1*62
$GPGSV,3,2,09,24,23,155,46,25,78,304,40,29,44,213,42,31,24,310,47,1*6B
$GPGSV,3,3,09,32,28,261,43,1*54
$GPGSV,3,1,09,02,42,091,,03,00,345,,06,24,046,18,12,63,078,44,6*67
$GPGSV,3,2,09,24,23,155,44,25,78,304,46,29,44,213,45,31,24,310,38,6*67
$GPGSV,3,3,09,32,28,261,44,6*54
$GAGSV,3,1,12,01,46,096,39,03,00,350,,04,00,206,,05,21,305,47,7*72
$GAGSV,3,2,12,09,21,252,45,12,02,183,,13,11,029,23,21,00,102,,7*7C
$GAGSV,3,3,12,24,24,286,46,26,45,077,32,31,74,302,42,33,38,146,43,7*73
$GAGSV,3,1,12,01,46,096,38,03,00,350,,04,00,206,,05,21,305,46,2*77
$GAGSV,3,2,12,09,21,252,48,12,02,183,,13,11,029,23,21,00,102,,2*74
$GAGSV,3,3,12,24,24,286,49,26,45,077,35,31,74,302,48,33,38,146,37,2*77
$GBGSV,3,1,10,02,04,106,,05,18,128,,10,04,083,22,12,37,191,45,1*72
$GBGSV,3,2,10,13,32,085,30,24,82,263,40,25,25,302,48,26,44,131,29,1*75
$GBGSV,3,3,10,29,03,039,18,35,47,062,38,1*76
$GBGSV,3,1,10,02,04,106,,05,18,128,,10,04,083,22,12,37,191,49,3*7C
$GBGSV,3,2,10,13,32,085,29,24,82,263,,25,25,302,,26,44,131,,3*7C
$GBGSV,3,3,10,29,03,039,,35,47,062,,3*76
$GNGLL,5025.4461458,N,01411.3803321,E,214352.00,A,A*75
$GNRMC,214353.00,A,5025.4461084,N,01411.3803859,E,0.004,,241021,,,A,V*16
$GNVTG,,T,,M,0.004,N,0.007,K,A*3E
$GNGGA,214353.00,5025.4461084,N,01411.3803859,E,1,12,0.60,227.352,M,44.078,M,,*49
$GNGSA,A,3,24,29,31,32,25,12,06,02,,,,,1.18,0.60,1.02,1*02
$GNGSA,A,3,33,31,26,01,24,09,05,13,,,,,1.18,0.60,1.02,3*01
$GNGSA,A,3,13,12,25,26,24,35,,,,,,,1.18,0.60,1.02,4*0B
$GPGSV,3,1,09,02,42,091,36,03,00,345,,06,24,046,29,12,63,078,50,1*62
$GPGSV,3,2,09,24,23,155,46,25,78,304,40,29,44,213,42,31,24,310,47,1*6B
$GPGSV,3,3,09,32,28,261,43,1*54
$GPGSV,3,1,09,02,42,091,,03,00,345,,06,24,046,13,12,63,078,44,6*6C
$GPGSV,3,2,09,24,23,155,44,25,78,304,46,29,44,213,45,31,24,310,38,6*67
$GPGSV,3,3,09,32,28,261,44,6*54
$GAGSV,3,1,12,01,46,096,39,03,00,350,,04,00,206,,05,21,305,47,7*72
$GAGSV,3,2,12,09,21,252,45,12,02,183,,13,11,029,22,21,00,102,,7*7D
$GAGSV,3,3,12,24,24,286,47,26,45,077,33,31,74,302,42,33,38,146,44,7*74
$GAGSV,3,1,12,01,46,096,38,03,00,350,,04,00,206,,05,21,305,46,2*77
$GAGSV,3,2,12,09,21,252,48,12,02,183,,13,11,029,23,21,00,102,,2*74
$GAGSV,3,3,12,24,24,286,49,26,45,077,35,31,74,302,48,33,38,146,37,2*77
$GBGSV,3,1,10,02,04,106,,05,18,128,,10,04,083,22,12,37,191,45,1*72
$GBGSV,3,2,10,13,32,085,30,24,82,263,40,25,25,302,48,26,44,131,29,1*75
$GBGSV,3,3,10,29,03,039,17,35,47,062,38,1*79
$GBGSV,3,1,10,02,04,106,,05,18,128,,10,04,083,22,12,37,191,49,3*7C
$GBGSV,3,2,10,13,32,085,29,24,82,263,,25,25,302,,26,44,131,,3*7C
$GBGSV,3,3,10,29,03,039,,35,47,062,,3*76
$GNGLL,5025.4461084,N,01411.3803859,E,214353.00,A,A*75
$GNRMC,214354.00,A,5025.4460021,N,01411.3804618,E,0.004,,241021,,,A,V*13
$GNVTG,,T,,M,0.004,N,0.008,K,A*31
$GNGGA,214354.00,5025.4460021,N,01411.3804618,E,1,12,0.60,226.650,M,44.078,M,,*4A
$GNGSA,A,3,24,29,31,32,25,12,06,02,,,,,1.18,0.60,1.02,1*02
$GNGSA,A,3,33,31,26,01,24,09,05,13,,,,,1.18,0.60,1.02,3*01
$GNGSA,A,3,13,12,25,26,24,35,,,,,,,1.18,0.60,1.02,4*0B
$GPGSV,3,1,09,02,42,091,36,03,00,345,,06,24,046,29,12,63,078,50,1*62
$GPGSV,3,2,09,24,23,155,46,25,78,304,40,29,44,213,42,31,24,310,47,1*6B
$GPGSV,3,3,09,32,28,261,43,1*54
$GPGSV,3,1,09,02,42,091,,03,00,345,,06,24,046,12,12,63,078,44,6*6D
$GPGSV,3,2,09,24,23,155,44,25,78,304,46,29,44,213,45,31,24,310,38,6*67
$GPGSV,3,3,09,32,28,261,44,6*54
$GAGSV,3,1,12,01,46,096,39,03,00,350,,04,00,206,,05,21,305,47,7*72
$GAGSV,3,2,12,09,21,252,45,12,02,183,,13,11,029,22,21,00,102,,7*7D
$GAGSV,3,3,12,24,24,286,46,26,45,077,33,31,74,302,42,33,38,146,44,7*75
$GAGSV,3,1,12,01,46,096,38,03,00,350,,04,00,206,,05,21,305,46,2*77
$GAGSV,3,2,12,09,21,252,48,12,02,183,,13,11,029,23,21,00,102,,2*74
$GAGSV,3,3,12,24,24,286,49,26,45,077,35,31,74,302,48,33,38,146,37,2*77
$GBGSV,3,1,10,02,04,106,,05,18,128,,10,04,083,22,12,37,191,45,1*72
$GBGSV,3,2,10,13,32,085,30,24,82,263,40,25,25,302,48,26,44,131,29,1*75
$GBGSV,3,3,10,29,03,039,18,35,47,062,38,1*76
$GBGSV,3,1,10,02,04,106,,05,18,128,,10,04,083,23,12,37,191,49,3*7D
$GBGSV,3,2,10,13,32,085,28,24,82,263,,25,25,302,,26,44,131,,3*7D
$GBGSV,3,3,10,29,03,039,,35,47,062,,3*76
$GNGLL,5025.4460021,N,01411.3804618,E,214354.00,A,A*70
$GNRMC,214355.00,A,5025.4459216,N,01411.3804670,E,0.006,,241021,,,A,V*12
$GNVTG,,T,,M,0.006,N,0.012,K,A*38
$GNGGA,214355.00,5025.4459216,N,01411.3804670,E,1,12,0.60,226.088,M,44.078,M,,*4A
$GNGSA,A,3,24,29,31,32,25,12,06,02,,,,,1.18,0.60,1.02,1*02
$GNGSA,A,3,33,31,26,01,24,09,05,13,,,,,1.18,0.60,1.02,3*01
$GNGSA,A,3,13,12,25,26,24,35,,,,,,,1.18,0.60,1.02,4*0B
$GPGSV,3,1,09,02,42,091,37,03,00,345,,06,24,045,29,12,63,078,50,1*60
$GPGSV,3,2,09,24,23,155,46,25,78,304,40,29,44,213,43,31,24,310,47,1*6A
$GPGSV,3,3,09,32,28,261,43,1*54
$GPGSV,3,1,09,02,42,091,,03,00,345,,06,24,045,10,12,63,078,43,6*6B
$GPGSV,3,2,09,24,23,155,43,25,78,304,46,29,44,213,44,31,24,310,37,6*6E
$GPGSV,3,3,09,32,28,261,43,6*53
$GAGSV,3,1,12,01,46,096,39,03,00,350,,04,00,206,,05,21,305,47,7*72
$GAGSV,3,2,12,09,21,252,46,12,02,183,,13,11,029,22,21,00,102,,7*7E
$GAGSV,3,3,12,24,24,286,46,26,45,077,33,31,74,302,42,33,38,146,44,7*75
$GAGSV,3,1,12,01,46,096,38,03,00,350,,04,00,206,,05,21,305,46,2*77
$GAGSV,3,2,12,09,21,252,48,12,02,183,,13,11,029,23,21,00,102,,2*74
$GAGSV,3,3,12,24,24,286,49,26,45,077,35,31,74,302,48,33,38,146,36,2*76
$GBGSV,3,1,10,02,04,106,,05,18,128,,10,04,083,22,12,37,191,45,1*72
$GBGSV,3,2,10,13,32,085,30,24,82,263,40,25,25,302,48,26,44,131,30,1*7D
$GBGSV,3,3,10,29,03,039,18,35,47,062,38,1*76
$GBGSV,3,1,10,02,04,106,,05,18,128,,10,04,083,23,12,37,191,49,3*7D
$GBGSV,3,2,10,13,32,085,29,24,82,263,,25,25,302,,26,44,131,,3*7C
$GBGSV,3,3,10,29,03,039,,35,47,062,,3*76
$GNGLL,5025.4459216,N,01411.3804670,E,214355.00,A,A*73
$GNRMC,214356.00,A,5025.4458551,N,01411.3804721,E,0.014,,241021,,,A,V*12
$GNVTG,,T,,M,0.014,N,0.025,K,A*3F
$GNGGA,214356.00,5025.4458551,N,01411.3804721,E,1,12,0.60,225.673,M,44.078,M,,*48
$GNGSA,A,3,24,29,31,32,25,12,06,02,,,,,1.18,0.60,1.02,1*02
$GNGSA,A,3,33,31,26,01,24,09,05,13,,,,,1.18,0.60,1.02,3*01
$GNGSA,A,3,13,12,25,26,24,35,,,,,,,1.18,0.60,1.02,4*0B
$GPGSV,3,1,09,02,42,091,37,03,00,345,,06,24,045,29,12,63,078,50,1*60
$GPGSV,3,2,09,24,23,155,46,25,78,304,41,29,44,213,43,31,24,310,47,1*6B
$GPGSV,3,3,09,32,28,261,43,1*54
$GPGSV,3,1,09,02,42,091,,03,00,345,,06,24,045,09,12,63,078,43,6*63
$GPGSV,3,2,09,24,23,155,43,25,78,304,46,29,44,213,44,31,24,310,37,6*6E
$GPGSV,3,3,09,32,28,261,43,6*53
$GAGSV,3,1,12,01,46,096,39,03,00,350,,04,00,206,,05,21,305,47,7*72
$GAGSV,3,2,12,09,21,252,46,12,02,183,,13,11,029,22,21,00,102,,7*7E
$GAGSV,3,3,12,24,24,286,47,26,45,077,33,31,74,302,42,33,38,146,44,7*74
$GAGSV,3,1,12,01,46,096,38,03,00,350,,04,00,206,,05,21,305,46,2*77
$GAGSV,3,2,12,09,21,252,48,12,02,183,,13,11,029,23,21,00,102,,2*74
$GAGSV,3,3,12,24,24,286,49,26,45,077,35,31,74,302,48,33,38,146,36,2*76
$GBGSV,3,1,10,02,04,106,,05,18,128,,10,04,083,21,12,37,191,45,1*71
$GBGSV,3,2,10,13,32,085,31,24,82,263,40,25,25,302,48,26,44,131,30,1*7C
$GBGSV,3,3,10,29,03,039,19,35,47,062,38,1*77
$GBGSV,3,1,10,02,04,106,,05,18,128,,10,04,083,23,12,37,191,49,3*7D
$GBGSV,3,2,10,13,32,085,28,24,82,263,,25,25,302,,26,44,131,,3*7D
$GBGSV,3,3,10,29,03,039,,35,47,062,,3*76
$GNGLL,5025.4458551,N,01411.3804721,E,214356.00,A,A*70
$GNRMC,214357.00,A,5025.4457977,N,01411.3804750,E,0.011,,241021,,,A,V*17
$GNVTG,,T,,M,0.011,N,0.020,K,A*3F
$GNGGA,214357.00,5025.4457977,N,01411.3804750,E,1,12,0.60,225.255,M,44.078,M,,*48
$GNGSA,A,3,24,29,31,32,25,12,06,02,,,,,1.18,0.60,1.02,1*02
$GNGSA,A,3,33,31,26,01,24,09,05,13,,,,,1.18,0.60,1.02,3*01
$GNGSA,A,3,13,12,25,26,24,35,,,,,,,1.18,0.60,1.02,4*0B
$GPGSV,3,1,09,02,42,091,37,03,00,345,,06,24,045,30,12,63,078,50,1*68
$GPGSV,3,2,09,24,23,155,46,25,78,304,41,29,44,213,43,31,24,310,47,1*6B
$GPGSV,3,3,09,32,28,261,43,1*54
$GPGSV,3,1,09,02,42,091,,03,00,345,,06,24,045,09,12,63,078,43,6*63
$GPGSV,3,2,09,24,23,155,43,25,78,304,46,29,44,213,44,31,24,310,37,6*6E
$GPGSV,3,3,09,32,28,261,43,6*53
$GAGSV,3,1,12,01,46,096,39,03,00,350,,04,00,206,,05,21,305,47,7*72
$GAGSV,3,2,12,09,21,252,46,12,02,183,,13,11,029,22,21,00,102,,7*7E
$GAGSV,3,3,12,24,24,286,47,26,45,077,33,31,74,302,42,33,38,146,45,7*75
$GAGSV,3,1,12,01,46,096,38,03,00,350,,04,00,206,,05,21,305,46,2*77
$GAGSV,3,2,12,09,21,252,48,12,02,183,,13,11,029,23,21,00,102,,2*74
$GAGSV,3,3,12,24,24,286,49,26,45,077,35,31,74,302,48,33,38,146,35,2*75
$GBGSV,3,1,10,02,04,106,,05,18,128,,10,04,083,20,12,37,191,45,1*70
$GBGSV,3,2,10,13,32,085,30,24,82,263,40,25,25,302,48,26,44,131,30,1*7D
$GBGSV,3,3,10,29,03,039,19,35,47,062,39,1*76
$GBGSV,3,1,10,02,04,106,,05,18,128,,10,04,083,24,12,37,191,49,3*7A
$GBGSV,3,2,10,13,32,085,28,24,82,263,,25,25,302,,26,44,131,,3*7D
$GBGSV,3,3,10,29,03,039,,35,47,062,,3*76
$GNGLL,5025.4457977,N,01411.3804750,E,214357.00,A,A*70
$GNRMC,214358.00,A,5025.4457489,N,01411.3804952,E,0.008,,241021,,,A,V*10
$GNVTG,,T,,M,0.008,N,0.015,K,A*31
$GNGGA,214358.00,5025.4457489,N,01411.3804952,E,1,12,0.60,224.937,M,44.078,M,,*49
$GNGSA,A,3,24,29,31,32,25,12,06,02,,,,,1.18,0.60,1.02,1*02
$GNGSA,A,3,33,31,26,01,24,09,05,13,,,,,1.18,0.60,1.02,3*01
$GNGSA,A,3,13,12,25,26,24,35,,,,,,,1.18,0.60,1.02,4*0B
$GPGSV,3,1,09,02,42,091,37,03,00,345,,06,24,045,30,12,63,078,50,1*68
$GPGSV,3,2,09,24,23,155,46,25,78,304,41,29,44,213,43,31,24,310,47,1*6B
$GPGSV,3,3,09,32,28,261,42,1*55
$GPGSV,3,1,09,02,42,091,,03,00,345,,06,24,045,10,12,63,078,43,6*6B
$GPGSV,3,2,09,24,23,155,43,25,78,304,46,29,44,213,45,31,24,310,37,6*6F
$GPGSV,3,3,09,32,28,261,43,6*53
$GAGSV,3,1,12,01,46,096,39,03,00,350,,04,00,206,,05,21,305,47,7*72
$GAGSV,3,2,12,09,21,252,46,12,02,183,,13,11,029,23,21,00,102,,7*7F
$GAGSV,3,3,12,24,24,286,47,26,45,077,33,31,74,302,42,33,38,146,45,7*75
$GAGSV,3,1,12,01,46,096,38,03,00,350,,04,00,206,,05,21,305,46,2*77
$GAGSV,3,2,12,09,21,252,48,12,02,183,,13,11,029,23,21,00,102,,2*74
$GAGSV,3,3,12,24,24,286,49,26,45,077,35,31,74,302,48,33,38,146,35,2*75
$GBGSV,3,1,10,02,04,106,,05,18,128,,10,04,083,19,12,37,191,45,1*7A
$GBGSV,3,2,10,13,32,085,31,24,82,263,40,25,25,302,48,26,44,131,30,1*7C
$GBGSV,3,3,10,29,03,039,20,35,47,062,38,1*7D
$GBGSV,3,1,10,02,04,106,,05,18,128,,10,04,083,25,12,37,191,49,3*7B
$GBGSV,3,2,10,13,32,085,29,24,82,263,,25,25,302,,26,44,131,,3*7C
$GBGSV,3,3,10,29,03,039,,35,47,062,,3*76
$GNGLL,5025.4457489,N,01411.3804952,E,214358.00,A,A*7F
$GNRMC,214359.00,A,5025.4457019,N,01411.3805255,E,0.015,,241021,,,A,V*1D
$GNVTG,,T,,M,0.015,N,0.029,K,A*32
$GNGGA,214359.00,5025.4457019,N,01411.3805255,E,1,12,0.60,224.528,M,44.078,M,,*4A
$GNGSA,A,3,24,29,31,32,25,12,06,02,,,,,1.18,0.60,1.02,1*02
$GNGSA,A,3,33,31,26,01,24,09,05,13,,,,,1.18,0.60,1.02,3*01
$GNGSA,A,3,13,12,25,26,24,35,,,,,,,1.18,0.60,1.02,4*0B
$GPGSV,3,1,09,02,42,091,37,03,00,345,,06,24,045,30,12,63,078,50,1*68
$GPGSV,3,2,09,24,23,155,46,25,78,304,42,29,44,213,43,31,24,310,47,1*68
$GPGSV,3,3,09,32,28,261,42,1*55
$GPGSV,3,1,09,02,42,091,,03,00,345,,06,24,045,11,12,63,078,43,6*6A
$GPGSV,3,2,09,24,23,155,43,25,78,304,46,29,44,213,45,31,24,310,37,6*6F
$GPGSV,3,3,09,32,28,261,43,6*53
$GAGSV,3,1,12,01,46,096,39,03,00,350,,04,00,206,,05,21,305,46,7*73
$GAGSV,3,2,12,09,21,252,46,12,02,183,,13,11,029,24,21,00,102,,7*78
$GAGSV,3,3,12,24,24,286,47,26,45,077,33,31,74,302,42,33,38,146,45,7*75
$GAGSV,3,1,12,01,46,096,38,03,00,350,,04,00,206,,05,21,305,46,2*77
$GAGSV,3,2,12,09,21,252,48,12,02,183,,13,11,029,24,21,00,102,,2*73
$GAGSV,3,3,12,24,24,286,49,26,45,077,35,31,74,302,48,33,38,146,34,2*74
$GBGSV,3,1,10,02,04,106,,05,18,128,,10,04,083,18,12,37,191,45,1*7B
$GBGSV,3,2,10,13,32,085,31,24,82,263,39,25,25,302,48,26,44,131,30,1*72
$GBGSV,3,3,10,29,03,039,19,35,47,062,39,1*76
$GBGSV,3,1,10,02,04,106,,05,18,128,,10,04,083,25,12,37,191,49,3*7B
$GBGSV,3,2,10,13,32,085,29,24,82,263,,25,25,302,,26,44,131,,3*7C
$GBGSV,3,3,10,29,03,039,,35,47,062,,3*76
$GNGLL,5025.4457019,N,01411.3805255,E,214359.00,A,A*7E
$GNRMC,214400.00,A,5025.4456703,N,01411.3805730,E,0.013,,241021,,,A,V*1B
$GNVTG,,T,,M,0.013,N,0.025,K,A*38
$GNGGA,214400.00,5025.4456703,N,01411.3805730,E,1,12,0.60,224.084,M,44.078,M,,*49
$GNGSA,A,3,24,29,31,32,25,12,06,02,,,,,1.18,0.60,1.02,1*02
$GNGSA,A,3,33,31,26,01,24,09,05,13,,,,,1.18,0.60,1.02,3*01
$GNGSA,A,3,13,12,25,26,24,35,,,,,,,1.18,0.60,1.02,4*0B
$GPGSV,3,1,09,02,42,091,37,03,00,345,,06,24,045,30,12,63,078,50,1*68
$GPGSV,3,2,09,24,23,155,46,25,78,304,41,29,44,213,43,31,24,310,47,1*6B
$GPGSV,3,3,09,32,28,261,42,1*55
$GPGSV,3,1,09,02,42,091,,03,00,345,,06,24,045,13,12,63,078,43,6*68
$GPGSV,3,2,09,24,23,155,43,25,78,304,46,29,44,213,45,31,24,310,37,6*6F
$GPGSV,3,3,09,32,28,261,43,6*53
$GAGSV,3,1,12,01,46,096,40,03,00,350,,04,00,206,,05,21,305,46,7*7D
$GAGSV,3,2,12,09,21,252,46,12,02,183,,13,11,029,23,21,00,102,,7*7F
$GAGSV,3,3,12,24,24,286,47,26,45,077,33,31,74,302,42,33,38,146,45,7*75
$GAGSV,3,1,12,01,46,096,38,03,00,350,,04,00,206,,05,21,305,46,2*77
$GAGSV,3,2,12,09,21,252,48,12,02,183,,13,11,029,24,21,00,102,,2*73
$GAGSV,3,3,12,24,24,286,49,26,45,077,35,31,74,302,48,33,38,146,34,2*74
$GBGSV,3,1,10,02,04,106,,05,18,128,,10,04,083,17,12,37,191,45,1*74
$GBGSV,3,2,10,13,32,085,31,24,82,263,39,25,25,302,48,26,44,131,30,1*72
$GBGSV,3,3,10,29,03,039,19,35,47,062,39,1*76
$GBGSV,3,1,10,02,04,106,,05,18,128,,10,04,083,26,12,37,191,49,3*78
$GBGSV,3,2,10,13,32,085,29,24,82,263,,25,25,302,,26,44,131,,3*7C
$GBGSV,3,3,10,29,03,039,,35,47,062,,3*76
$GNGLL,5025.4456703,N,01411.3805730,E,214400.00,A,A*7E
$GNRMC,214401.00,A,5025.4456383,N,01411.3806413,E,0.007,,241021,,,A,V*12
$GNVTG,,T,,M,0.007,N,0.014,K,A*3F
$GNGGA,214401.00,5025.4456383,N,01411.3806413,E,1,12,0.60,223.607,M,44.078,M,,*4F
$GNGSA,A,3,24,29,31,32,25,12,06,02,,,,,1.18,0.60,1.02,1*02
$GNGSA,A,3,33,31,26,01,24,09,05,13,,,,,1.18,0.60,1.02,3*01
$GNGSA,A,3,13,12,25,26,24,35,,,,,,,1.18,0.60,1.02,4*0B
$GPGSV,3,1,09,02,42,091,37,03,00,345,,06,24,045,30,12,63,078,50,1*68
$GPGSV,3,2,09,24,23,155,46,25,78,304,41,29,44,213,43,31,24,310,47,1*6B
$GPGSV,3,3,09,32,28,261,42,1*55
$GPGSV,3,1,09,02,42,091,,03,00,345,,06,24,045,14,12,63,078,43,6*6F
$GPGSV,3,2,09,24,23,155,43,25,78,304,46,29,44,213,45,31,24,310,37,6*6F
$GPGSV,3,3,09,32,28,261,43,6*53
$GAGSV,3,1,12,01,46,096,40,03,00,350,,04,00,206,,05,21,305,46,7*7D
$GAGSV,3,2,12,09,21,252,46,12,02,183,,13,11,029,24,21,00,102,,7*78
$GAGSV,3,3,12,24,24,286,47,26,45,077,33,31,74,302,42,33,38,146,45,7*75
$GAGSV,3,1,12,01,46,096,38,03,00,350,,04,00,206,,05,21,305,46,2*77
$GAGSV,3,2,12,09,21,252,48,12,02,183,,13,11,029,24,21,00,102,,2*73
$GAGSV,3,3,12,24,24,286,49,26,45,077,35,31,74,302,48,33,38,146,34,2*74
$GBGSV,3,1,10,02,04,106,,05,18,128,,10,04,083,16,12,37,191,45,1*75
$GBGSV,3,2,10,13,32,085,31,24,82,263,39,25,25,302,48,26,44,131,30,1*72
$GBGSV,3,3,10,29,03,039,19,35,47,062,38,1*77
$GBGSV,3,1,10,02,04,106,,05,18,128,,10,04,083,25,12,37,191,49,3*7B
$GBGSV,3,2,10,13,32,085,29,24,82,263,,25,25,302,,26,44,131,,3*7C
$GBGSV,3,3,10,29,03,039,,35,47,062,,3*76
$GNGLL,5025.4456383,N,01411.3806413,E,214401.00,A,A*72
$GNRMC,214402.00,A,5025.4456082,N,01411.3806874,E,0.008,,241021,,,A,V*11
$GNVTG,,T,,M,0.008,N,0.014,K,A*30
$GNGGA,214402.00,5025.4456082,N,01411.3806874,E,1,12,0.60,223.218,M,44.078,M,,*49
$GNGSA,A,3,24,29,31,32,25,12,06,02,,,,,1.18,0.60,1.02,1*02
$GNGSA,A,3,33,31,26,01,24,09,05,13,,,,,1.18,0.60,1.02,3*01
$GNGSA,A,3,13,12,25,26,24,35,,,,,,,1.18,0.60,1.02,4*0B
$GPGSV,3,1,09,02,42,091,37,03,00,345,,06,24,045,30,12,63,078,50,1*68
$GPGSV,3,2,09,24,23,155,46,25,78,304,41,29,44,213,43,31,24,310,47,1*6B
$GPGSV,3,3,09,32,28,261,42,1*55
$GPGSV,3,1,09,02,42,091,,03,00,345,,06,24,045,14,12,63,078,43,6*6F
$GPGSV,3,2,09,24,23,155,43,25,78,304,46,29,44,213,45,31,24,310,37,6*6F
$GPGSV,3,3,09,32,28,261,43,6*53
$GAGSV,3,1,12,01,46,096,40,03,00,350,,04,00,206,,05,21,305,46,7*7D
$GAGSV,3,2,12,09,21,252,46,12,02,183,,13,11,029,23,21,00,102,,7*7F
$GAGSV,3,3,12,24,24,286,47,26,45,077,33,31,74,302,42,33,38,146,46,7*76
$GAGSV,3,1,12,01,46,096,38,03,00,350,,04,00,206,,05,21,305,46,2*77
$GAGSV,3,2,12,09,21,252,48,12,02,183,,13,11,029,24,21,00,102,,2*73
$GAGSV,3,3,12,24,24,286,49,26,45,077,35,31,74,302,48,33,38,146,33,2*73
$GBGSV,3,1,10,02,04,106,,05,18,128,,10,04,083,13,12,37,191,45,1*70
$GBGSV,3,2,10,13,32,085,31,24,82,263,39,25,25,302,48,26,44,131,30,1*72
$GBGSV,3,3,10,29,03,039,19,35,47,062,39,1*76
$GBGSV,3,1,10,02,04,106,,05,18,128,,10,04,083,25,12,37,191,49,3*7B
$GBGSV,3,2,10,13,32,085,29,24,82,263,,25,25,302,,26,44,131,,3*7C
$GBGSV,3,3,10,29,03,039,,35,47,062,,3*76
$GNGLL,5025.4456082,N,01411.3806874,E,214402.00,A,A*7E
$GNRMC,214403.00,A,5025.4455839,N,01411.3807338,E,0.003,,241021,,,A,V*12
$GNVTG,,T,,M,0.003,N,0.006,K,A*38
$GNGGA,214403.00,5025.4455839,N,01411.3807338,E,1,12,0.60,222.870,M,44.078,M,,*44
$GNGSA,A,3,24,29,31,32,25,12,06,02,,,,,1.18,0.60,1.02,1*02
$GNGSA,A,3,33,31,26,01,24,09,05,13,,,,,1.18,0.60,1.02,3*01
$GNGSA,A,3,13,12,25,26,24,35,,,,,,,1.18,0.60,1.02,4*0B
$GPGSV,3,1,09,02,42,091,37,03,00,345,,06,24,045,29,12,63,078,50,1*60
$GPGSV,3,2,09,24,23,155,46,25,78,304,42,29,44,213,43,31,24,310,47,1*68
$GPGSV,3,3,09,32,28,261,42,1*55
$GPGSV,3,1,09,02,42,091,,03,00,345,,06,24,045,14,12,63,078,43,6*6F
$GPGSV,3,2,09,24,23,155,43,25,78,304,46,29,44,213,45,31,24,310,37,6*6F
$GPGSV,3,3,09,32,28,261,43,6*53
$GAGSV,3,1,12,01,46,096,40,03,00,350,,04,00,206,,05,21,305,46,7*7D
$GAGSV,3,2,12,09,21,252,46,12,02,183,,13,11,029,23,21,00,102,,7*7F
$GAGSV,3,3,12,24,24,286,47,26,45,077,33,31,74,302,42,33,38,146,46,7*76
$GAGSV,3,1,12,01,46,096,38,03,00,350,,04,00,206,,05,21,305,46,2*77
$GAGSV,3,2,12,09,21,252,48,12,02,183,,13,11,029,24,21,00,102,,2*73
$GAGSV,3,3,12,24,24,286,49,26,45,077,35,31,74,302,48,33,38,146,33,2*73
$GBGSV,3,1,10,02,04,106,,05,18,128,,10,04,083,14,12,37,191,45,1*77
$GBGSV,3,2,10,13,32,085,31,24,82,263,39,25,25,302,48,26,44,131,31,1*73
$GBGSV,3,3,10,29,03,039,19,35,47,062,39,1*76
$GBGSV,3,1,10,02,04,106,,05,18,128,,10,04,083,25,12,37,191,49,3*7B
$GBGSV,3,2,10,13,32,085,29,24,82,263,,25,25,302,,26,44,131,,3*7C
$GBGSV,3,3,10,29,03,039,,35,47,062,,3*76
$GNGLL,5025.4455839,N,01411.3807338,E,214403.00,A,A*76
$GNRMC,214404.00,A,5025.4455675,N,01411.3807707,E,0.008,,241021,,,A,V*10
$GNVTG,,T,,M,0.008,N,0.014,K,A*30
$GNGGA,214404.00,5025.4455675,N,01411.3807707,E,1,12,0.60,222.595,M,44.078,M,,*4B
$GNGSA,A,3,24,29,31,32,25,12,06,02,,,,,1.18,0.60,1.02,1*02
$GNGSA,A,3,33,31,26,01,24,09,05,13,,,,,1.18,0.60,1.02,3*01
$GNGSA,A,3,13,12,25,26,24,35,,,,,,,1.18,0.60,1.02,4*0B
$GPGSV,3,1,09,02,42,091,37,03,00,345,,06,24,045,29,12,63,078,50,1*60
$GPGSV,3,2,09,24,23,155,46,25,78,304,42,29,44,213,43,31,24,310,47,1*68
$GPGSV,3,3,09,32,28,261,42,1*55
$GPGSV,3,1,09,02,42,091,,03,00,345,,06,24,045,14,12,63,078,43,6*6F
$GPGSV,3,2,09,24,23,155,43,25,78,304,46,29,44,213,45,31,24,310,37,6*6F
$GPGSV,3,3,09,32,28,261,43,6*53
$GAGSV,3,1,12,01,46,096,40,03,00,350,,04,00,206,,05,21,305,46,7*7D
$GAGSV,3,2,12,09,21,252,46,12,02,183,,13,11,029,23,21,00,102,,7*7F
$GAGSV,3,3,12,24,24,286,47,26,45,077,32,31,74,302,42,33,38,146,46,7*77
$GAGSV,3,1,12,01,46,096,38,03,00,350,,04,00,206,,05,21,305,46,2*77
$GAGSV,3,2,12,09,21,252,48,12,02,183,,13,11,029,24,21,00,102,,2*73
$GAGSV,3,3,12,24,24,286,49,26,45,077,35,31,74,302,48,33,38,146,33,2*73
$GBGSV,3,1,10,02,04,106,,05,18,128,,10,04,083,12,12,37,191,45,1*71
$GBGSV,3,2,10,13,32,085,31,24,82,263,39,25,25,302,48,26,44,131,31,1*73
$GBGSV,3,3,10,29,03,039,20,35,47,062,39,1*7C
$GBGSV,3,1,10,02,04,106,,05,18,128,,10,04,083,25,12,37,191,49,3*7B
$GBGSV,3,2,10,13,32,085,29,24,82,263,,25,25,302,,26,44,131,,3*7C
$GBGSV,3,3,10,29,03,039,,35,47,062,,3*76
$GNGLL,5025.4455675,N,01411.3807707,E,214404.00,A,A*7F
$GNRMC,214405.00,A,5025.4455544,N,01411.3808067,E,0.002,,241021,,,A,V*14
$GNVTG,,T,,M,0.002,N,0.004,K,A*3B
$GNGGA,214405.00,5025.4455544,N,01411.3808067,E,1,12,0.60,222.354,M,44.078,M,,*4E
$GNGSA,A,3,24,29,31,32,25,12,06,02,,,,,1.18,0.60,1.02,1*02
$GNGSA,A,3,33,31,26,01,24,09,05,13,,,,,1.18,0.60,1.02,3*01
$GNGSA,A,3,13,12,25,26,24,35,,,,,,,1.18,0.60,1.02,4*0B
$GPGSV,3,1,09,02,42,091,37,03,00,345,,06,24,045,29,12,63,078,50,1*60
$GPGSV,3,2,09,24,23,155,46,25,78,304,42,29,44,213,43,31,24,310,47,1*68
$GPGSV,3,3,09,32,28,261,42,1*55
$GPGSV,3,1,09,02,42,091,,03,00,345,,06,24,045,13,12,63,078,43,6*68
$GPGSV,3,2,09,24,23,155,43,25,78,304,46,29,44,213,45,31,24,310,37,6*6F
$GPGSV,3,3,09,32,28,261,43,6*53
$GAGSV,3,1,12,01,46,096,40,03,00,350,,04,00,206,,05,21,305,46,7*7D
$GAGSV,3,2,12,09,21,252,46,12,02,183,,13,11,029,23,21,00,102,,7*7F
$GAGSV,3,3,12,24,24,286,47,26,45,077,32,31,74,302,42,33,38,146,46,7*77
$GAGSV,3,1,12,01,46,096,38,03,00,350,,04,00,206,,05,21,305,46,2*77
$GAGSV,3,2,12,09,21,252,48,12,02,183,,13,11,029,24,21,00,102,,2*73
$GAGSV,3,3,12,24,24,286,49,26,45,077,35,31,74,302,48,33,38,146,33,2*73
$GBGSV,3,1,10,02,04,106,,05,18,128,,10,04,083,,12,37,191,45,1*72
$GBGSV,3,2,10,13,32,085,30,24,82,263,39,25,25,302,48,26,44,131,31,1*72
$GBGSV,3,3,10,29,03,039,21,35,47,062,39,1*7D
$GBGSV,3,1,10,02,04,106,,05,18,128,,10,04,083,25,12,37,191,49,3*7B
$GBGSV,3,2,10,13,32,085,29,24,82,263,,25,25,302,,26,44,131,,3*7C
$GBGSV,3,3,10,29,03,039,,35,47,062,,3*76
$GNGLL,5025.4455544,N,01411.3808067,E,214405.00,A,A*71
$GNRMC,214406.00,A,5025.4455476,N,01411.3808355,E,0.005,,241021,,,A,V*12
$GNVTG,,T,,M,0.005,N,0.010,K,A*39
$GNGGA,214406.00,5025.4455476,N,01411.3808355,E,1,12,0.60,222.150,M,44.078,M,,*49
$GNGSA,A,3,24,29,31,32,25,12,06,02,,,,,1.18,0.60,1.02,1*02
$GNGSA,A,3,33,31,26,01,24,09,05,13,,,,,1.18,0.60,1.02,3*01
$GNGSA,A,3,13,12,25,26,24,35,,,,,,,1.18,0.60,1.02,4*0B
$GPGSV,3,1,09,02,42,091,37,03,00,345,,06,24,045,29,12,63,078,50,1*60
$GPGSV,3,2,09,24,23,155,46,25,78,304,42,29,44,213,44,31,24,310,47,1*6F
$GPGSV,3,3,09,32,28,261,42,1*55
$GPGSV,3,1,09,02,42,091,,03,00,345,,06,24,045,14,12,63,078,43,6*6F
$GPGSV,3,2,09,24,23,155,43,25,78,304,46,29,44,213,45,31,24,310,37,6*6F
$GPGSV,3,3,09,32,28,261,43,6*53
$GAGSV,3,1,12,01,46,096,40,03,00,350,,04,00,206,,05,21,305,46,7*7D
$GAGSV,3,2,12,09,21,252,46,12,02,183,,13,11,029,22,21,00,102,,7*7E
$GAGSV,3,3,12,24,24,286,47,26,45,077,32,31,74,302,42,33,38,146,46,7*77
$GAGSV,3,1,12,01,46,096,38,03,00,350,,04,00,206,,05,21,305,46,2*77
$GAGSV,3,2,12,09,21,252,48,12,02,183,,13,11,029,23,21,00,102,,2*74
$GAGSV,3,3,12,24,24,286,49,26,45,077,35,31,74,302,48,33,38,146,33,2*73
$GBGSV,3,1,10,02,04,106,,05,18,128,,10,04,083,,12,37,191,45,1*72
$GBGSV,3,2,10,13,32,085,31,24,82,263,39,25,25,302,48,26,44,131,31,1*73
$GBGSV,3,3,10,29,03,039,21,35,47,062,39,1*7D
$GBGSV,3,1,10,02,04,106,,05,18,128,,10,04,083,25,12,37,191,49,3*7B
$GBGSV,3,2,10,13,32,085,29,24,82,263,,25,25,302,,26,44,131,,3*7C
$GBGSV,3,3,10,29,03,039,,35,47,062,,3*76
$GNGLL,5025.4455476,N,01411.3808355,E,214406.00,A,A*70
$GNRMC,214407.00,A,5025.4455453,N,01411.3808639,E,0.019,,241021,,,A,V*16
$GNVTG,,T,,M,0.019,N,0.034,K,A*32
$GNGGA,214407.00,5025.4455453,N,01411.3808639,E,1,12,0.60,221.970,M,44.078,M,,*49
$GNGSA,A,3,24,29,31,32,25,12,06,02,,,,,1.18,0.60,1.02,1*02
$GNGSA,A,3,33,31,26,01,24,09,05,13,,,,,1.18,0.60,1.02,3*01
$GNGSA,A,3,13,12,25,26,24,35,,,,,,,1.18,0.60,1.02,4*0B
$GPGSV,3,1,09,02,42,091,37,03,00,345,,06,24,045,29,12,63,078,50,1*60
$GPGSV,3,2,09,24,23,155,46,25,78,304,42,29,44,213,44,31,24,310,47,1*6F
$GPGSV,3,3,09,32,28,261,42,1*55
$GPGSV,3,1,09,02,42,091,,03,00,345,,06,24,045,15,12,63,078,43,6*6E
$GPGSV,3,2,09,24,23,155,43,25,78,304,46,29,44,213,45,31,24,310,37,6*6F
$GPGSV,3,3,09,32,28,261,43,6*53
$GAGSV,3,1,12,01,46,096,40,03,00,350,,04,00,206,,05,21,305,46,7*7D
$GAGSV,3,2,12,09,21,252,46,12,02,183,,13,11,029,22,21,00,102,,7*7E
$GAGSV,3,3,12,24,24,286,47,26,45,077,32,31,74,302,42,33,38,146,46,7*77
$GAGSV,3,1,12,01,46,096,38,03,00,350,,04,00,206,,05,21,305,46,2*77
$GAGSV,3,2,12,09,21,252,48,12,02,183,,13,11,029,23,21,00,102,,2*74
$GAGSV,3,3,12,24,24,286,49,26,45,077,35,31,74,302,48,33,38,146,33,2*73
$GBGSV,3,1,10,02,04,106,,05,18,128,,10,04,083,,12,37,191,44,1*73
$GBGSV,3,2,10,13,32,085,30,24,82,263,39,25,25,302,48,26,44,131,31,1*72
$GBGSV,3,3,10,29,03,039,22,35,47,062,39,1*7E
$GBGSV,3,1,10,02,04,106,,05,18,128,,10,04,083,25,12,37,191,49,3*7B
$GBGSV,3,2,10,13,32,085,29,24,82,263,,25,25,302,,26,44,131,,3*7C
$GBGSV,3,3,10,29,03,039,,35,47,062,,3*76
$GNGLL,5025.4455453,N,01411.3808639,E,214407.00,A,A*79
$GNRMC,214408.00,A,5025.4455430,N,01411.3808876,E,0.013,,241021,,,A,V*13
$GNVTG,,T,,M,0.013,N,0.024,K,A*39
$GNGGA,214408.00,5025.4455430,N,01411.3808876,E,1,12,0.60,221.803,M,44.078,M,,*43
$GNGSA,A,3,24,29,31,32,25,12,06,02,,,,,1.18,0.60,1.02,1*02
$GNGSA,A,3,33,31,26,01,24,09,05,13,,,,,1.18,0.60,1.02,3*01
$GNGSA,A,3,13,12,25,26,24,35,,,,,,,1.18,0.60,1.02,4*0B
$GPGSV,3,1,09,02,42,091,37,03,00,345,,06,24,045,29,12,63,078,50,1*60
$GPGSV,3,2,09,24,23,155,46,25,78,304,41,29,44,213,44,31,24,310,47,1*6C
$GPGSV,3,3,09,32,28,261,41,1*56
$GPGSV,3,1,09,02,42,091,,03,00,345,,06,24,045,13,12,63,078,43,6*68
$GPGSV,3,2,09,24,23,155,43,25,78,304,46,29,44,213,45,31,24,310,37,6*6F
$GPGSV,3,3,09,32,28,261,43,6*53
$GAGSV,3,1,12,01,46,096,40,03,00,350,,04,00,206,,05,21,305,46,7*7D
$GAGSV,3,2,12,09,21,252,46,12,02,183,,13,11,029,22,21,00,102,,7*7E
$GAGSV,3,3,12,24,24,286,47,26,45,077,32,31,74,302,42,33,38,146,46,7*77
$GAGSV,3,1,12,01,46,096,38,03,00,350,,04,00,206,,05,21,305,46,2*77
$GAGSV,3,2,12,09,21,252,48,12,02,183,,13,11,029,24,21,00,102,,2*73
$GAGSV,3,3,12,24,24,286,49,26,45,077,35,31,74,302,48,33,38,146,33,2*73
$GBGSV,3,1,10,02,04,106,,05,18,128,,10,04,083,,12,37,191,44,1*73
$GBGSV,3,2,10,13,32,085,30,24,82,263,39,25,25,302,47,26,44,131,31,1*7D
$GBGSV,3,3,10,29,03,039,21,35,47,062,39,1*7D
$GBGSV,3,1,10,02,04,106,,05,18,128,,10,04,083,25,12,37,191,49,3*7B
$GBGSV,3,2,10,13,32,085,29,24,82,263,,25,25,302,,26,44,131,,3*7C
$GBGSV,3,3,10,29,03,039,,35,47,062,,3*76
$GNGLL,5025.4455430,N,01411.3808876,E,214408.00,A,A*76
$GNRMC,214409.00,A,5025.4455390,N,01411.3809096,E,0.005,,241021,,,A,V*1F
$GNVTG,,T,,M,0.005,N,0.010,K,A*39
$GNGGA,214409.00,5025.4455390,N,01411.3809096,E,1,12,0.60,221.640,M,44.078,M,,*41
$GNGSA,A,3,24,29,31,32,25,12,06,02,,,,,1.18,0.60,1.02,1*02
$GNGSA,A,3,33,31,26,01,24,09,05,13,,,,,1.18,0.60,1.02,3*01
$GNGSA,A,3,13,12,25,26,24,35,,,,,,,1.18,0.60,1.02,4*0B
$GPGSV,3,1,09,02,42,091,37,03,00,345,,06,24,045,29,12,63,078,50,1*60
$GPGSV,3,2,09,24,23,155,46,25,78,304,41,29,44,213,44,31,24,310,47,1*6C
$GPGSV,3,3,09,32,28,261,41,1*56
$GPGSV,3,1,09,02,42,091,,03,00,345,,06,24,045,14,12,63,078,43,6*6F
$GPGSV,3,2,09,24,23,155,43,25,78,304,46,29,44,213,45,31,24,310,37,6*6F
$GPGSV,3,3,09,32,28,261,43,6*53
$GAGSV,3,1,12,01,46,096,40,03,00,350,,04,00,206,,05,21,305,46,7*7D
$GAGSV,3,2,12,09,21,252,46,12,02,183,,13,11,029,22,21,00,102,,7*7E
$GAGSV,3,3,12,24,24,286,47,26,45,077,32,31,74,302,42,33,38,146,46,7*77
$GAGSV,3,1,12,01,46,096,38,03,00,350,,04,00,206,,05,21,305,46,2*77
$GAGSV,3,2,12,09,21,252,48,12,02,183,,13,11,029,23,21,00,102,,2*74
$GAGSV,3,3,12,24,24,286,49,26,45,077,36,31,74,302,48,33,38,146,33,2*70
$GBGSV,3,1,10,02,04,106,,05,18,128,,10,04,083,,12,37,191,44,1*73
$GBGSV,3,2,10,13,32,085,30,24,82,263,39,25,25,302,47,26,44,131,32,1*7E
$GBGSV,3,3,10,29,03,039,22,35,47,062,39,1*7E
$GBGSV,3,1,10,02,04,106,,05,18,128,,10,04,083,25,12,37,191,49,3*7B
$GBGSV,3,2,10,13,32,085,29,24,82,263,,25,25,302,,26,44,131,,3*7C
$GBGSV,3,3,10,29,03,039,,35,47,062,,3*76
$GNGLL,5025.4455390,N,01411.3809096,E,214409.00,A,A*7D
$GNRMC,214410.00,A,5025.4455362,N,01411.3809255,E,0.001,,241021,,,A,V*13
$GNVTG,,T,,M,0.001,N,0.002,K,A*3E
$GNGGA,214410.00,5025.4455362,N,01411.3809255,E,1,12,0.60,221.501,M,44.078,M,,*4F
$GNGSA,A,3,24,29,31,32,25,12,06,02,,,,,1.18,0.60,1.02,1*02
$GNGSA,A,3,33,31,26,01,24,09,05,13,,,,,1.18,0.60,1.02,3*01
$GNGSA,A,3,13,12,25,26,24,35,,,,,,,1.18,0.60,1.02,4*0B
$GPGSV,3,1,09,02,42,091,37,03,00,345,,06,24,045,29,12,63,078,50,1*60
$GPGSV,3,2,09,24,23,155,46,25,78,304,41,29,44,213,44,31,24,310,47,1*6C
$GPGSV,3,3,09,32,28,261,41,1*56
$GPGSV,3,1,09,02,42,091,,03,00,345,,06,24,045,14,12,63,078,43,6*6F
$GPGSV,3,2,09,24,23,155,43,25,78,304,46,29,44,213,45,31,24,310,37,6*6F
$GPGSV,3,3,09,32,28,261,43,6*53
$GAGSV,3,1,12,01,46,096,40,03,00,350,,04,00,206,,05,21,305,46,7*7D
$GAGSV,3,2,12,09,21,252,46,12,02,183,,13,11,029,21,21,00,102,,7*7D
$GAGSV,3,3,12,24,24,286,47,26,45,077,32,31,74,302,42,33,38,146,46,7*77
$GAGSV,3,1,12,01,46,096,38,03,00,350,,04,00,206,,05,21,305,46,2*77
$GAGSV,3,2,12,09,21,252,48,12,02,183,,13,11,029,24,21,00,102,,2*73
$GAGSV,3,3,12,24,24,286,49,26,45,077,35,31,74,302,48,33,38,146,33,2*73
$GBGSV,3,1,10,02,04,106,,05,18,128,,10,04,083,,12,37,191,44,1*73
$GBGSV,3,2,10,13,32,085,30,24,82,263,39,25,25,302,47,26,44,131,32,1*7E
$GBGSV,3,3,10,29,03,039,22,35,47,062,39,1*7E
$GBGSV,3,1,10,02,04,106,,05,18,128,,10,04,083,25,12,37,191,49,3*7B
$GBGSV,3,2,10,13,32,085,30,24,82,263,,25,25,302,,26,44,131,,3*74
$GBGSV,3,3,10,29,03,039,,35,47,062,,3*76
$GNGLL,5025.4455362,N,01411.3809255,E,214410.00,A,A*75
$GNRMC,214411.00,A,5025.4455375,N,01411.3809350,E,0.016,,241021,,,A,V*16
$GNVTG,,T,,M,0.016,N,0.030,K,A*39
$GNGGA,214411.00,5025.4455375,N,01411.3809350,E,1,12,0.60,221.364,M,44.078,M,,*49
$GNGSA,A,3,24,29,31,32,25,12,06,02,,,,,1.18,0.60,1.02,1*02
$GNGSA,A,3,33,31,26,01,24,09,05,13,,,,,1.18,0.60,1.02,3*01
$GNGSA,A,3,13,12,25,26,24,35,,,,,,,1.18,0.60,1.02,4*0B
$GPGSV,3,1,09,02,42,091,37,03,00,345,,06,24,045,28,12,63,078,50,1*61
$GPGSV,3,2,09,24,23,155,46,25,78,304,41,29,44,213,44,31,24,310,47,1*6C
$GPGSV,3,3,09,32,28,261,41,1*56
$GPGSV,3,1,09,02,42,091,,03,00,345,,06,24,045,14,12,63,078,43,6*6F
$GPGSV,3,2,09,24,23,155,43,25,78,304,46,29,44,213,45,31,24,310,38,6*60
$GPGSV,3,3,09,32,28,261,43,6*53
$GAGSV,3,1,12,01,46,096,40,03,00,350,,04,00,206,,05,21,305,46,7*7D
$GAGSV,3,2,12,09,21,252,47,12,02,183,,13,11,029,22,21,00,102,,7*7F
$GAGSV,3,3,12,24,24,286,47,26,45,077,32,31,74,302,42,33,38,146,46,7*77
$GAGSV,3,1,12,01,46,096,38,03,00,350,,04,00,206,,05,21,305,46,2*77
$GAGSV,3,2,12,09,21,252,48,12,02,183,,13,11,029,24,21,00,102,,2*73
$GAGSV,3,3,12,24,24,286,49,26,45,077,35,31,74,302,48,33,38,146,33,2*73
$GBGSV,3,1,10,02,04,106,,05,18,128,,10,04,083,,12,37,191,44,1*73
$GBGSV,3,2,10,13,32,085,30,24,82,263,39,25,25,302,47,26,44,131,32,1*7E
$GBGSV,3,3,10,29,03,039,22,35,47,062,39,1*7E
$GBGSV,3,1,10,02,04,106,,05,18,128,,10,04,083,26,12,37,191,49,3*78
$GBGSV,3,2,10,13,32,085,30,24,82,263,,25,25,302,,26,44,131,,3*74
$GBGSV,3,3,10,29,03,039,,35,47,062,,3*76
$GNGLL,5025.4455375,N,01411.3809350,E,214411.00,A,A*76
$GNRMC,214412.00,A,5025.4455377,N,01411.3809441,E,0.010,,241021,,,A,V*16
$GNVTG,,T,,M,0.010,N,0.019,K,A*34
$GNGGA,214412.00,5025.4455377,N,01411.3809441,E,1,12,0.60,221.235,M,44.078,M,,*4A
$GNGSA,A,3,24,29,31,32,25,12,06,02,,,,,1.18,0.60,1.02,1*02
$GNGSA,A,3,33,31,26,01,24,09,05,13,,,,,1.18,0.60,1.02,3*01
$GNGSA,A,3,13,12,25,26,24,35,,,,,,,1.18,0.60,1.02,4*0B
$GPGSV,3,1,09,02,42,091,37,03,00,345,,06,24,045,28,12,63,078,50,1*61
$GPGSV,3,2,09,24,23,155,46,25,78,304,41,29,44,213,44,31,24,310,47,1*6C
$GPGSV,3,3,09,32,28,261,41,1*56
$GPGSV,3,1,09,02,42,091,,03,00,345,,06,24,045,13,12,63,078,43,6*68
$GPGSV,3,2,09,24,23,155,43,25,78,304,46,29,44,213,45,31,24,310,38,6*60
$GPGSV,3,3,09,32,28,261,43,6*53
$GAGSV,3,1,12,01,46,096,40,03,00,350,,04,00,206,,05,21,305,46,7*7D
$GAGSV,3,2,12,09,21,252,47,12,02,183,,13,11,029,22,21,00,102,,7*7F
$GAGSV,3,3,12,24,24,286,47,26,45,077,33,31,74,302,42,33,38,146,46,7*76
$GAGSV,3,1,12,01,46,096,38,03,00,350,,04,00,206,,05,21,305,46,2*77
$GAGSV,3,2,12,09,21,252,48,12,02,183,,13,11,029,24,21,00,102,,2*73
$GAGSV,3,3,12,24,24,286,49,26,45,077,35,31,74,302,48,33,38,146,33,2*73
$GBGSV,3,1,10,02,04,106,,05,18,128,,10,04,083,,12,37,191,44,1*73
$GBGSV,3,2,10,13,32,085,30,24,82,263,39,25,25,302,47,26,44,131,32,1*7E
$GBGSV,3,3,10,29,03,039,21,35,47,062,39,1*7D
$GBGSV,3,1,10,02,04,106,,05,18,128,,10,04,083,26,12,37,191,49,3*78
$GBGSV,3,2,10,13,32,085,30,24,82,263,,25,25,302,,26,44,131,,3*74
$GBGSV,3,3,10,29,03,039,,35,47,062,,3*76
$GNGLL,5025.4455377,N,01411.3809441,E,214412.00,A,A*70
$GNRMC,214413.00,A,5025.4455430,N,01411.3809669,E,0.007,,241021,,,A,V*1D
$GNVTG,,T,,M,0.007,N,0.012,K,A*39
$GNGGA,214413.00,5025.4455430,N,01411.3809669,E,1,12,0.60,221.063,M,44.078,M,,*46
$GNGSA,A,3,24,29,31,32,25,12,06,02,,,,,1.18,0.60,1.02,1*02
$GNGSA,A,3,33,31,26,01,24,09,05,13,,,,,1.18,0.60,1.02,3*01
$GNGSA,A,3,13,12,25,26,24,35,,,,,,,1.18,0.60,1.02,4*0B
$GPGSV,3,1,09,02,42,091,36,03,00,345,,06,24,045,28,12,63,078,50,1*60
$GPGSV,3,2,09,24,23,155,46,25,78,304,41,29,44,213,44,31,24,310,47,1*6C
$GPGSV,3,3,09,32,28,261,41,1*56
$GPGSV,3,1,09,02,42,091,,03,00,345,,06,24,045,13,12,63,078,43,6*68
$GPGSV,3,2,09,24,23,155,43,25,78,304,46,29,44,213,45,31,24,310,38,6*60
$GPGSV,3,3,09,32,28,261,43,6*53
$GAGSV,3,1,12,01,46,096,40,03,00,350,,04,00,206,,05,21,305,46,7*7D
$GAGSV,3,2,12,09,21,252,47,12,02,183,,13,11,029,21,21,00,102,,7*7C
$GAGSV,3,3,12,24,24,286,47,26,45,077,33,31,74,302,42,33,38,146,46,7*76
$GAGSV,3,1,12,01,46,096,38,03,00,350,,04,00,206,,05,21,305,46,2*77
$GAGSV,3,2,12,09,21,252,48,12,02,183,,13,11,029,24,21,00,102,,2*73
$GAGSV,3,3,12,24,24,286,49,26,45,077,36,31,74,302,48,33,38,146,33,2*70
$GBGSV,3,1,10,02,04,106,,05,18,128,,10,04,083,15,12,37,191,44,1*77
$GBGSV,3,2,10,13,32,085,30,24,82,263,38,25,25,302,47,26,44,131,32,1*7F
$GBGSV,3,3,10,29,03,039,21,35,47,062,39,1*7D
$GBGSV,3,1,10,02,04,106,,05,18,128,,10,04,083,26,12,37,191,49,3*78
$GBGSV,3,2,10,13,32,085,30,24,82,263,,25,25,302,,26,44,131,,3*74
$GBGSV,3,3,10,29,03,039,,35,47,062,,3*76
$GNGLL,5025.4455430,N,01411.3809669,E,214413.00,A,A*7D
$GNRMC,214414.00,A,5025.4455488,N,01411.3809900,E,0.004,,241021,,,A,V*1A
$GNVTG,,T,,M,0.004,N,0.007,K,A*3E
$GNGGA,214414.00,5025.4455488,N,01411.3809900,E,1,12,0.60,220.896,M,44.078,M,,*41
$GNGSA,A,3,24,29,31,32,25,12,06,02,,,,,1.18,0.60,1.02,1*02
$GNGSA,A,3,33,31,26,01,24,09,05,13,,,,,1.18,0.60,1.02,3*01
$GNGSA,A,3,13,12,25,26,24,35,,,,,,,1.18,0.60,1.02,4*0B
$GPGSV,3,1,09,02,42,091,36,03,00,345,,06,24,045,27,12,63,078,50,1*6F
$GPGSV,3,2,09,24,23,155,46,25,78,304,41,29,44,213,44,31,24,310,47,1*6C
$GPGSV,3,3,09,32,28,261,42,1*55
$GPGSV,3,1,09,02,42,091,,03,00,345,,06,24,045,13,12,63,078,43,6*68
$GPGSV,3,2,09,24,23,155,43,25,78,304,46,29,44,213,45,31,24,310,38,6*60
$GPGSV,3,3,09,32,28,261,43,6*53
$GAGSV,3,1,12,01,46,096,40,03,00,350,,04,00,206,,05,21,305,46,7*7D
$GAGSV,3,2,12,09,21,252,47,12,02,183,,13,11,029,22,21,00,102,,7*7F
$GAGSV,3,3,12,24,24,286,47,26,45,077,33,31,74,302,42,33,38,146,46,7*76
$GAGSV,3,1,12,01,46,096,38,03,00,350,,04,00,206,,05,21,305,46,2*77
$GAGSV,3,2,12,09,21,252,48,12,02,183,,13,11,029,23,21,00,102,,2*74
$GAGSV,3,3,12,24,24,286,49,26,45,077,35,31,74,302,48,33,38,146,34,2*74
$GBGSV,3,1,10,02,04,106,,05,18,128,,10,04,083,15,12,37,191,44,1*77
$GBGSV,3,2,10,13,32,085,30,24,82,263,38,25,25,302,47,26,44,131,33,1*7E
$GBGSV,3,3,10,29,03,039,21,35,47,062,39,1*7D
$GBGSV,3,1,10,02,04,106,,05,18,128,,10,04,083,26,12,37,191,49,3*78
$GBGSV,3,2,10,13,32,085,30,24,82,263,,25,25,302,,26,44,131,,3*74
$GBGSV,3,3,10,29,03,039,,35,47,062,,3*76
$GNGLL,5025.4455488,N,01411.3809900,E,214414.00,A,A*79
$GNRMC,214415.00,A,5025.4455569,N,01411.3810138,E,0.011,,241021,,,A,V*1A
$GNVTG,,T,,M,0.011,N,0.020,K,A*3F
$GNGGA,214415.00,5025.4455569,N,01411.3810138,E,1,12,0.60,220.735,M,44.078,M,,*43
$GNGSA,A,3,24,29,31,32,25,12,06,02,,,,,1.18,0.60,1.02,1*02
$GNGSA,A,3,33,31,26,01,24,09,05,13,,,,,1.18,0.60,1.02,3*01
$GNGSA,A,3,13,12,25,26,24,35,,,,,,,1.18,0.60,1.02,4*0B
$GPGSV,3,1,09,02,42,091,36,03,00,345,,06,24,045,27,12,63,078,50,1*6F
$GPGSV,3,2,09,24,23,155,46,25,78,304,41,29,44,213,45,31,24,310,47,1*6D
$GPGSV,3,3,09,32,28,261,42,1*55
$GPGSV,3,1,09,02,42,091,,03,00,345,,06,24,045,13,12,63,078,43,6*68
$GPGSV,3,2,09,24,23,155,43,25,78,304,46,29,44,213,45,31,24,310,38,6*60
$GPGSV,3,3,09,32,28,261,43,6*53
$GAGSV,3,1,12,01,46,096,40,03,00,350,,04,00,206,,05,21,305,46,7*7D
$GAGSV,3,2,12,09,21,252,47,12,02,183,,13,11,029,22,21,00,102,,7*7F
$GAGSV,3,3,12,24,24,286,47,26,45,077,33,31,74,302,42,33,38,146,46,7*76
$GAGSV,3,1,12,01,46,096,38,03,00,350,,04,00,206,,05,21,305,46,2*77
$GAGSV,3,2,12,09,21,252,48,12,02,183,,13,11,029,24,21,00,102,,2*73
$GAGSV,3,3,12,24,24,286,49,26,45,077,36,31,74,302,48,33,38,146,34,2*77
$GBGSV,3,1,10,02,04,106,,05,18,128,,10,04,083,16,12,37,191,44,1*74
$GBGSV,3,2,10,13,32,085,30,24,82,263,38,25,25,302,47,26,44,131,33,1*7E
$GBGSV,3,3,10,29,03,039,19,35,47,062,39,1*76
$GBGSV,3,1,10,02,04,106,,05,18,128,,10,04,083,26,12,37,191,49,3*78
$GBGSV,3,2,10,13,32,085,30,24,82,263,,25,25,302,,26,44,131,,3*74
$GBGSV,3,3,10,29,03,039,,35,47,062,,3*76
$GNGLL,5025.4455569,N,01411.3810138,E,214415.00,A,A*7D
$GNRMC,214416.00,A,5025.4455634,N,01411.3810361,E,0.013,,241021,,,A,V*1E
$GNVTG,,T,,M,0.013,N,0.023,K,A*3E
$GNGGA,214416.00,5025.4455634,N,01411.3810361,E,1,12,0.60,220.595,M,44.078,M,,*4D
$GNGSA,A,3,24,29,31,32,25,12,06,02,,,,,1.18,0.60,1.02,1*02
$GNGSA,A,3,33,31,26,01,24,09,05,13,,,,,1.18,0.60,1.02,3*01
$GNGSA,A,3,13,12,25,26,24,35,,,,,,,1.18,0.60,1.02,4*0B
$GPGSV,3,1,09,02,42,091,36,03,00,345,,06,24,045,28,12,63,078,50,1*60
$GPGSV,3,2,09,24,23,155,46,25,78,304,41,29,44,213,45,31,24,310,47,1*6D
$GPGSV,3,3,09,32,28,261,42,1*55
$GPGSV,3,1,09,02,42,091,,03,00,345,,06,24,045,13,12,63,078,43,6*68
$GPGSV,3,2,09,24,23,155,43,25,78,304,46,29,44,213,45,31,24,310,38,6*60
$GPGSV,3,3,09,32,28,261,43,6*53
$GAGSV,3,1,12,01,46,096,40,03,00,350,,04,00,206,,05,21,305,46,7*7D
$GAGSV,3,2,12,09,21,252,47,12,02,183,,13,11,029,22,21,00,102,,7*7F
$GAGSV,3,3,12,24,24,286,47,26,45,077,34,31,74,302,42,33,38,146,46,7*71
$GAGSV,3,1,12,01,46,096,38,03,00,350,,04,00,206,,05,21,305,46,2*77
$GAGSV,3,2,12,09,21,252,48,12,02,183,,13,11,029,24,21,00,102,,2*73
$GAGSV,3,3,12,24,24,286,49,26,45,077,36,31,74,302,48,33,38,146,34,2*77
$GBGSV,3,1,10,02,04,106,,05,18,128,,10,04,083,15,12,37,191,44,1*77
$GBGSV,3,2,10,13,32,085,30,24,82,263,38,25,25,302,47,26,44,131,33,1*7E
$GBGSV,3,3,10,29,03,039,18,35,47,062,39,1*77
$GBGSV,3,1,10,02,04,106,,05,18,128,,10,04,083,26,12,37,191,49,3*78
$GBGSV,3,2,10,13,32,085,30,24,82,263,,25,25,302,,26,44,131,,3*74
$GBGSV,3,3,10,29,03,039,,35,47,062,,3*76
$GNGLL,5025.4455634,N,01411.3810361,E,214416.00,A,A*7B
$GNRMC,214417.00,A,5025.4455713,N,01411.3810553,E,0.003,,241021,,,A,V*1D
$GNVTG,,T,,M,0.003,N,0.006,K,A*38
$GNGGA,214417.00,5025.4455713,N,01411.3810553,E,1,12,0.60,220.462,M,44.078,M,,*46
$GNGSA,A,3,24,29,31,32,25,12,06,02,,,,,1.18,0.60,1.02,1*02
$GNGSA,A,3,33,31,26,01,24,09,05,13,,,,,1.18,0.60,1.02,3*01
$GNGSA,A,3,13,12,25,26,24,35,,,,,,,1.18,0.60,1.02,4*0B
$GPGSV,3,1,09,02,42,091,36,03,00,345,,06,24,045,27,12,63,078,50,1*6F
$GPGSV,3,2,09,24,23,155,46,25,78,304,41,29,44,213,45,31,24,310,47,1*6D
$GPGSV,3,3,09,32,28,260,42,1*54
$GPGSV,3,1,09,02,42,091,,03,00,345,,06,24,045,12,12,63,078,43,6*69
$GPGSV,3,2,09,24,23,155,43,25,78,304,46,29,44,213,45,31,24,310,38,6*60
$GPGSV,3,3,09,32,28,260,43,6*52
$GAGSV,3,1,12,01,46,096,40,03,00,350,,04,00,206,,05,21,305,46,7*7D
$GAGSV,3,2,12,09,21,252,47,12,02,183,,13,11,029,21,21,00,102,,7*7C
$GAGSV,3,3,12,24,24,286,47,26,45,077,34,31,74,302,42,33,38,146,46,7*71
$GAGSV,3,1,12,01,46,096,38,03,00,350,,04,00,206,,05,21,305,46,2*77
$GAGSV,3,2,12,09,21,252,48,12,02,183,,13,11,029,24,21,00,102,,2*73
$GAGSV,3,3,12,24,24,286,49,26,45,077,36,31,74,302,48,33,38,146,34,2*77
$GBGSV,3,1,10,02,04,106,,05,18,128,,10,04,083,16,12,37,191,44,1*74
$GBGSV,3,2,10,13,32,085,30,24,82,263,38,25,25,302,47,26,44,131,33,1*7E
$GBGSV,3,3,10,29,03,039,18,35,47,062,39,1*77
$GBGSV,3,1,10,02,04,106,,05,18,128,,10,04,083,26,12,37,191,49,3*78
$GBGSV,3,2,10,13,32,085,31,24,82,263,,25,25,302,,26,44,131,,3*75
$GBGSV,3,3,10,29,03,039,,35,47,062,,3*76
$GNGLL,5025.4455713,N,01411.3810553,E,214417.00,A,A*79
$GNRMC,214418.00,A,5025.4455794,N,01411.3810740,E,0.007,,241021,,,A,V*19
$GNVTG,,T,,M,0.007,N,0.013,K,A*38
$GNGGA,214418.00,5025.4455794,N,01411.3810740,E,1,12,0.60,220.329,M,44.078,M,,*4E
$GNGSA,A,3,24,29,31,32,25,12,06,02,,,,,1.18,0.60,1.02,1*02
$GNGSA,A,3,33,31,26,01,24,09,05,13,,,,,1.18,0.60,1.02,3*01
$GNGSA,A,3,13,12,25,26,24,35,,,,,,,1.18,0.60,1.02,4*0B
$GPGSV,3,1,09,02,42,091,36,03,00,345,,06,24,045,27,12,63,078,50,1*6F
$GPGSV,3,2,09,24,23,155,46,25,78,304,42,29,44,213,45,31,24,310,47,1*6E
$GPGSV,3,3,09,32,28,260,42,1*54
$GPGSV,3,1,09,02,42,091,,03,00,345,,06,24,045,14,12,63,078,43,6*6F
$GPGSV,3,2,09,24,23,155,43,25,78,304,46,29,44,213,45,31,24,310,38,6*60
$GPGSV,3,3,09,32,28,260,43,6*52
$GAGSV,3,1,12,01,46,096,40,03,00,350,,04,00,206,,05,21,305,46,7*7D
$GAGSV,3,2,12,09,21,252,47,12,02,183,,13,11,029,21,21,00,102,,7*7C
$GAGSV,3,3,12,24,24,286,47,26,45,077,34,31,74,302,42,33,38,146,46,7*71
$GAGSV,3,1,12,01,46,096,38,03,00,350,,04,00,206,,05,21,305,46,2*77
$GAGSV,3,2,12,09,21,252,48,12,02,183,,13,11,029,24,21,00,102,,2*73
$GAGSV,3,3,12,24,24,286,49,26,45,077,36,31,74,302,48,33,38,146,35,2*76
$GBGSV,3,1,10,02,04,106,,05,18,128,,10,04,083,17,12,37,191,44,1*75
$GBGSV,3,2,10,13,32,085,30,24,82,263,37,25,25,302,47,26,44,131,33,1*71
$GBGSV,3,3,10,29,03,039,19,35,47,062,39,1*76
$GBGSV,3,1,10,02,04,106,,05,18,128,,10,04,083,26,12,37,191,49,3*78
$GBGSV,3,2,10,13,32,085,30,24,82,263,,25,25,302,,26,44,131,,3*74
$GBGSV,3,3,10,29,03,039,,35,47,062,,3*76
$GNGLL,5025.4455794,N,01411.3810740,E,214418.00,A,A*79
$GNRMC,214419.00,A,5025.4455939,N,01411.3811691,E,0.040,,241021,,,D,V*1B
$GNVTG,,T,,M,0.040,N,0.073,K,D*38
$GNGGA,214419.00,5025.4455939,N,01411.3811691,E,2,12,0.70,220.534,M,44.078,M,1.0,0084*61
$GNGSA,A,3,24,29,31,32,25,12,06,02,,,,,1.51,0.70,1.34,1*0B
$GNGSA,A,3,33,31,26,01,24,09,05,13,,,,,1.51,0.70,1.34,3*08
$GNGSA,A,3,13,12,25,26,24,35,,,,,,,1.51,0.70,1.34,4*02
$GPGSV,3,1,09,02,42,091,36,03,00,345,,06,24,045,28,12,63,078,50,1*60
$GPGSV,3,2,09,24,23,155,46,25,78,304,42,29,44,213,45,31,24,310,47,1*6E
$GPGSV,3,3,09,32,28,260,42,1*54
$GPGSV,3,1,09,02,42,091,,03,00,345,,06,24,045,16,12,63,078,43,6*6D
$GPGSV,3,2,09,24,23,155,43,25,78,304,46,29,44,213,45,31,24,310,38,6*60
$GPGSV,3,3,09,32,28,260,43,6*52
$GAGSV,3,1,12,01,46,096,40,03,00,350,,04,00,206,,05,21,305,46,7*7D
$GAGSV,3,2,12,09,21,252,47,12,02,183,,13,11,029,21,21,00,102,,7*7C
$GAGSV,3,3,12,24,24,286,47,26,45,077,34,31,74,302,42,33,38,146,46,7*71
$GAGSV,3,1,12,01,46,096,38,03,00,350,,04,00,206,,05,21,305,46,2*77
$GAGSV,3,2,12,09,21,252,48,12,02,183,,13,11,029,24,21,00,102,,2*73
$GAGSV,3,3,12,24,24,286,49,26,45,077,36,31,74,302,48,33,38,146,35,2*76
$GBGSV,3,1,10,02,04,106,,05,18,128,,10,04,083,17,12,37,191,44,1*75
$GBGSV,3,2,10,13,32,085,30,24,82,263,37,25,25,302,47,26,44,131,32,1*70
$GBGSV,3,3,10,29,03,039,19,35,47,062,39,1*76
$GBGSV,3,1,10,02,04,106,,05,18,128,,10,04,083,26,12,37,191,49,3*78
$GBGSV,3,2,10,13,32,085,31,24,82,263,,25,25,302,,26,44,131,,3*75
$GBGSV,3,3,10,29,03,039,,35,47,062,,3*76
$GNGLL,5025.4455939,N,01411.3811691,E,214419.00,A,D*78
$GNRMC,214420.00,A,5025.4447478,N,01411.3817827,E,0.004,,241021,,,R,V*09
$GNVTG,,T,,M,0.004,N,0.007,K,D*3B
$GNGGA,214420.00,5025.4447478,N,01411.3817827,E,4,12,0.69,217.803,M,44.078,M,1.0,0084*66
$GNGSA,A,3,24,29,31,32,25,12,06,02,,,,,1.38,0.69,1.20,1*09
$GNGSA,A,3,33,31,26,01,24,09,05,13,,,,,1.38,0.69,1.20,3*0A
$GNGSA,A,3,13,12,25,26,24,35,,,,,,,1.38,0.69,1.20,4*00
$GPGSV,3,1,09,02,42,091,36,03,00,345,,06,24,045,27,12,63,078,50,1*6F
$GPGSV,3,2,09,24,23,155,46,25,78,304,42,29,44,213,45,31,24,310,47,1*6E
$GPGSV,3,3,09,32,28,260,42,1*54
$GPGSV,3,1,09,02,42,091,,03,00,345,,06,24,045,15,12,63,078,43,6*6E
$GPGSV,3,2,09,24,23,155,43,25,78,304,46,29,44,213,45,31,24,310,38,6*60
$GPGSV,3,3,09,32,28,260,43,6*52
$GAGSV,3,1,12,01,46,096,40,03,00,350,,04,00,206,,05,21,305,46,7*7D
$GAGSV,3,2,12,09,21,252,47,12,02,183,,13,11,029,21,21,00,102,,7*7C
$GAGSV,3,3,12,24,24,286,47,26,45,077,34,31,74,302,42,33,38,146,46,7*71
$GAGSV,3,1,12,01,46,096,38,03,00,350,,04,00,206,,05,21,305,46,2*77
$GAGSV,3,2,12,09,21,252,48,12,02,183,,13,11,029,24,21,00,102,,2*73
$GAGSV,3,3,12,24,24,286,49,26,45,077,36,31,74,302,48,33,38,146,35,2*76
$GBGSV,3,1,10,02,04,106,,05,18,128,,10,04,083,16,12,37,191,44,1*74
$GBGSV,3,2,10,13,32,085,30,24,82,263,37,25,25,302,46,26,44,131,32,1*71
$GBGSV,3,3,10,29,03,039,19,35,47,062,39,1*76
$GBGSV,3,1,10,02,04,106,,05,18,128,,10,04,083,26,12,37,191,49,3*78
$GBGSV,3,2,10,13,32,085,31,24,82,263,,25,25,302,,26,44,131,,3*75
$GBGSV,3,3,10,29,03,039,,35,47,062,,3*76
$GNGLL,5025.4447478,N,01411.3817827,E,214420.00,A,D*7C
$GNRMC,214421.00,A,5025.4447510,N,01411.3817911,E,0.012,,241021,,,R,V*04
$GNVTG,,T,,M,0.012,N,0.022,K,D*3B
$GNGGA,214421.00,5025.4447510,N,01411.3817911,E,4,12,0.69,217.794,M,44.078,M,1.0,0084*6D
$GNGSA,A,3,24,29,31,32,25,12,06,02,,,,,1.38,0.69,1.20,1*09
$GNGSA,A,3,33,31,26,01,24,09,05,13,,,,,1.38,0.69,1.20,3*0A
$GNGSA,A,3,13,12,25,26,24,35,,,,,,,1.38,0.69,1.20,4*00
$GPGSV,3,1,09,02,42,091,36,03,00,345,,06,24,045,27,12,63,078,50,1*6F
$GPGSV,3,2,09,24,23,155,46,25,78,304,42,29,44,213,45,31,24,310,47,1*6E
$GPGSV,3,3,09,32,28,260,42,1*54
$GPGSV,3,1,09,02,42,091,,03,00,345,,06,24,045,15,12,63,078,43,6*6E
$GPGSV,3,2,09,24,23,155,43,25,78,304,46,29,44,213,45,31,24,310,38,6*60
$GPGSV,3,3,09,32,28,260,43,6*52
$GAGSV,3,1,12,01,46,096,40,03,00,350,,04,00,206,,05,21,305,46,7*7D
$GAGSV,3,2,12,09,21,252,47,12,02,183,,13,11,029,21,21,00,102,,7*7C
$GAGSV,3,3,12,24,24,286,47,26,45,077,35,31,74,302,42,33,38,146,46,7*70
$GAGSV,3,1,12,01,46,096,38,03,00,350,,04,00,206,,05,21,305,46,2*77
$GAGSV,3,2,12,09,21,252,48,12,02,183,,13,11,029,24,21,00,102,,2*73
$GAGSV,3,3,12,24,24,286,49,26,45,077,36,31,74,302,48,33,38,146,36,2*75
$GBGSV,3,1,10,02,04,106,,05,18,128,,10,04,083,16,12,37,191,44,1*74
$GBGSV,3,2,10,13,32,085,30,24,82,263,37,25,25,302,46,26,44,131,32,1*71
$GBGSV,3,3,10,29,03,039,19,35,47,062,40,1*78
$GBGSV,3,1,10,02,04,106,,05,18,128,,10,04,083,26,12,37,191,49,3*78
$GBGSV,3,2,10,13,32,085,31,24,82,263,,25,25,302,,26,44,131,,3*75
$GBGSV,3,3,10,29,03,039,,35,47,062,,3*76
$GNGLL,5025.4447510,N,01411.3817911,E,214421.00,A,D*76
$GNRMC,214422.00,A,5025.4447501,N,01411.3817895,E,0.020,,241021,,,R,V*0B
$GNVTG,,T,,M,0.020,N,0.037,K,D*3E
$GNGGA,214422.00,5025.4447501,N,01411.3817895,E,4,12,0.69,217.793,M,44.078,M,1.0,0084*64
$GNGSA,A,3,24,29,31,32,25,12,06,02,,,,,1.38,0.69,1.20,1*09
$GNGSA,A,3,33,31,26,01,24,09,05,13,,,,,1.38,0.69,1.20,3*0A
$GNGSA,A,3,13,12,25,26,24,35,,,,,,,1.38,0.69,1.20,4*00
$GPGSV,3,1,09,02,42,091,36,03,00,345,,06,24,045,27,12,63,078,50,1*6F
$GPGSV,3,2,09,24,23,155,46,25,78,304,42,29,44,213,45,31,24,310,47,1*6E
$GPGSV,3,3,09,32,28,260,42,1*54
$GPGSV,3,1,09,02,42,091,,03,00,345,,06,24,045,17,12,63,078,43,6*6C
$GPGSV,3,2,09,24,23,155,43,25,78,304,46,29,44,213,45,31,24,310,38,6*60
$GPGSV,3,3,09,32,28,260,43,6*52
$GAGSV,3,1,12,01,46,096,40,03,00,350,,04,00,206,,05,21,305,46,7*7D
$GAGSV,3,2,12,09,21,252,47,12,02,183,,13,11,029,21,21,00,102,,7*7C
$GAGSV,3,3,12,24,24,286,47,26,45,077,35,31,74,302,42,33,38,146,45,7*73
$GAGSV,3,1,12,01,46,096,38,03,00,350,,04,00,206,,05,21,305,46,2*77
$GAGSV,3,2,12,09,21,252,48,12,02,183,,13,11,029,23,21,00,102,,2*74
$GAGSV,3,3,12,24,24,286,49,26,45,077,36,31,74,302,48,33,38,146,36,2*75
$GBGSV,3,1,10,02,04,106,,05,18,128,,10,04,083,17,12,37,191,44,1*75
$GBGSV,3,2,10,13,32,085,30,24,82,263,37,25,25,302,46,26,44,131,32,1*71
$GBGSV,3,3,10,29,03,039,20,35,47,062,40,1*72
$GBGSV,3,1,10,02,04,106,,05,18,128,,10,04,083,26,12,37,191,48,3*79
$GBGSV,3,2,10,13,32,085,31,24,82,263,,25,25,302,,26,44,131,,3*75
$GBGSV,3,3,10,29,03,039,,35,47,062,,3*76
$GNGLL,5025.4447501,N,01411.3817895,E,214422.00,A,D*78
$GNRMC,214423.00,A,5025.4447507,N,01411.3817911,E,0.015,,241021,,,R,V*07
$GNVTG,,T,,M,0.015,N,0.029,K,D*37
$GNGGA,214423.00,5025.4447507,N,01411.3817911,E,4,12,0.69,217.792,M,44.078,M,1.0,0084*6F
$GNGSA,A,3,24,29,31,32,25,12,06,02,,,,,1.38,0.69,1.20,1*09
$GNGSA,A,3,33,31,26,01,24,09,05,13,,,,,1.38,0.69,1.20,3*0A
$GNGSA,A,3,13,12,25,26,24,35,,,,,,,1.38,0.69,1.20,4*00
$GPGSV,3,1,09,02,42,091,36,03,00,345,,06,24,045,28,12,63,078,50,1*60
$GPGSV,3,2,09,24,23,155,46,25,78,304,42,29,44,213,45,31,24,310,47,1*6E
$GPGSV,3,3,09,32,28,260,42,1*54
$GPGSV,3,1,09,02,42,091,,03,00,345,,06,24,045,17,12,63,078,43,6*6C
$GPGSV,3,2,09,24,23,155,43,25,78,304,46,29,44,213,45,31,24,310,38,6*60
$GPGSV,3,3,09,32,28,260,43,6*52
$GAGSV,3,1,12,01,46,096,40,03,00,350,,04,00,206,,05,21,305,46,7*7D
$GAGSV,3,2,12,09,21,252,47,12,02,183,,13,11,029,21,21,00,102,,7*7C
$GAGSV,3,3,12,24,24,286,47,26,45,077,35,31,74,302,42,33,38,146,45,7*73
$GAGSV,3,1,12,01,46,096,38,03,00,350,,04,00,206,,05,21,305,46,2*77
$GAGSV,3,2,12,09,21,252,48,12,02,183,,13,11,029,23,21,00,102,,2*74
$GAGSV,3,3,12,24,24,286,49,26,45,077,36,31,74,302,48,33,38,146,36,2*75
$GBGSV,3,1,10,02,04,106,,05,18,128,,10,04,083,18,12,37,191,44,1*7A
$GBGSV,3,2,10,13,32,085,30,24,82,263,37,25,25,302,46,26,44,131,32,1*71
$GBGSV,3,3,10,29,03,039,21,35,47,062,39,1*7D
$GBGSV,3,1,10,02,04,106,,05,18,128,,10,04,083,25,12,37,191,48,3*7A
$GBGSV,3,2,10,13,32,085,31,24,82,263,,25,25,302,,26,44,131,,3*75
$GBGSV,3,3,10,29,03,039,,35,47,062,,3*76
$GNGLL,5025.4447507,N,01411.3817911,E,214423.00,A,D*72
$GNRMC,214424.00,A,5025.4447507,N,01411.3817889,E,0.011,,241021,,,R,V*04
$GNVTG,,T,,M,0.011,N,0.021,K,D*3B
$GNGGA,214424.00,5025.4447507,N,01411.3817889,E,4,12,0.64,217.794,M,44.078,M,1.0,0084*63
$GNGSA,A,3,24,29,31,32,25,12,06,02,,,,,1.29,0.64,1.12,1*05
$GNGSA,A,3,33,31,26,01,24,09,05,13,,,,,1.29,0.64,1.12,3*06
$GNGSA,A,3,13,12,25,26,24,35,,,,,,,1.29,0.64,1.12,4*0C
$GPGSV,3,1,09,02,42,091,36,03,00,345,,06,24,045,28,12,63,078,50,1*60
$GPGSV,3,2,09,24,23,155,46,25,78,304,42,29,44,213,45,31,24,310,47,1*6E
$GPGSV,3,3,09,32,28,260,43,1*55
$GPGSV,3,1,09,02,42,091,,03,00,345,,06,24,045,17,12,63,078,43,6*6C
$GPGSV,3,2,09,24,23,155,43,25,78,304,46,29,44,213,45,31,24,310,38,6*60
$GPGSV,3,3,09,32,28,260,43,6*52
$GAGSV,3,1,12,01,46,096,40,03,00,350,,04,00,206,,05,21,305,46,7*7D
$GAGSV,3,2,12,09,21,252,47,12,02,183,,13,11,029,21,21,00,102,,7*7C
$GAGSV,3,3,12,24,24,286,47,26,45,077,36,31,74,302,42,33,38,146,45,7*70
$GAGSV,3,1,12,01,46,096,38,03,00,350,,04,00,206,,05,21,305,46,2*77
$GAGSV,3,2,12,09,21,252,48,12,02,183,,13,11,029,23,21,00,102,,2*74
$GAGSV,3,3,12,24,24,286,49,26,45,077,36,31,74,302,48,33,38,146,37,2*74
$GBGSV,3,1,10,02,04,106,,05,18,128,,10,04,083,18,12,37,191,44,1*7A
$GBGSV,3,2,10,13,32,085,30,24,82,263,37,25,25,302,46,26,44,131,32,1*71
$GBGSV,3,3,10,29,03,039,21,35,47,062,39,1*7D
$GBGSV,3,1,10,02,04,106,,05,18,128,,10,04,083,26,12,37,191,48,3*79
$GBGSV,3,2,10,13,32,085,32,24,82,263,,25,25,302,,26,44,131,,3*76
$GBGSV,3,3,10,29,03,039,,35,47,062,,3*76
$GNGLL,5025.4447507,N,01411.3817889,E,214424.00,A,D*75
$GNRMC,214425.00,A,5025.4447505,N,01411.3817896,E,0.012,,241021,,,R,V*0A
$GNVTG,,T,,M,0.012,N,0.022,K,D*3B
$GNGGA,214425.00,5025.4447505,N,01411.3817896,E,4,12,0.63,217.791,M,44.078,M,1.0,0084*6C
$GNGSA,A,3,24,29,31,32,25,12,06,02,,,,,1.29,0.63,1.12,1*02
$GNGSA,A,3,33,31,26,01,24,09,05,13,,,,,1.29,0.63,1.12,3*01
$GNGSA,A,3,13,12,25,26,24,35,,,,,,,1.29,0.63,1.12,4*0B
$GPGSV,3,1,09,02,42,091,36,03,00,345,,06,24,045,28,12,63,078,50,1*60
$GPGSV,3,2,09,24,23,155,46,25,78,304,42,29,44,213,45,31,24,310,47,1*6E
$GPGSV,3,3,09,32,28,260,43,1*55
$GPGSV,3,1,09,02,42,091,,03,00,345,,06,24,045,17,12,63,078,43,6*6C
$GPGSV,3,2,09,24,23,155,43,25,78,304,46,29,44,213,45,31,24,310,38,6*60
$GPGSV,3,3,09,32,28,260,43,6*52
$GAGSV,3,1,12,01,46,096,40,03,00,350,,04,00,206,,05,21,305,46,7*7D
$GAGSV,3,2,12,09,21,252,47,12,02,183,,13,11,029,21,21,00,102,,7*7C
$GAGSV,3,3,12,24,24,286,48,26,45,077,36,31,74,302,42,33,38,146,45,7*7F
$GAGSV,3,1,12,01,46,096,38,03,00,350,,04,00,206,,05,21,305,46,2*77
$GAGSV,3,2,12,09,21,252,48,12,02,183,,13,11,029,23,21,00,102,,2*74
$GAGSV,3,3,12,24,24,286,49,26,45,077,36,31,74,302,48,33,38,146,37,2*74
$GBGSV,3,1,10,02,04,106,,05,18,128,,10,04,083,18,12,37,191,44,1*7A
$GBGSV,3,2,10,13,32,085,30,24,82,263,37,25,25,302,46,26,44,131,32,1*71
$GBGSV,3,3,10,29,03,039,22,35,47,062,39,1*7E
$GBGSV,3,1,10,02,04,106,,05,18,128,,10,04,083,26,12,37,191,48,3*79
$GBGSV,3,2,10,13,32,085,31,24,82,263,,25,25,302,,26,44,131,,3*75
$GBGSV,3,3,10,29,03,039,,35,47,062,,3*76
$GNGLL,5025.4447505,N,01411.3817896,E,214425.00,A,D*78
$GNRMC,214426.00,A,5025.4447516,N,01411.3817903,E,0.014,,241021,,,R,V*00
$GNVTG,,T,,M,0.014,N,0.026,K,D*39
$GNGGA,214426.00,5025.4447516,N,01411.3817903,E,4,12,0.63,217.792,M,44.078,M,1.0,0084*63
$GNGSA,A,3,24,29,31,32,25,12,06,02,,,,,1.29,0.63,1.12,1*02
$GNGSA,A,3,33,31,26,01,24,09,05,13,,,,,1.29,0.63,1.12,3*01
$GNGSA,A,3,13,12,25,26,24,35,,,,,,,1.29,0.63,1.12,4*0B
$GPGSV,3,1,09,02,42,091,37,03,00,345,,06,24,045,28,12,63,078,50,1*61
$GPGSV,3,2,09,24,23,155,46,25,78,304,42,29,44,213,45,31,24,310,47,1*6E
$GPGSV,3,3,09,32,28,260,43,1*55
$GPGSV,3,1,09,02,42,091,,03,00,345,,06,24,045,16,12,63,078,43,6*6D
$GPGSV,3,2,09,24,23,155,43,25,78,304,46,29,44,213,45,31,24,310,38,6*60
$GPGSV,3,3,09,32,28,260,43,6*52
$GAGSV,3,1,12,01,46,096,40,03,00,350,,04,00,206,,05,21,305,46,7*7D
$GAGSV,3,2,12,09,21,252,47,12,02,183,,13,11,029,21,21,00,102,,7*7C
$GAGSV,3,3,12,24,24,286,48,26,45,077,36,31,74,302,42,33,38,146,45,7*7F
$GAGSV,3,1,12,01,46,096,38,03,00,350,,04,00,206,,05,21,305,46,2*77
$GAGSV,3,2,12,09,21,252,48,12,02,183,,13,11,029,23,21,00,102,,2*74
$GAGSV,3,3,12,24,24,286,49,26,45,077,36,31,74,302,48,33,38,146,37,2*74
$GBGSV,3,1,10,02,04,106,,05,18,128,,10,04,083,19,12,37,191,44,1*7B
$GBGSV,3,2,10,13,32,085,30,24,82,263,37,25,25,302,46,26,44,131,32,1*71
$GBGSV,3,3,10,29,03,039,21,35,47,062,39,1*7D
$GBGSV,3,1,10,02,04,106,,05,18,128,,10,04,083,26,12,37,191,48,3*79
$GBGSV,3,2,10,13,32,085,31,24,82,263,,25,25,302,,26,44,131,,3*75
$GBGSV,3,3,10,29,03,039,,35,47,062,,3*76
$GNGLL,5025.4447516,N,01411.3817903,E,214426.00,A,D*74
$GNRMC,214427.00,A,5025.4447509,N,01411.3817902,E,0.001,,241021,,,R,V*0A
$GNVTG,,T,,M,0.001,N,0.002,K,D*3B
$GNGGA,214427.00,5025.4447509,N,01411.3817902,E,4,12,0.63,217.793,M,44.078,M,1.0,0084*6C
$GNGSA,A,3,24,29,31,32,25,12,06,02,,,,,1.29,0.63,1.12,1*02
$GNGSA,A,3,33,31,26,01,24,09,05,13,,,,,1.29,0.63,1.12,3*01
