$GNGGA,211600.00,5025.4447659,N,01411.3818309,E,4,12,0.65,217.750,M,44.078,M,1.0,0084*6F
$GNGSA,A,3,24,31,32,29,12,25,06,02,,,,,1.17,0.65,0.97,1*05
$GNGSA,A,3,81,87,88,69,79,77,78,,,,,,1.17,0.65,0.97,2*00
$GNGSA,A,3,12,13,24,35,25,26,,,,,,,1.17,0.65,0.97,4*0C
$GPGSV,3,1,10,02,36,106,32,03,02,356,24,06,28,058,,12,75,059,47,1*6E
$GPGSV,3,2,10,19,08,044,31,24,35,152,45,25,66,283,44,29,31,209,46,1*6F
$GPGSV,3,3,10,31,12,310,42,32,34,274,51,1*63
$GPGSV,3,1,10,02,36,106,,03,02,356,16,06,28,058,28,12,75,059,43,6*67
$GPGSV,3,2,10,19,08,044,,24,35,152,42,25,66,283,47,29,31,209,42,6*6A
$GPGSV,3,3,10,31,12,310,41,32,34,274,43,6*64
$GLGSV,3,1,10,68,07,244,43,69,23,292,48,70,11,351,,77,35,104,22,1*7F
$GLGSV,3,2,10,78,75,001,51,79,28,303,50,81,11,183,41,86,03,019,16,1*75
$GLGSV,3,3,10,87,54,061,50,88,53,145,48,1*7F
$GLGSV,3,1,10,68,07,244,36,69,23,292,43,70,11,351,,77,35,104,12,3*77
$GLGSV,3,2,10,78,75,001,45,79,28,303,41,81,11,183,38,86,03,019,,3*7B
$GLGSV,3,3,10,87,54,061,,88,53,145,41,3*71
$GBGSV,3,1,11,02,04,106,,05,18,128,,10,07,078,,12,25,189,44,1*7F
$GBGSV,3,2,11,13,27,089,26,24,72,292,44,25,15,299,48,26,56,124,44,1*72
$GBGSV,3,3,11,29,13,040,,33,04,262,43,35,54,077,43,1*4E
$GBGSV,3,1,11,02,04,106,,05,18,128,,10,07,078,26,12,25,189,48,3*75
$GBGSV,3,2,11,13,27,089,22,24,72,292,,25,15,299,12,26,56,124,,3*7B
$GBGSV,3,3,11,29,13,040,,33,04,262,,35,54,077,,3*4C
$GNGLL,5025.4447659,N,01411.3818309,E,211600.00,A,D*70
$GNTXT,01,01,02,Starting GNSS*5A
$GNRMC,211600.22,V,,,,,,,241021,,,N,V*19
$GNVTG,,,,,,,,,N*2E
$GNGGA,211600.22,,,,,0,00,99.99,,,,,,*7C
$GNGSA,A,1,,,,,,,,,,,,,99.99,99.99,99.99,1*33
$GNGSA,A,1,,,,,,,,,,,,,99.99,99.99,99.99,3*31
$GNGSA,A,1,,,,,,,,,,,,,99.99,99.99,99.99,4*36
$GPGSV,1,1,00,1*64
$GPGSV,1,1,00,6*63
$GAGSV,1,1,00,7*73
$GAGSV,1,1,00,2*76
$GBGSV,1,1,00,1*76
$GBGSV,1,1,00,3*74
$GNGLL,,,,,211600.22,V,N*50
$GNRMC,211601.00,A,5025.4460008,N,01411.3817161,E,0.161,,241021,,,A,V*11
$GNVTG,,T,,M,0.161,N,0.299,K,A*39
$GNGGA,211601.00,5025.4460008,N,01411.3817161,E,1,12,0.76,217.757,M,44.078,M,,*49
$GNGSA,A,3,24,25,29,31,32,12,02,,,,,,1.35,0.76,1.11,1*0E
$GNGSA,A,3,33,31,26,01,24,05,09,,,,,,1.35,0.76,1.11,3*09
$GNGSA,A,3,12,35,26,24,25,,,,,,,,1.35,0.76,1.11,4*03
$GPGSV,3,1,10,02,36,106,32,03,02,356,27,06,28,058,,12,75,059,47,1*6D
$GPGSV,3,2,10,19,08,044,31,24,35,152,45,25,66,284,44,29,31,209,46,1*68
$GPGSV,3,3,10,31,13,310,42,32,33,274,51,1*65
$GPGSV,3,1,10,02,36,106,,03,02,356,,06,28,058,28,12,75,059,45,5*65
$GPGSV,3,2,10,19,08,044,,24,35,152,44,25,66,284,48,29,31,209,44,5*61
$GPGSV,3,3,10,31,13,310,42,32,33,274,44,5*65
$GAGSV,3,1,10,01,55,087,45,04,09,210,29,05,20,314,45,09,28,260,42,7*7B
$GAGSV,3,2,10,13,18,034,27,21,08,095,,24,16,280,46,26,43,091,38,7*74
$GAGSV,3,3,10,31,64,291,44,33,28,151,45,7*76
$GAGSV,3,1,10,01,55,087,42,04,09,210,,05,20,314,39,09,28,260,47,2*7C
$GAGSV,3,2,10,13,18,034,,21,08,095,29,24,16,280,49,26,43,091,,2*7B
$GAGSV,3,3,10,31,64,291,51,33,28,151,48,2*7A
$GBGSV,3,1,11,02,04,106,,05,18,128,,10,07,078,,12,25,189,44,1*7F
$GBGSV,3,2,11,13,27,089,26,24,72,292,44,25,15,299,48,26,55,124,44,1*71
$GBGSV,3,3,11,29,12,040,,33,04,261,44,35,54,076,43,1*4A
$GBGSV,3,1,11,02,04,106,,05,18,128,,10,07,078,26,12,25,189,49,3*74
$GBGSV,3,2,11,13,27,089,25,24,72,292,,25,15,299,,26,55,124,,3*7C
$GBGSV,3,3,11,29,12,040,,33,04,261,,35,54,076,,3*4F
$GNGLL,5025.4460008,N,01411.3817161,E,211601.00,A,A*70
$GNRMC,211602.00,A,5025.4459891,N,01411.3811421,E,0.053,,241021,,,A,V*17
$GNVTG,,T,,M,0.053,N,0.098,K,A*3A
$GNGGA,211602.00,5025.4459891,N,01411.3811421,E,1,12,0.59,219.359,M,44.078,M,,*46
$GNGSA,A,3,24,25,29,31,32,06,12,02,,,,,1.12,0.59,0.95,1*0D
$GNGSA,A,3,33,31,26,01,24,05,09,13,,,,,1.12,0.59,0.95,3*0E
$GNGSA,A,3,12,35,26,13,24,25,,,,,,,1.12,0.59,0.95,4*04
$GPGSV,3,1,10,02,36,106,32,03,02,356,26,06,28,058,,12,75,059,47,1*6C
$GPGSV,3,2,10,19,08,044,,24,35,152,44,25,66,284,44,29,31,209,46,1*6B
$GPGSV,3,3,10,31,13,310,42,32,33,274,50,1*64
$GPGSV,3,1,10,02,36,106,,03,02,356,18,06,28,058,28,12,75,059,44,6*6E
$GPGSV,3,2,10,19,08,044,18,24,35,152,42,25,66,284,47,29,31,209,43,6*65
$GPGSV,3,3,10,31,13,310,40,32,33,274,43,6*63
$GAGSV,3,1,10,01,55,087,44,04,09,210,29,05,20,314,44,09,28,260,41,7*78
$GAGSV,3,2,10,13,18,034,27,21,08,095,,24,16,280,45,26,43,091,36,7*79
$GAGSV,3,3,10,31,64,291,43,33,28,151,44,7*70
$GAGSV,3,1,10,01,55,087,42,04,09,210,,05,20,314,40,09,28,260,48,2*7D
$GAGSV,3,2,10,13,18,034,,21,08,095,29,24,16,280,49,26,43,091,,2*7B
$GAGSV,3,3,10,31,64,291,52,33,28,151,49,2*78
$GBGSV,3,1,11,02,04,106,,05,18,128,,10,07,078,,12,25,189,44,1*7F
$GBGSV,3,2,11,13,27,089,26,24,72,292,44,25,15,299,48,26,55,124,44,1*71
$GBGSV,3,3,11,29,12,040,,33,04,261,43,35,54,076,43,1*4D
$GBGSV,3,1,11,02,04,106,,05,18,128,,10,07,078,27,12,25,189,50,3*7D
$GBGSV,3,2,11,13,27,089,,24,72,292,,25,15,299,,26,55,124,,3*7B
$GBGSV,3,3,11,29,12,040,,33,04,261,,35,54,076,,3*4F
$GNGLL,5025.4459891,N,01411.3811421,E,211602.00,A,A*76
$GNRMC,211603.00,A,5025.4462021,N,01411.3818271,E,0.016,,241021,,,A,V*16
$GNVTG,,T,,M,0.016,N,0.029,K,A*31
$GNGGA,211603.00,5025.4462021,N,01411.3818271,E,1,12,0.59,218.674,M,44.078,M,,*4D
$GNGSA,A,3,24,25,29,31,32,06,12,02,,,,,1.12,0.59,0.95,1*0D
$GNGSA,A,3,33,31,26,01,24,05,09,13,,,,,1.12,0.59,0.95,3*0E
$GNGSA,A,3,12,35,26,13,24,25,,,,,,,1.12,0.59,0.95,4*04
$GPGSV,3,1,10,02,36,106,32,03,02,356,25,06,28,058,,12,75,059,47,1*6F
$GPGSV,3,2,10,19,08,044,31,24,35,152,44,25,66,284,44,29,31,209,46,1*69
$GPGSV,3,3,10,31,13,310,41,32,33,274,51,1*66
$GPGSV,3,1,10,02,36,106,,03,02,356,15,06,28,058,28,12,75,059,44,6*63
$GPGSV,3,2,10,19,08,044,14,24,35,152,42,25,66,284,47,29,31,209,42,6*68
$GPGSV,3,3,10,31,13,310,40,32,33,274,43,6*63
$GAGSV,3,1,10,01,55,087,44,04,09,210,29,05,20,314,44,09,28,260,41,7*78
$GAGSV,3,2,10,13,18,034,27,21,08,095,,24,16,280,45,26,43,091,36,7*79
$GAGSV,3,3,10,31,64,291,43,33,28,151,44,7*70
$GAGSV,3,1,10,01,55,087,41,04,09,210,31,05,20,314,38,09,28,260,46,2*7D
$GAGSV,3,2,10,13,18,034,,21,08,095,27,24,16,280,48,26,43,091,36,2*71
$GAGSV,3,3,10,31,64,291,50,33,28,151,47,2*74
$GBGSV,3,1,11,02,04,106,,05,18,128,,10,07,078,,12,25,189,44,1*7F
$GBGSV,3,2,11,13,27,089,25,24,72,292,43,25,15,299,48,26,55,124,44,1*75
$GBGSV,3,3,11,29,12,040,,33,04,261,43,35,54,076,43,1*4D
$GBGSV,3,1,11,02,04,106,,05,18,128,,10,07,078,27,12,25,189,49,3*75
$GBGSV,3,2,11,13,27,089,,24,72,292,,25,15,299,,26,55,124,,3*7B
$GBGSV,3,3,11,29,12,040,,33,04,261,,35,54,076,,3*4F
$GNGLL,5025.4462021,N,01411.3818271,E,211603.00,A,A*76
$GNRMC,211604.00,A,5025.4462101,N,01411.3819230,E,0.013,,241021,,,A,V*13
$GNVTG,,T,,M,0.013,N,0.024,K,A*39
$GNGGA,211604.00,5025.4462101,N,01411.3819230,E,1,12,0.59,218.606,M,44.078,M,,*48
$GNGSA,A,3,24,25,29,31,32,06,12,02,,,,,1.12,0.59,0.95,1*0D
$GNGSA,A,3,33,31,26,01,24,05,09,13,,,,,1.12,0.59,0.95,3*0E
$GNGSA,A,3,12,35,26,13,24,25,,,,,,,1.12,0.59,0.95,4*04
$GPGSV,3,1,10,02,36,106,32,03,02,356,24,06,28,058,,12,75,059,47,1*6E
$GPGSV,3,2,10,19,08,044,31,24,35,152,44,25,66,284,44,29,31,209,46,1*69
$GPGSV,3,3,10,31,13,310,41,32,33,274,50,1*67
$GPGSV,3,1,10,02,36,106,,03,02,356,09,06,28,058,28,12,75,059,43,6*69
$GPGSV,3,2,10,19,08,044,09,24,35,152,42,25,66,284,46,29,31,209,42,6*65
$GPGSV,3,3,10,31,13,310,40,32,33,274,43,6*63
$GAGSV,3,1,10,01,55,087,44,04,09,210,30,05,20,314,44,09,28,260,41,7*70
$GAGSV,3,2,10,13,18,034,27,21,08,095,,24,16,280,45,26,43,091,36,7*79
$GAGSV,3,3,10,31,64,291,43,33,28,151,44,7*70
$GAGSV,3,1,10,01,55,087,41,04,09,210,31,05,20,314,38,09,28,260,46,2*7D
$GAGSV,3,2,10,13,18,034,,21,08,095,27,24,16,280,48,26,43,091,36,2*71
$GAGSV,3,3,10,31,64,291,50,33,28,151,47,2*74
$GBGSV,3,1,11,02,04,106,,05,18,128,,10,07,078,,12,25,189,44,1*7F
$GBGSV,3,2,11,13,27,089,25,24,72,292,43,25,15,299,48,26,55,124,44,1*75
$GBGSV,3,3,11,29,12,040,,33,04,261,43,35,54,076,43,1*4D
$GBGSV,3,1,11,02,04,106,,05,18,128,,10,07,078,27,12,25,189,49,3*75
$GBGSV,3,2,11,13,27,089,,24,72,292,,25,15,299,,26,55,124,,3*7B
$GBGSV,3,3,11,29,12,040,,33,04,261,,35,54,076,14,3*4A
$GNGLL,5025.4462101,N,01411.3819230,E,211604.00,A,A*76
$GNRMC,211605.00,A,5025.4462355,N,01411.3819404,E,0.009,,241021,,,A,V*1B
$GNVTG,,T,,M,0.009,N,0.017,K,A*32
$GNGGA,211605.00,5025.4462355,N,01411.3819404,E,1,12,0.59,218.077,M,44.078,M,,*4B
$GNGSA,A,3,24,25,29,31,32,06,12,02,,,,,1.12,0.59,0.95,1*0D
$GNGSA,A,3,33,31,26,01,24,05,09,13,,,,,1.12,0.59,0.95,3*0E
$GNGSA,A,3,12,35,26,13,24,25,,,,,,,1.12,0.59,0.95,4*04
$GPGSV,3,1,10,02,36,106,32,03,02,356,25,06,28,058,,12,75,059,47,1*6F
$GPGSV,3,2,10,19,08,044,,24,35,152,44,25,66,284,44,29,31,209,46,1*6B
$GPGSV,3,3,10,31,13,310,41,32,33,274,50,1*67
$GPGSV,3,1,10,02,36,106,,03,02,356,07,06,28,058,28,12,75,059,44,6*60
$GPGSV,3,2,10,19,08,044,08,24,35,152,42,25,66,284,46,29,31,209,42,6*64
$GPGSV,3,3,10,31,13,310,40,32,33,274,43,6*63
$GAGSV,3,1,10,01,55,087,44,04,09,210,30,05,20,314,44,09,28,260,41,7*70
$GAGSV,3,2,10,13,18,034,27,21,08,095,,24,16,280,45,26,43,091,36,7*79
$GAGSV,3,3,10,31,64,291,43,33,28,151,44,7*70
$GAGSV,3,1,10,01,55,087,41,04,09,210,31,05,20,314,38,09,28,260,46,2*7D
$GAGSV,3,2,10,13,18,034,,21,08,095,27,24,16,280,47,26,43,091,37,2*7F
$GAGSV,3,3,10,31,64,291,50,33,28,151,47,2*74
$GBGSV,3,1,11,02,04,106,,05,18,128,,10,07,078,,12,25,189,44,1*7F
$GBGSV,3,2,11,13,27,089,25,24,72,292,43,25,15,299,48,26,55,124,44,1*75
$GBGSV,3,3,11,29,12,040,,33,04,261,43,35,54,076,43,1*4D
$GBGSV,3,1,11,02,04,106,,05,18,128,,10,07,078,27,12,25,189,49,3*75
$GBGSV,3,2,11,13,27,089,,24,72,292,,25,15,299,,26,55,124,,3*7B
$GBGSV,3,3,11,29,12,040,,33,04,261,,35,54,076,13,3*4D
$GNGLL,5025.4462355,N,01411.3819404,E,211605.00,A,A*75
$GNRMC,211606.00,A,5025.4462879,N,01411.3820348,E,0.006,,241021,,,A,V*17
$GNVTG,,T,,M,0.006,N,0.011,K,A*3B
$GNGGA,211606.00,5025.4462879,N,01411.3820348,E,1,12,0.59,217.716,M,44.078,M,,*47
$GNGSA,A,3,24,25,29,31,32,06,12,02,,,,,1.12,0.59,0.95,1*0D
$GNGSA,A,3,33,31,26,01,24,05,09,13,,,,,1.12,0.59,0.95,3*0E
$GNGSA,A,3,12,35,26,13,24,25,,,,,,,1.12,0.59,0.95,4*04
$GPGSV,3,1,10,02,36,106,32,03,02,356,25,06,28,058,,12,75,059,47,1*6F
$GPGSV,3,2,10,19,08,044,31,24,35,152,44,25,66,284,43,29,31,209,46,1*6E
$GPGSV,3,3,10,31,13,310,41,32,33,274,50,1*67
$GPGSV,3,1,10,02,36,106,,03,02,356,,06,28,058,28,12,75,059,44,6*67
$GPGSV,3,2,10,19,08,044,08,24,35,152,42,25,66,284,46,29,31,209,42,6*64
$GPGSV,3,3,10,31,13,310,40,32,33,274,43,6*63
$GAGSV,3,1,10,01,55,087,44,04,09,210,30,05,20,314,44,09,28,260,41,7*70
$GAGSV,3,2,10,13,18,034,26,21,08,095,,24,16,280,45,26,43,091,35,7*7B
$GAGSV,3,3,10,31,64,291,43,33,28,151,44,7*70
$GAGSV,3,1,10,01,55,087,41,04,09,210,31,05,20,314,38,09,28,260,46,2*7D
$GAGSV,3,2,10,13,18,034,,21,08,095,26,24,16,280,47,26,43,091,37,2*7E
$GAGSV,3,3,10,31,64,291,50,33,28,151,47,2*74
$GBGSV,3,1,11,02,04,106,,05,18,128,,10,07,078,,12,25,189,44,1*7F
$GBGSV,3,2,11,13,27,089,25,24,72,292,43,25,15,299,48,26,55,124,44,1*75
$GBGSV,3,3,11,29,12,040,,33,04,261,43,35,54,076,43,1*4D
$GBGSV,3,1,11,02,04,106,,05,18,128,,10,07,078,28,12,25,189,49,3*7A
$GBGSV,3,2,11,13,27,089,,24,72,292,,25,15,299,,26,55,124,,3*7B
$GBGSV,3,3,11,29,12,040,,33,04,261,,35,54,076,10,3*4E
$GNGLL,5025.4462879,N,01411.3820348,E,211606.00,A,A*76
$GNRMC,211607.00,A,5025.4463460,N,01411.3822076,E,0.010,,241021,,,A,V*18
$GNVTG,,T,,M,0.010,N,0.019,K,A*34
$GNGGA,211607.00,5025.4463460,N,01411.3822076,E,1,12,0.61,217.257,M,44.078,M,,*44
$GNGSA,A,3,24,25,29,31,32,06,12,02,,,,,1.15,0.61,0.98,1*0C
$GNGSA,A,3,33,31,26,01,24,05,09,13,,,,,1.15,0.61,0.98,3*0F
$GNGSA,A,3,12,35,26,13,24,25,,,,,,,1.15,0.61,0.98,4*05
$GPGSV,3,1,10,02,36,106,32,03,02,356,25,06,28,058,,12,75,059,47,1*6F
$GPGSV,3,2,10,19,08,044,,24,35,152,44,25,66,284,44,29,31,209,46,1*6B
$GPGSV,3,3,10,31,13,310,41,32,33,274,50,1*67
$GPGSV,3,1,10,02,36,106,,03,02,356,,06,28,058,28,12,75,059,44,6*67
$GPGSV,3,2,10,19,08,044,08,24,35,152,42,25,66,284,46,29,31,209,42,6*64
$GPGSV,3,3,10,31,13,310,40,32,33,274,43,6*63
$GAGSV,3,1,10,01,55,087,44,04,09,210,30,05,20,314,44,09,28,260,41,7*70
$GAGSV,3,2,10,13,18,034,26,21,08,095,,24,16,280,45,26,43,091,35,7*7B
$GAGSV,3,3,10,31,64,291,43,33,28,151,44,7*70
$GAGSV,3,1,10,01,55,087,41,04,09,210,31,05,20,314,38,09,28,260,46,2*7D
$GAGSV,3,2,10,13,18,034,,21,08,095,26,24,16,280,47,26,43,091,37,2*7E
$GAGSV,3,3,10,31,64,291,50,33,28,151,47,2*74
$GBGSV,3,1,11,02,04,106,,05,18,128,,10,07,078,,12,25,189,44,1*7F
$GBGSV,3,2,11,13,27,089,25,24,72,292,43,25,15,299,48,26,55,124,44,1*75
$GBGSV,3,3,11,29,12,040,,33,04,261,43,35,54,076,43,1*4D
$GBGSV,3,1,11,02,04,106,,05,18,128,,10,07,078,28,12,25,189,49,3*7A
$GBGSV,3,2,11,13,27,089,,24,72,292,,25,15,299,,26,55,124,,3*7B
$GBGSV,3,3,11,29,12,040,,33,04,261,,35,54,076,09,3*46
$GNGLL,5025.4463460,N,01411.3822076,E,211607.00,A,A*7E
$GNRMC,211608.00,A,5025.4463807,N,01411.3823067,E,0.012,,241021,,,A,V*19
$GNVTG,,T,,M,0.012,N,0.023,K,A*3F
$GNGGA,211608.00,5025.4463807,N,01411.3823067,E,1,12,0.59,216.987,M,44.078,M,,*4B
$GNGSA,A,3,24,25,29,31,32,06,12,02,,,,,1.12,0.59,0.95,1*0D
$GNGSA,A,3,33,31,26,01,24,05,09,13,,,,,1.12,0.59,0.95,3*0E
$GNGSA,A,3,12,35,26,13,24,25,,,,,,,1.12,0.59,0.95,4*04
$GPGSV,3,1,10,02,36,106,33,03,02,356,25,06,28,058,,12,75,059,47,1*6E
$GPGSV,3,2,10,19,08,044,,24,35,152,44,25,66,284,44,29,31,209,46,1*6B
$GPGSV,3,3,10,31,13,310,41,32,33,274,50,1*67
$GPGSV,3,1,10,02,36,106,,03,02,356,,06,28,058,28,12,75,059,43,6*60
$GPGSV,3,2,10,19,08,044,08,24,35,152,42,25,66,284,46,29,31,209,42,6*64
$GPGSV,3,3,10,31,13,310,40,32,33,274,43,6*63
$GAGSV,3,1,10,01,55,087,44,04,09,210,30,05,20,314,44,09,28,260,41,7*70
$GAGSV,3,2,10,13,18,034,26,21,08,095,,24,16,280,45,26,43,091,35,7*7B
$GAGSV,3,3,10,31,64,291,44,33,28,151,44,7*77
$GAGSV,3,1,10,01,55,087,41,04,09,210,31,05,20,314,38,09,28,260,46,2*7D
$GAGSV,3,2,10,13,18,034,,21,08,095,26,24,16,280,47,26,43,091,37,2*7E
$GAGSV,3,3,10,31,64,291,50,33,28,151,47,2*74
$GBGSV,3,1,11,02,04,106,,05,18,128,,10,07,078,,12,25,189,44,1*7F
$GBGSV,3,2,11,13,27,089,24,24,72,292,43,25,15,299,48,26,55,124,44,1*74
$GBGSV,3,3,11,29,12,040,,33,04,261,43,35,54,076,43,1*4D
$GBGSV,3,1,11,02,04,106,,05,18,128,,10,07,078,28,12,25,189,49,3*7A
$GBGSV,3,2,11,13,27,089,,24,72,292,,25,15,299,,26,55,124,,3*7B
$GBGSV,3,3,11,29,12,040,,33,04,261,,35,54,076,08,3*47
$GNGLL,5025.4463807,N,01411.3823067,E,211608.00,A,A*7D
$GNRMC,211609.00,A,5025.4464012,N,01411.3823975,E,0.010,,241021,,,A,V*1B
$GNVTG,,T,,M,0.010,N,0.018,K,A*35
$GNGGA,211609.00,5025.4464012,N,01411.3823975,E,1,12,0.59,216.714,M,44.078,M,,*4F
$GNGSA,A,3,24,25,29,31,32,06,12,02,,,,,1.12,0.59,0.95,1*0D
$GNGSA,A,3,33,31,26,01,24,05,09,13,,,,,1.12,0.59,0.95,3*0E
$GNGSA,A,3,12,35,26,13,24,25,,,,,,,1.12,0.59,0.95,4*04
$GPGSV,3,1,10,02,36,106,33,03,02,356,25,06,28,058,,12,75,059,47,1*6E
$GPGSV,3,2,10,19,08,044,31,24,35,152,44,25,66,284,44,29,31,209,46,1*69
$GPGSV,3,3,10,31,13,310,41,32,33,274,50,1*67
$GPGSV,3,1,10,02,36,106,,03,02,356,,06,28,058,29,12,75,059,43,6*61
$GPGSV,3,2,10,19,08,044,,24,35,152,42,25,66,284,46,29,31,209,42,6*6C
$GPGSV,3,3,10,31,13,310,40,32,33,274,43,6*63
$GAGSV,3,1,10,01,55,087,44,04,09,210,30,05,20,314,44,09,28,260,41,7*70
$GAGSV,3,2,10,13,18,034,26,21,08,095,,24,16,280,45,26,43,091,35,7*7B
$GAGSV,3,3,10,31,64,291,44,33,28,151,44,7*77
$GAGSV,3,1,10,01,55,087,41,04,09,210,31,05,20,314,38,09,28,260,46,2*7D
$GAGSV,3,2,10,13,18,034,22,21,08,095,26,24,16,280,47,26,43,091,37,2*7E
$GAGSV,3,3,10,31,64,291,50,33,28,151,47,2*74
$GBGSV,3,1,11,02,04,106,,05,18,128,,10,07,078,,12,25,189,44,1*7F
$GBGSV,3,2,11,13,27,089,25,24,72,292,43,25,15,299,48,26,55,124,44,1*75
$GBGSV,3,3,11,29,12,040,,33,04,261,43,35,54,076,43,1*4D
$GBGSV,3,1,11,02,04,106,,05,18,128,,10,07,078,28,12,25,189,49,3*7A
$GBGSV,3,2,11,13,27,089,,24,72,292,,25,15,299,,26,55,124,,3*7B
$GBGSV,3,3,11,29,12,040,,33,04,261,,35,54,076,08,3*47
$GNGLL,5025.4464012,N,01411.3823975,E,211609.00,A,A*7D
$GNRMC,211610.00,A,5025.4464062,N,01411.3824335,E,0.007,,241021,,,A,V*1B
$GNVTG,,T,,M,0.007,N,0.014,K,A*3F
$GNGGA,211610.00,5025.4464062,N,01411.3824335,E,1,12,0.59,216.578,M,44.078,M,,*41
$GNGSA,A,3,24,25,29,31,32,06,12,02,,,,,1.12,0.59,0.95,1*0D
$GNGSA,A,3,33,31,26,01,24,05,09,13,,,,,1.12,0.59,0.95,3*0E
$GNGSA,A,3,12,35,26,13,24,25,,,,,,,1.12,0.59,0.95,4*04
$GPGSV,3,1,10,02,36,106,33,03,02,356,25,06,28,058,26,12,75,059,47,1*6A
$GPGSV,3,2,10,19,08,044,30,24,35,152,44,25,66,284,44,29,31,209,46,1*68
$GPGSV,3,3,10,31,13,310,41,32,33,274,50,1*67
$GPGSV,3,1,10,02,36,106,,03,02,356,,06,28,058,29,12,75,059,44,6*66
$GPGSV,3,2,10,19,08,044,,24,35,152,43,25,66,284,46,29,31,209,43,6*6C
$GPGSV,3,3,10,31,13,310,40,32,33,274,43,6*63
$GAGSV,3,1,10,01,55,087,44,04,09,210,30,05,20,314,44,09,28,260,41,7*70
$GAGSV,3,2,10,13,18,034,26,21,08,095,,24,16,280,45,26,43,091,35,7*7B
$GAGSV,3,3,10,31,64,291,44,33,28,151,44,7*77
$GAGSV,3,1,10,01,55,087,41,04,09,210,31,05,20,314,38,09,28,260,46,2*7D
$GAGSV,3,2,10,13,18,034,21,21,08,095,26,24,16,280,47,26,43,091,37,2*7D
$GAGSV,3,3,10,31,64,291,50,33,28,151,46,2*75
$GBGSV,3,1,11,02,04,106,,05,18,128,,10,07,078,,12,25,189,44,1*7F
$GBGSV,3,2,11,13,27,089,25,24,72,292,43,25,15,299,48,26,55,124,44,1*75
$GBGSV,3,3,11,29,12,040,24,33,04,261,43,35,54,076,43,1*4B
$GBGSV,3,1,11,02,04,106,,05,18,128,,10,07,078,28,12,25,189,49,3*7A
$GBGSV,3,2,11,13,27,089,,24,72,292,,25,15,299,,26,55,124,,3*7B
$GBGSV,3,3,11,29,12,040,,33,04,261,,35,54,076,08,3*47
$GNGLL,5025.4464062,N,01411.3824335,E,211610.00,A,A*7B
$GNRMC,211611.00,A,5025.4464005,N,01411.3824501,E,0.012,,241021,,,A,V*1E
$GNVTG,,T,,M,0.012,N,0.021,K,A*3D
$GNGGA,211611.00,5025.4464005,N,01411.3824501,E,1,12,0.61,216.474,M,44.078,M,,*46
$GNGSA,A,3,24,25,29,31,32,06,12,02,,,,,1.15,0.61,0.98,1*0C
$GNGSA,A,3,33,31,26,01,24,05,09,13,,,,,1.15,0.61,0.98,3*0F
$GNGSA,A,3,12,35,26,13,24,25,,,,,,,1.15,0.61,0.98,4*05
$GPGSV,3,1,10,02,36,106,35,03,02,356,26,06,28,058,27,12,75,059,47,1*6E
$GPGSV,3,2,10,19,08,044,,24,35,152,44,25,66,284,44,29,31,209,47,1*6A
$GPGSV,3,3,10,31,13,310,41,32,33,274,51,1*66
$GPGSV,3,1,10,02,36,106,,03,02,356,,06,28,058,29,12,75,059,44,6*66
$GPGSV,3,2,10,19,08,044,,24,35,152,43,25,66,284,46,29,31,209,43,6*6C
$GPGSV,3,3,10,31,13,310,40,32,33,274,43,6*63
$GAGSV,3,1,10,01,55,087,44,04,09,210,30,05,20,314,44,09,28,260,41,7*70
$GAGSV,3,2,10,13,18,034,26,21,08,095,,24,16,280,45,26,43,091,35,7*7B
$GAGSV,3,3,10,31,64,291,44,33,28,151,45,7*76
$GAGSV,3,1,10,01,55,087,41,04,09,210,31,05,20,314,38,09,28,260,46,2*7D
$GAGSV,3,2,10,13,18,034,21,21,08,095,26,24,16,280,47,26,43,091,37,2*7D
$GAGSV,3,3,10,31,64,291,50,33,28,151,46,2*75
$GBGSV,3,1,11,02,04,106,,05,18,128,,10,07,078,,12,25,189,43,1*78
$GBGSV,3,2,11,13,27,089,24,24,72,292,43,25,15,299,48,26,55,124,44,1*74
$GBGSV,3,3,11,29,12,040,,33,04,261,43,35,54,076,43,1*4D
$GBGSV,3,1,11,02,04,106,,05,18,128,,10,07,078,28,12,25,189,49,3*7A
$GBGSV,3,2,11,13,27,089,,24,72,292,,25,15,299,,26,55,124,,3*7B
$GBGSV,3,3,11,29,12,040,,33,04,261,,35,54,076,08,3*47
$GNGLL,5025.4464005,N,01411.3824501,E,211611.00,A,A*7A
$GNRMC,211612.00,A,5025.4463989,N,01411.3824379,E,0.001,,241021,,,A,V*1C
$GNVTG,,T,,M,0.001,N,0.003,K,A*3F
$GNGGA,211612.00,5025.4463989,N,01411.3824379,E,1,12,0.61,216.463,M,44.078,M,,*40
$GNGSA,A,3,24,25,29,31,32,06,12,02,,,,,1.15,0.61,0.98,1*0C
$GNGSA,A,3,33,31,26,01,24,05,09,13,,,,,1.15,0.61,0.98,3*0F
$GNGSA,A,3,12,35,26,13,24,25,,,,,,,1.15,0.61,0.98,4*05
$GPGSV,3,1,10,02,36,106,35,03,02,356,25,06,28,058,27,12,75,059,47,1*6D
$GPGSV,3,2,10,19,08,044,,24,35,152,45,25,66,284,44,29,31,209,47,1*6B
$GPGSV,3,3,10,31,13,310,41,32,33,274,51,1*66
$GPGSV,3,1,10,02,36,106,,03,02,356,,06,28,058,29,12,75,059,44,6*66
$GPGSV,3,2,10,19,08,044,,24,35,152,43,25,66,284,46,29,31,209,43,6*6C
$GPGSV,3,3,10,31,13,310,40,32,33,274,43,6*63
$GAGSV,3,1,10,01,55,087,44,04,09,210,30,05,20,314,44,09,28,260,41,7*70
$GAGSV,3,2,10,13,18,034,26,21,08,095,,24,16,280,46,26,43,091,34,7*79
$GAGSV,3,3,10,31,64,291,44,33,28,151,45,7*76
$GAGSV,3,1,10,01,55,087,41,04,09,210,31,05,20,314,38,09,28,260,46,2*7D
$GAGSV,3,2,10,13,18,034,22,21,08,095,25,24,16,280,47,26,43,091,37,2*7D
$GAGSV,3,3,10,31,64,291,50,33,28,151,46,2*75
$GBGSV,3,1,11,02,04,106,,05,18,128,,10,07,078,,12,25,189,43,1*78
$GBGSV,3,2,11,13,27,089,24,24,72,292,43,25,15,299,48,26,55,124,44,1*74
$GBGSV,3,3,11,29,12,040,,33,04,261,43,35,54,076,43,1*4D
$GBGSV,3,1,11,02,04,106,,05,18,128,,10,07,078,28,12,25,189,49,3*7A
$GBGSV,3,2,11,13,27,089,,24,72,292,,25,15,299,,26,55,124,,3*7B
$GBGSV,3,3,11,29,12,040,,33,04,261,,35,54,076,08,3*47
$GNGLL,5025.4463989,N,01411.3824379,E,211612.00,A,A*7A
$GNRMC,211613.00,A,5025.4463985,N,01411.3824148,E,0.001,,241021,,,A,V*11
$GNVTG,,T,,M,0.001,N,0.002,K,A*3E
$GNGGA,211613.00,5025.4463985,N,01411.3824148,E,1,12,0.61,216.484,M,44.078,M,,*44
$GNGSA,A,3,24,25,29,31,32,06,12,02,,,,,1.15,0.61,0.98,1*0C
$GNGSA,A,3,33,31,26,01,24,05,09,13,,,,,1.15,0.61,0.98,3*0F
$GNGSA,A,3,12,35,26,13,24,25,,,,,,,1.15,0.61,0.98,4*05
$GPGSV,3,1,10,02,36,106,35,03,02,356,25,06,28,058,27,12,75,059,47,1*6D
$GPGSV,3,2,10,19,08,044,,24,35,152,45,25,66,284,44,29,31,209,47,1*6B
$GPGSV,3,3,10,31,13,310,41,32,33,274,50,1*67
$GPGSV,3,1,10,02,36,106,,03,02,356,,06,28,058,29,12,75,059,44,6*66
$GPGSV,3,2,10,19,08,044,,24,35,152,43,25,66,284,46,29,31,209,43,6*6C
$GPGSV,3,3,10,31,13,310,40,32,33,274,43,6*63
$GAGSV,3,1,10,01,55,087,44,04,09,210,30,05,20,314,44,09,28,260,41,7*70
$GAGSV,3,2,10,13,18,034,26,21,08,095,,24,16,280,46,26,43,091,34,7*79
$GAGSV,3,3,10,31,64,291,44,33,28,151,45,7*76
$GAGSV,3,1,10,01,55,087,41,04,09,210,31,05,20,314,38,09,28,260,46,2*7D
$GAGSV,3,2,10,13,18,034,22,21,08,095,25,24,16,280,47,26,43,091,37,2*7D
$GAGSV,3,3,10,31,64,291,50,33,28,151,46,2*75
$GBGSV,3,1,11,02,04,106,,05,18,128,,10,07,078,24,12,25,189,43,1*7E
$GBGSV,3,2,11,13,27,089,24,24,72,292,43,25,15,299,48,26,55,124,44,1*74
$GBGSV,3,3,11,29,12,040,,33,04,261,43,35,54,076,43,1*4D
$GBGSV,3,1,11,02,04,106,,05,18,128,,10,07,078,28,12,25,189,49,3*7A
$GBGSV,3,2,11,13,27,089,,24,72,292,,25,15,299,,26,55,124,,3*7B
$GBGSV,3,3,11,29,12,040,,33,04,261,,35,54,076,08,3*47
$GNGLL,5025.4463985,N,01411.3824148,E,211613.00,A,A*77
$GNRMC,211614.00,A,5025.4463997,N,01411.3823906,E,0.006,,241021,,,A,V*17
$GNVTG,,T,,M,0.006,N,0.011,K,A*3B
$GNGGA,211614.00,5025.4463997,N,01411.3823906,E,1,12,0.59,216.510,M,44.078,M,,*42
$GNGSA,A,3,24,25,29,31,32,06,12,02,,,,,1.12,0.59,0.96,1*0E
$GNGSA,A,3,33,31,26,01,24,05,09,13,,,,,1.12,0.59,0.96,3*0D
$GNGSA,A,3,12,35,26,13,24,25,,,,,,,1.12,0.59,0.96,4*07
$GPGSV,3,1,10,02,36,106,35,03,02,356,23,06,28,058,27,12,75,059,47,1*6B
$GPGSV,3,2,10,19,08,044,,24,35,152,45,25,66,284,44,29,31,209,47,1*6B
$GPGSV,3,3,10,31,13,310,41,32,33,274,50,1*67
$GPGSV,3,1,10,02,36,106,,03,02,356,,06,28,058,29,12,75,059,44,6*66
$GPGSV,3,2,10,19,08,044,,24,35,152,43,25,66,284,45,29,31,209,43,6*6F
$GPGSV,3,3,10,31,13,310,40,32,33,274,43,6*63
$GAGSV,3,1,10,01,55,087,44,04,09,210,30,05,20,314,44,09,28,260,42,7*73
$GAGSV,3,2,10,13,18,034,26,21,08,095,,24,16,280,46,26,43,091,34,7*79
$GAGSV,3,3,10,31,64,291,44,33,28,151,45,7*76
$GAGSV,3,1,10,01,55,087,41,04,09,210,30,05,20,314,38,09,28,260,46,2*7C
$GAGSV,3,2,10,13,18,034,22,21,08,095,25,24,16,280,47,26,43,091,37,2*7D
$GAGSV,3,3,10,31,64,291,50,33,28,151,46,2*75
$GBGSV,3,1,11,02,04,106,,05,18,128,,10,07,078,23,12,25,189,43,1*79
$GBGSV,3,2,11,13,27,089,24,24,72,292,43,25,15,299,48,26,55,124,44,1*74
$GBGSV,3,3,11,29,12,040,,33,04,261,43,35,54,076,43,1*4D
$GBGSV,3,1,11,02,04,106,,05,18,128,,10,07,078,28,12,25,189,49,3*7A
$GBGSV,3,2,11,13,27,089,,24,72,292,,25,15,299,,26,55,124,,3*7B
$GBGSV,3,3,11,29,12,040,,33,04,261,,35,54,076,08,3*47
$GNGLL,5025.4463997,N,01411.3823906,E,211614.00,A,A*76
$GNRMC,211615.00,A,5025.4464036,N,01411.3823757,E,0.012,,241021,,,A,V*1C
$GNVTG,,T,,M,0.012,N,0.022,K,A*3E
$GNGGA,211615.00,5025.4464036,N,01411.3823757,E,1,12,0.61,216.528,M,44.078,M,,*4C
$GNGSA,A,3,24,25,29,31,32,06,12,02,,,,,1.16,0.61,0.98,1*0F
$GNGSA,A,3,33,31,26,01,24,05,09,13,,,,,1.16,0.61,0.98,3*0C
$GNGSA,A,3,12,35,26,13,24,25,,,,,,,1.16,0.61,0.98,4*06
$GPGSV,3,1,10,02,36,106,35,03,02,356,22,06,28,058,28,12,75,059,47,1*65
$GPGSV,3,2,10,19,08,044,31,24,35,152,45,25,66,284,44,29,31,209,47,1*69
$GPGSV,3,3,10,31,13,310,40,32,33,274,50,1*66
$GPGSV,3,1,10,02,36,106,,03,02,356,,06,28,058,29,12,75,059,44,6*66
$GPGSV,3,2,10,19,08,044,,24,35,152,43,25,66,284,45,29,31,209,43,6*6F
$GPGSV,3,3,10,31,13,310,40,32,33,274,43,6*63
$GAGSV,3,1,10,01,55,087,44,04,09,210,30,05,20,314,44,09,28,260,42,7*73
$GAGSV,3,2,10,13,18,034,26,21,08,095,,24,16,280,46,26,43,091,34,7*79
$GAGSV,3,3,10,31,64,291,44,33,28,151,45,7*76
$GAGSV,3,1,10,01,55,087,41,04,09,210,30,05,20,314,38,09,28,260,46,2*7C
$GAGSV,3,2,10,13,18,034,22,21,08,095,25,24,16,280,47,26,43,091,37,2*7D
$GAGSV,3,3,10,31,64,291,50,33,28,151,46,2*75
$GBGSV,3,1,11,02,04,106,,05,18,128,,10,07,078,,12,25,189,43,1*78
$GBGSV,3,2,11,13,27,089,23,24,72,292,44,25,15,299,48,26,55,124,44,1*74
$GBGSV,3,3,11,29,12,040,,33,04,261,43,35,54,076,43,1*4D
$GBGSV,3,1,11,02,04,106,,05,18,128,,10,07,078,28,12,25,189,49,3*7A
$GBGSV,3,2,11,13,27,089,,24,72,292,,25,15,299,,26,55,124,,3*7B
$GBGSV,3,3,11,29,12,040,,33,04,261,,35,54,076,,3*4F
$GNGLL,5025.4464036,N,01411.3823757,E,211615.00,A,A*78
$GNRMC,211616.00,A,5025.4464060,N,01411.3823526,E,0.007,,241021,,,A,V*1C
$GNVTG,,T,,M,0.007,N,0.013,K,A*38
$GNGGA,211616.00,5025.4464060,N,01411.3823526,E,1,12,0.61,216.570,M,44.078,M,,*45
$GNGSA,A,3,24,25,29,31,32,06,12,02,,,,,1.16,0.61,0.98,1*0F
$GNGSA,A,3,33,31,26,01,24,05,09,13,,,,,1.16,0.61,0.98,3*0C
$GNGSA,A,3,12,35,26,13,24,25,,,,,,,1.16,0.61,0.98,4*06
$GPGSV,3,1,10,02,36,106,36,03,02,356,21,06,28,058,28,12,75,059,47,1*65
$GPGSV,3,2,10,19,08,044,31,24,35,152,44,25,66,284,44,29,31,209,47,1*68
$GPGSV,3,3,10,31,13,310,40,32,33,274,50,1*66
$GPGSV,3,1,10,02,36,106,,03,02,356,,06,28,058,28,12,75,059,44,6*67
$GPGSV,3,2,10,19,08,044,,24,35,152,43,25,66,284,45,29,31,209,43,6*6F
$GPGSV,3,3,10,31,13,310,40,32,33,274,43,6*63
$GAGSV,3,1,10,01,55,087,44,04,09,210,30,05,20,314,45,09,28,260,42,7*72
$GAGSV,3,2,10,13,18,034,26,21,08,095,,24,16,280,46,26,43,091,34,7*79
$GAGSV,3,3,10,31,64,291,44,33,28,151,45,7*76
$GAGSV,3,1,10,01,55,087,41,04,09,210,30,05,20,314,38,09,28,260,46,2*7C
$GAGSV,3,2,10,13,18,034,22,21,08,095,25,24,16,280,47,26,43,091,37,2*7D
$GAGSV,3,3,10,31,64,291,50,33,28,151,46,2*75
$GBGSV,3,1,11,02,04,106,,05,18,128,,10,07,078,24,12,25,189,43,1*7E
$GBGSV,3,2,11,13,27,089,24,24,72,292,44,25,15,299,48,26,55,124,44,1*73
$GBGSV,3,3,11,29,12,040,,33,04,261,43,35,54,076,43,1*4D
$GBGSV,3,1,11,02,04,106,,05,18,128,,10,07,078,28,12,25,189,49,3*7A
$GBGSV,3,2,11,13,27,089,,24,72,292,,25,15,299,,26,55,124,,3*7B
$GBGSV,3,3,11,29,12,040,,33,04,261,,35,54,076,,3*4F
$GNGLL,5025.4464060,N,01411.3823526,E,211616.00,A,A*7C
$GNRMC,211617.00,A,5025.4464086,N,01411.3823438,E,0.007,,241021,,,A,V*1B
$GNVTG,,T,,M,0.007,N,0.012,K,A*39
$GNGGA,211617.00,5025.4464086,N,01411.3823438,E,1,12,0.61,216.591,M,44.078,M,,*4D
$GNGSA,A,3,24,25,29,31,32,06,12,02,,,,,1.16,0.61,0.98,1*0F
$GNGSA,A,3,33,31,26,01,24,05,09,13,,,,,1.16,0.61,0.98,3*0C
$GNGSA,A,3,12,35,26,13,24,25,,,,,,,1.16,0.61,0.98,4*06
$GPGSV,3,1,10,02,36,106,36,03,02,356,20,06,28,058,28,12,75,059,47,1*64
$GPGSV,3,2,10,19,08,044,31,24,35,152,44,25,66,284,44,29,31,209,47,1*68
$GPGSV,3,3,10,31,13,310,40,32,33,274,50,1*66
$GPGSV,3,1,10,02,36,106,,03,02,356,,06,28,058,29,12,75,059,44,6*66
$GPGSV,3,2,10,19,08,044,,24,35,152,43,25,66,284,45,29,31,209,43,6*6F
$GPGSV,3,3,10,31,13,310,40,32,33,274,43,6*63
$GAGSV,3,1,10,01,55,087,44,04,09,210,30,05,20,314,45,09,28,260,42,7*72
$GAGSV,3,2,10,13,18,034,25,21,08,095,,24,16,280,46,26,43,091,34,7*7A
$GAGSV,3,3,10,31,64,291,44,33,28,151,45,7*76
$GAGSV,3,1,10,01,55,087,41,04,09,210,30,05,20,314,38,09,28,260,46,2*7C
$GAGSV,3,2,10,13,18,034,22,21,08,095,25,24,16,280,47,26,43,091,37,2*7D
$GAGSV,3,3,10,31,64,291,50,33,28,151,46,2*75
$GBGSV,3,1,11,02,04,106,,05,18,128,,10,07,078,24,12,25,189,43,1*7E
$GBGSV,3,2,11,13,27,089,24,24,72,292,44,25,15,299,48,26,55,124,44,1*73
$GBGSV,3,3,11,29,12,040,,33,04,261,43,35,54,076,43,1*4D
$GBGSV,3,1,11,02,04,106,,05,18,128,,10,07,078,28,12,25,189,49,3*7A
$GBGSV,3,2,11,13,27,089,,24,72,292,,25,15,299,,26,55,124,,3*7B
$GBGSV,3,3,11,29,12,040,,33,04,261,,35,54,076,,3*4F
$GNGLL,5025.4464086,N,01411.3823438,E,211617.00,A,A*7B
$GNRMC,211618.00,A,5025.4464141,N,01411.3823421,E,0.006,,241021,,,A,V*17
$GNVTG,,T,,M,0.006,N,0.011,K,A*3B
$GNGGA,211618.00,5025.4464141,N,01411.3823421,E,1,12,0.61,216.595,M,44.078,M,,*44
$GNGSA,A,3,24,25,29,31,32,06,12,02,,,,,1.16,0.61,0.98,1*0F
$GNGSA,A,3,33,31,26,01,24,05,09,13,,,,,1.16,0.61,0.98,3*0C
$GNGSA,A,3,12,35,26,13,24,25,,,,,,,1.16,0.61,0.98,4*06
$GPGSV,3,1,10,02,36,106,35,03,02,356,19,06,28,058,28,12,75,059,47,1*6D
$GPGSV,3,2,10,19,08,044,31,24,35,152,44,25,66,284,44,29,31,209,47,1*68
$GPGSV,3,3,10,31,13,310,40,32,33,274,50,1*66
$GPGSV,3,1,10,02,36,106,,03,02,356,,06,28,058,28,12,75,059,44,6*67
$GPGSV,3,2,10,19,08,044,,24,35,152,43,25,66,284,45,29,31,209,43,6*6F
$GPGSV,3,3,10,31,13,310,40,32,33,274,43,6*63
$GAGSV,3,1,10,01,55,087,44,04,09,210,30,05,20,314,45,09,28,260,42,7*72
$GAGSV,3,2,10,13,18,034,25,21,08,095,,24,16,280,46,26,43,091,34,7*7A
$GAGSV,3,3,10,31,64,291,44,33,28,151,45,7*76
$GAGSV,3,1,10,01,55,087,41,04,09,210,30,05,20,314,38,09,28,260,46,2*7C
$GAGSV,3,2,10,13,18,034,22,21,08,095,25,24,16,280,47,26,43,091,37,2*7D
$GAGSV,3,3,10,31,64,291,50,33,28,151,46,2*75
$GBGSV,3,1,11,02,04,106,,05,18,128,,10,07,078,24,12,25,189,43,1*7E
$GBGSV,3,2,11,13,27,089,24,24,72,292,44,25,15,299,48,26,55,124,44,1*73
$GBGSV,3,3,11,29,12,040,,33,04,261,43,35,54,076,43,1*4D
$GBGSV,3,1,11,02,04,106,,05,18,128,,10,07,078,28,12,25,189,49,3*7A
$GBGSV,3,2,11,13,27,089,,24,72,292,,25,15,299,,26,55,124,,3*7B
$GBGSV,3,3,11,29,12,040,,33,04,261,,35,54,076,,3*4F
$GNGLL,5025.4464141,N,01411.3823421,E,211618.00,A,A*76
$GNRMC,211619.00,A,5025.4464163,N,01411.3823415,E,0.001,,241021,,,A,V*16
$GNVTG,,T,,M,0.001,N,0.002,K,A*3E
$GNGGA,211619.00,5025.4464163,N,01411.3823415,E,1,12,0.59,216.594,M,44.078,M,,*48
$GNGSA,A,3,24,25,29,31,32,06,12,02,,,,,1.13,0.59,0.96,1*0F
$GNGSA,A,3,33,31,26,01,24,05,09,13,,,,,1.13,0.59,0.96,3*0C
$GNGSA,A,3,12,35,26,13,24,25,,,,,,,1.13,0.59,0.96,4*06
$GPGSV,3,1,10,02,36,106,35,03,02,356,20,06,28,058,28,12,75,059,47,1*67
$GPGSV,3,2,10,19,08,044,31,24,35,152,44,25,66,284,44,29,31,209,47,1*68
$GPGSV,3,3,10,31,13,310,40,32,33,274,50,1*66
$GPGSV,3,1,10,02,36,106,,03,02,356,,06,28,058,28,12,75,059,44,6*67
$GPGSV,3,2,10,19,08,044,,24,35,152,43,25,66,284,45,29,31,209,43,6*6F
$GPGSV,3,3,10,31,13,310,40,32,33,274,43,6*63
$GAGSV,3,1,10,01,55,087,44,04,09,210,30,05,20,314,45,09,28,260,42,7*72
$GAGSV,3,2,10,13,18,034,25,21,08,095,,24,16,280,46,26,43,091,34,7*7A
$GAGSV,3,3,10,31,64,291,44,33,28,151,45,7*76
$GAGSV,3,1,10,01,55,087,41,04,09,210,30,05,20,314,38,09,28,260,46,2*7C
$GAGSV,3,2,10,13,18,034,22,21,08,095,24,24,16,280,47,26,43,091,37,2*7C
$GAGSV,3,3,10,31,64,291,50,33,28,151,46,2*75
$GBGSV,3,1,11,02,04,106,,05,18,128,,10,07,078,23,12,25,189,43,1*79
$GBGSV,3,2,11,13,27,089,24,24,72,292,44,25,15,299,48,26,55,124,44,1*73
$GBGSV,3,3,11,29,12,040,,33,04,261,43,35,54,076,43,1*4D
$GBGSV,3,1,11,02,04,106,,05,18,128,,10,07,078,28,12,25,189,49,3*7A
$GBGSV,3,2,11,13,27,089,,24,72,292,,25,15,299,,26,55,124,,3*7B
$GBGSV,3,3,11,29,12,040,,33,04,261,,35,54,076,,3*4F
$GNGLL,5025.4464163,N,01411.3823415,E,211619.00,A,A*70
$GNRMC,211620.00,A,5025.4464119,N,01411.3823278,E,0.004,,241021,,,A,V*19
$GNVTG,,T,,M,0.004,N,0.008,K,A*31
$GNGGA,211620.00,5025.4464119,N,01411.3823278,E,1,12,0.59,216.614,M,44.078,M,,*49
$GNGSA,A,3,24,25,29,31,32,06,12,02,,,,,1.13,0.59,0.96,1*0F
$GNGSA,A,3,33,31,26,01,24,05,09,13,,,,,1.13,0.59,0.96,3*0C
$GNGSA,A,3,12,35,26,13,24,25,,,,,,,1.13,0.59,0.96,4*06
$GPGSV,3,1,10,02,36,106,35,03,02,356,19,06,28,058,28,12,75,059,48,1*62
$GPGSV,3,2,10,19,08,044,31,24,35,152,44,25,66,284,44,29,31,209,47,1*68
$GPGSV,3,3,10,31,13,310,40,32,33,274,50,1*66
$GPGSV,3,1,10,02,36,106,,03,02,356,,06,28,058,28,12,75,059,44,6*67
$GPGSV,3,2,10,19,08,044,,24,35,152,43,25,66,284,45,29,31,209,43,6*6F
$GPGSV,3,3,10,31,13,310,40,32,33,274,43,6*63
$GAGSV,3,1,10,01,55,087,44,04,09,210,30,05,20,314,45,09,28,260,41,7*71
$GAGSV,3,2,10,13,18,034,25,21,08,095,,24,16,280,46,26,43,091,34,7*7A
$GAGSV,3,3,10,31,64,291,44,33,28,151,45,7*76
$GAGSV,3,1,10,01,55,087,41,04,09,210,30,05,20,314,38,09,28,260,46,2*7C
$GAGSV,3,2,10,13,18,034,22,21,08,095,24,24,16,280,47,26,43,091,37,2*7C
$GAGSV,3,3,10,31,64,291,50,33,28,151,46,2*75
$GBGSV,3,1,11,02,04,106,,05,18,128,,10,07,078,23,12,25,189,43,1*79
$GBGSV,3,2,11,13,27,089,24,24,72,292,44,25,15,299,47,26,55,124,44,1*7C
$GBGSV,3,3,11,29,12,040,,33,04,261,43,35,54,076,43,1*4D
$GBGSV,3,1,11,02,04,106,,05,18,128,,10,07,078,28,12,25,189,49,3*7A
$GBGSV,3,2,11,13,27,089,,24,72,292,,25,15,299,,26,55,124,,3*7B
$GBGSV,3,3,11,29,12,040,,33,04,261,,35,54,076,,3*4F
$GNGLL,5025.4464119,N,01411.3823278,E,211620.00,A,A*7A
$GNRMC,211621.00,A,5025.4464097,N,01411.3823125,E,0.007,,241021,,,A,V*17
$GNVTG,,T,,M,0.007,N,0.012,K,A*39
$GNGGA,211621.00,5025.4464097,N,01411.3823125,E,1,12,0.59,216.627,M,44.078,M,,*44
$GNGSA,A,3,24,25,29,31,32,06,12,02,,,,,1.13,0.59,0.96,1*0F
$GNGSA,A,3,33,31,26,01,24,05,09,13,,,,,1.13,0.59,0.96,3*0C
$GNGSA,A,3,12,35,26,13,24,25,,,,,,,1.13,0.59,0.96,4*06
$GPGSV,3,1,10,02,36,106,35,03,02,356,19,06,28,058,28,12,75,059,48,1*62
$GPGSV,3,2,10,19,08,044,31,24,35,152,44,25,66,284,44,29,31,209,47,1*68
$GPGSV,3,3,10,31,13,310,40,32,33,274,50,1*66
$GPGSV,3,1,10,02,36,106,,03,02,356,,06,28,058,28,12,75,059,44,6*67
$GPGSV,3,2,10,19,08,044,,24,35,152,43,25,66,284,45,29,31,209,43,6*6F
$GPGSV,3,3,10,31,13,310,40,32,33,274,43,6*63
$GAGSV,3,1,10,01,55,087,44,04,09,210,30,05,20,314,45,09,28,260,42,7*72
$GAGSV,3,2,10,13,18,034,25,21,08,095,,24,16,280,46,26,43,091,34,7*7A
$GAGSV,3,3,10,31,64,291,44,33,28,151,45,7*76
$GAGSV,3,1,10,01,55,087,41,04,09,210,30,05,20,314,38,09,28,260,46,2*7C
$GAGSV,3,2,10,13,18,034,21,21,08,095,24,24,16,280,47,26,43,091,37,2*7F
$GAGSV,3,3,10,31,64,291,50,33,28,151,46,2*75
$GBGSV,3,1,11,02,04,106,,05,18,128,,10,07,078,23,12,25,189,43,1*79
$GBGSV,3,2,11,13,27,089,24,24,72,292,44,25,15,299,47,26,55,124,44,1*7C
$GBGSV,3,3,11,29,12,040,,33,04,261,42,35,54,076,43,1*4C
$GBGSV,3,1,11,02,04,106,,05,18,128,,10,07,078,28,12,25,189,49,3*7A
$GBGSV,3,2,11,13,27,089,,24,72,292,,25,15,299,,26,55,124,,3*7B
$GBGSV,3,3,11,29,12,040,,33,04,261,,35,54,076,,3*4F
$GNGLL,5025.4464097,N,01411.3823125,E,211621.00,A,A*77
$GNRMC,211622.00,A,5025.4464167,N,01411.3823154,E,0.006,,241021,,,A,V*1D
$GNVTG,,T,,M,0.006,N,0.010,K,A*3A
$GNGGA,211622.00,5025.4464167,N,01411.3823154,E,1,12,0.59,216.612,M,44.078,M,,*49
$GNGSA,A,3,24,25,29,31,32,06,12,02,,,,,1.13,0.59,0.96,1*0F
$GNGSA,A,3,33,31,26,01,24,05,09,13,,,,,1.13,0.59,0.96,3*0C
$GNGSA,A,3,12,35,26,13,24,25,,,,,,,1.13,0.59,0.96,4*06
$GPGSV,3,1,10,02,36,106,35,03,02,356,18,06,28,058,28,12,75,059,48,1*63
$GPGSV,3,2,10,19,08,044,31,24,35,152,44,25,66,284,44,29,31,209,47,1*68
$GPGSV,3,3,10,31,13,310,40,32,33,274,50,1*66
$GPGSV,3,1,10,02,36,106,,03,02,356,,06,28,058,28,12,75,059,44,6*67
$GPGSV,3,2,10,19,08,044,,24,35,152,43,25,66,284,45,29,31,209,43,6*6F
$GPGSV,3,3,10,31,13,310,40,32,33,274,43,6*63
$GAGSV,3,1,10,01,55,087,43,04,09,210,31,05,20,314,45,09,28,260,42,7*74
$GAGSV,3,2,10,13,18,034,25,21,08,095,,24,16,280,46,26,43,091,34,7*7A
$GAGSV,3,3,10,31,64,291,44,33,28,151,45,7*76
$GAGSV,3,1,10,01,55,087,41,04,09,210,30,05,20,314,38,09,28,260,46,2*7C
$GAGSV,3,2,10,13,18,034,21,21,08,095,24,24,16,280,47,26,43,091,37,2*7F
$GAGSV,3,3,10,31,64,291,51,33,28,151,46,2*74
$GBGSV,3,1,11,02,04,106,,05,18,128,,10,07,078,23,12,25,189,43,1*79
$GBGSV,3,2,11,13,27,089,24,24,72,292,44,25,15,299,47,26,55,124,45,1*7D
$GBGSV,3,3,11,29,12,040,,33,04,261,42,35,54,076,43,1*4C
$GBGSV,3,1,11,02,04,106,,05,18,128,,10,07,078,28,12,25,189,49,3*7A
$GBGSV,3,2,11,13,27,089,,24,72,292,,25,15,299,,26,55,124,,3*7B
$GBGSV,3,3,11,29,12,040,,33,04,261,,35,54,076,,3*4F
$GNGLL,5025.4464167,N,01411.3823154,E,211622.00,A,A*7C
$GNRMC,211623.00,A,5025.4464242,N,01411.3823180,E,0.007,,241021,,,A,V*10
$GNVTG,,T,,M,0.007,N,0.013,K,A*38
$GNGGA,211623.00,5025.4464242,N,01411.3823180,E,1,12,0.59,216.605,M,44.078,M,,*43
$GNGSA,A,3,24,25,29,31,32,06,12,02,,,,,1.13,0.59,0.96,1*0F
$GNGSA,A,3,33,31,26,01,24,05,09,13,,,,,1.13,0.59,0.96,3*0C
$GNGSA,A,3,12,35,26,13,24,25,,,,,,,1.13,0.59,0.96,4*06
$GPGSV,3,1,10,02,36,106,35,03,02,356,15,06,28,058,28,12,75,059,48,1*6E
$GPGSV,3,2,10,19,08,044,30,24,35,152,44,25,66,284,44,29,31,209,47,1*69
$GPGSV,3,3,10,31,13,310,40,32,33,274,50,1*66
$GPGSV,3,1,10,02,36,106,,03,02,356,,06,28,058,27,12,75,059,44,6*68
$GPGSV,3,2,10,19,08,044,,24,35,152,44,25,66,284,45,29,31,209,43,6*68
$GPGSV,3,3,10,31,13,310,40,32,33,274,42,6*62
$GAGSV,3,1,10,01,55,087,43,04,09,210,30,05,20,314,45,09,28,260,42,7*75
$GAGSV,3,2,10,13,18,034,25,21,08,095,,24,16,280,46,26,43,091,34,7*7A
$GAGSV,3,3,10,31,64,291,44,33,28,151,45,7*76
$GAGSV,3,1,10,01,55,087,41,04,09,210,30,05,20,314,38,09,28,260,46,2*7C
$GAGSV,3,2,10,13,18,034,22,21,08,095,23,24,16,280,47,26,43,091,37,2*7B
$GAGSV,3,3,10,31,64,291,51,33,28,151,46,2*74
$GBGSV,3,1,11,02,04,106,,05,18,128,,10,07,078,23,12,25,189,43,1*79
$GBGSV,3,2,11,13,27,089,23,24,72,292,45,25,15,299,47,26,55,124,45,1*7B
$GBGSV,3,3,11,29,12,040,,33,04,261,42,35,54,076,43,1*4C
$GBGSV,3,1,11,02,04,106,,05,18,128,,10,07,078,28,12,25,189,49,3*7A
$GBGSV,3,2,11,13,27,089,,24,72,292,,25,15,299,,26,55,124,,3*7B
$GBGSV,3,3,11,29,12,040,,33,04,261,,35,54,076,,3*4F
$GNGLL,5025.4464242,N,01411.3823180,E,211623.00,A,A*70
$GNRMC,211624.00,A,5025.4464310,N,01411.3823162,E,0.013,,241021,,,A,V*18
$GNVTG,,T,,M,0.013,N,0.023,K,A*3E
$GNGGA,211624.00,5025.4464310,N,01411.3823162,E,1,12,0.59,216.604,M,44.078,M,,*4F
$GNGSA,A,3,24,25,29,31,32,06,12,02,,,,,1.13,0.59,0.96,1*0F
$GNGSA,A,3,33,31,26,01,24,05,09,13,,,,,1.13,0.59,0.96,3*0C
$GNGSA,A,3,12,35,26,13,24,25,,,,,,,1.13,0.59,0.96,4*06
$GPGSV,3,1,10,02,36,106,35,03,02,356,12,06,28,058,28,12,75,059,48,1*69
$GPGSV,3,2,10,19,08,044,30,24,35,152,44,25,66,284,44,29,31,209,47,1*69
$GPGSV,3,3,10,31,13,310,39,32,33,274,50,1*68
$GPGSV,3,1,10,02,36,106,,03,02,356,,06,28,058,27,12,75,059,44,6*68
$GPGSV,3,2,10,19,08,044,,24,35,152,44,25,66,284,45,29,31,209,43,6*68
$GPGSV,3,3,10,31,13,310,40,32,33,274,42,6*62
$GAGSV,3,1,10,01,55,087,43,04,09,210,30,05,20,314,45,09,28,260,42,7*75
$GAGSV,3,2,10,13,18,034,25,21,08,095,,24,16,280,46,26,43,091,34,7*7A
$GAGSV,3,3,10,31,64,291,44,33,28,151,45,7*76
$GAGSV,3,1,10,01,55,087,41,04,09,210,30,05,20,314,38,09,28,260,46,2*7C
$GAGSV,3,2,10,13,18,034,23,21,08,095,23,24,16,280,47,26,43,091,37,2*7A
$GAGSV,3,3,10,31,64,291,50,33,28,151,46,2*75
$GBGSV,3,1,11,02,04,106,,05,18,128,,10,07,078,22,12,25,189,43,1*78
$GBGSV,3,2,11,13,27,089,23,24,72,292,45,25,15,299,47,26,55,124,45,1*7B
$GBGSV,3,3,11,29,12,040,,33,04,261,42,35,54,076,43,1*4C
$GBGSV,3,1,11,02,04,106,,05,18,128,,10,07,078,28,12,25,189,49,3*7A
$GBGSV,3,2,11,13,27,089,,24,72,292,,25,15,299,,26,55,124,,3*7B
$GBGSV,3,3,11,29,12,040,,33,04,261,,35,54,076,,3*4F
$GNGLL,5025.4464310,N,01411.3823162,E,211624.00,A,A*7D
$GNRMC,211625.00,A,5025.4464386,N,01411.3823120,E,0.013,,241021,,,A,V*10
$GNVTG,,T,,M,0.013,N,0.024,K,A*39
$GNGGA,211625.00,5025.4464386,N,01411.3823120,E,1,12,0.59,216.605,M,44.078,M,,*46
$GNGSA,A,3,24,25,29,31,32,06,12,02,,,,,1.13,0.59,0.96,1*0F
$GNGSA,A,3,33,31,26,01,24,05,09,13,,,,,1.13,0.59,0.96,3*0C
$GNGSA,A,3,12,35,26,13,24,25,,,,,,,1.13,0.59,0.96,4*06
$GPGSV,3,1,10,02,36,106,35,03,02,356,09,06,28,058,28,12,75,059,48,1*63
$GPGSV,3,2,10,19,08,044,30,24,35,152,44,25,66,284,44,29,31,209,46,1*68
$GPGSV,3,3,10,31,13,310,39,32,33,274,49,1*60
$GPGSV,3,1,10,02,36,106,,03,02,356,,06,28,058,26,12,75,059,44,6*69
$GPGSV,3,2,10,19,08,044,,24,35,152,44,25,66,284,45,29,31,209,43,6*68
$GPGSV,3,3,10,31,13,310,40,32,33,274,42,6*62
$GAGSV,3,1,10,01,55,087,43,04,09,210,30,05,20,314,45,09,28,260,42,7*75
$GAGSV,3,2,10,13,18,034,24,21,08,095,,24,16,280,46,26,43,091,35,7*7A
$GAGSV,3,3,10,31,64,291,44,33,28,151,45,7*76
$GAGSV,3,1,10,01,55,087,41,04,09,210,29,05,20,314,38,09,28,260,46,2*74
$GAGSV,3,2,10,13,18,034,23,21,08,095,23,24,16,280,47,26,43,091,38,2*75
$GAGSV,3,3,10,31,64,291,50,33,28,151,46,2*75
$GBGSV,3,1,11,02,04,106,,05,18,128,,10,07,078,22,12,25,189,43,1*78
$GBGSV,3,2,11,13,27,089,23,24,72,292,45,25,15,299,47,26,55,124,45,1*7B
$GBGSV,3,3,11,29,12,040,,33,04,261,42,35,54,076,43,1*4C
$GBGSV,3,1,11,02,04,106,,05,18,128,,10,07,078,28,12,25,189,49,3*7A
$GBGSV,3,2,11,13,27,089,,24,72,292,,25,15,299,,26,55,124,,3*7B
$GBGSV,3,3,11,29,12,040,,33,04,261,,35,54,076,,3*4F
$GNGLL,5025.4464386,N,01411.3823120,E,211625.00,A,A*75
$GNRMC,211626.00,A,5025.4464429,N,01411.3823021,E,0.003,,241021,,,A,V*10
$GNVTG,,T,,M,0.003,N,0.005,K,A*3B
$GNGGA,211626.00,5025.4464429,N,01411.3823021,E,1,12,0.59,216.613,M,44.078,M,,*40
$GNGSA,A,3,24,25,29,31,32,06,12,02,,,,,1.13,0.59,0.96,1*0F
$GNGSA,A,3,33,31,26,01,24,05,09,13,,,,,1.13,0.59,0.96,3*0C
$GNGSA,A,3,12,35,26,13,24,25,,,,,,,1.13,0.59,0.96,4*06
$GPGSV,3,1,10,02,36,106,36,03,02,356,06,06,28,058,28,12,75,059,48,1*6F
$GPGSV,3,2,10,19,08,044,31,24,35,152,44,25,66,284,44,29,31,209,46,1*69
$GPGSV,3,3,10,31,13,310,39,32,33,274,49,1*60
$GPGSV,3,1,10,02,36,106,,03,02,356,,06,28,058,25,12,75,059,44,6*6A
$GPGSV,3,2,10,19,08,044,,24,35,152,44,25,66,284,45,29,31,209,43,6*68
$GPGSV,3,3,10,31,13,310,40,32,33,274,42,6*62
$GAGSV,3,1,10,01,55,087,43,04,09,210,30,05,20,314,45,09,28,260,42,7*75
$GAGSV,3,2,10,13,18,034,24,21,08,095,,24,16,280,46,26,43,091,35,7*7A
$GAGSV,3,3,10,31,64,291,44,33,28,151,45,7*76
$GAGSV,3,1,10,01,55,087,41,04,09,210,29,05,20,314,38,09,28,260,46,2*74
$GAGSV,3,2,10,13,18,034,23,21,08,095,22,24,16,280,47,26,43,091,37,2*7B
$GAGSV,3,3,10,31,64,291,50,33,28,151,46,2*75
$GBGSV,3,1,11,02,04,106,,05,18,128,,10,07,078,21,12,25,189,43,1*7B
$GBGSV,3,2,11,13,27,089,23,24,72,292,45,25,15,299,47,26,55,124,45,1*7B
$GBGSV,3,3,11,29,12,040,,33,04,261,42,35,54,076,43,1*4C
$GBGSV,3,1,11,02,04,106,,05,18,128,,10,07,078,28,12,25,189,49,3*7A
$GBGSV,3,2,11,13,27,089,,24,72,292,,25,15,299,,26,55,124,,3*7B
$GBGSV,3,3,11,29,12,040,,33,04,261,,35,54,076,,3*4F
$GNGLL,5025.4464429,N,01411.3823021,E,211626.00,A,A*74
$GNRMC,211627.00,A,5025.4464478,N,01411.3822917,E,0.005,,241021,,,A,V*1E
$GNVTG,,T,,M,0.005,N,0.009,K,A*31
$GNGGA,211627.00,5025.4464478,N,01411.3822917,E,1,12,0.64,216.627,M,44.078,M,,*41
$GNGSA,A,3,24,25,29,31,32,06,12,02,,,,,1.19,0.64,1.00,1*05
$GNGSA,A,3,33,31,26,01,24,05,09,13,,,,,1.19,0.64,1.00,3*06
$GNGSA,A,3,12,35,26,13,24,25,,,,,,,1.19,0.64,1.00,4*0C
$GPGSV,3,1,10,02,36,106,36,03,02,356,08,06,28,058,28,12,75,059,48,1*61
$GPGSV,3,2,10,19,08,044,31,24,35,152,45,25,66,284,44,29,31,209,46,1*68
$GPGSV,3,3,10,31,13,310,39,32,33,274,49,1*60
$GPGSV,3,1,10,02,36,106,,03,02,356,,06,28,058,25,12,75,059,44,6*6A
$GPGSV,3,2,10,19,08,044,,24,35,152,44,25,66,284,45,29,31,209,43,6*68
$GPGSV,3,3,10,31,13,310,40,32,33,274,42,6*62
$GAGSV,3,1,10,01,55,087,43,04,09,210,30,05,20,314,45,09,28,260,42,7*75
$GAGSV,3,2,10,13,18,034,23,21,08,095,,24,16,280,46,26,43,091,35,7*7D
$GAGSV,3,3,10,31,64,291,44,33,28,151,45,7*76
$GAGSV,3,1,10,01,55,087,41,04,09,210,29,05,20,314,38,09,28,260,46,2*74
$GAGSV,3,2,10,13,18,034,23,21,08,095,22,24,16,280,47,26,43,091,37,2*7B
$GAGSV,3,3,10,31,64,291,50,33,28,151,46,2*75
$GBGSV,3,1,11,02,04,106,,05,18,128,,10,07,078,,12,25,189,43,1*78
$GBGSV,3,2,11,13,27,089,22,24,72,292,45,25,15,299,47,26,55,124,45,1*7A
$GBGSV,3,3,11,29,12,040,,33,04,261,42,35,54,076,43,1*4C
$GBGSV,3,1,11,02,04,106,,05,18,128,,10,07,078,27,12,25,189,49,3*75
$GBGSV,3,2,11,13,27,089,,24,72,292,,25,15,299,,26,55,124,,3*7B
$GBGSV,3,3,11,29,12,040,,33,04,261,,35,54,076,,3*4F
$GNGLL,5025.4464478,N,01411.3822917,E,211627.00,A,A*7C
$GNRMC,211628.00,A,5025.4464522,N,01411.3822810,E,0.006,,241021,,,A,V*1A
$GNVTG,,T,,M,0.006,N,0.011,K,A*3B
$GNGGA,211628.00,5025.4464522,N,01411.3822810,E,1,12,0.64,216.639,M,44.078,M,,*49
$GNGSA,A,3,24,25,29,31,32,06,12,02,,,,,1.19,0.64,1.00,1*05
$GNGSA,A,3,33,31,26,01,24,05,09,13,,,,,1.19,0.64,1.00,3*06
$GNGSA,A,3,12,35,26,13,24,25,,,,,,,1.19,0.64,1.00,4*0C
$GPGSV,3,1,10,02,36,106,36,03,02,356,12,06,28,058,29,12,75,059,48,1*6B
$GPGSV,3,2,10,19,08,044,31,24,35,152,45,25,66,284,45,29,31,209,46,1*69
$GPGSV,3,3,10,31,13,310,39,32,33,274,49,1*60
$GPGSV,3,1,10,02,36,106,,03,02,356,,06,28,058,24,12,75,059,44,6*6B
$GPGSV,3,2,10,19,08,044,,24,35,152,44,25,66,284,45,29,31,209,42,6*69
$GPGSV,3,3,10,31,13,310,40,32,33,274,42,6*62
$GAGSV,3,1,10,01,55,087,43,04,09,210,30,05,20,314,45,09,28,260,42,7*75
$GAGSV,3,2,10,13,18,034,23,21,08,095,,24,16,280,46,26,43,091,36,7*7E
$GAGSV,3,3,10,31,64,291,44,33,28,151,45,7*76
$GAGSV,3,1,10,01,55,087,41,04,09,210,29,05,20,314,38,09,28,260,46,2*74
$GAGSV,3,2,10,13,18,034,23,21,08,095,22,24,16,280,47,26,43,091,37,2*7B
$GAGSV,3,3,10,31,64,291,50,33,28,151,46,2*75
$GBGSV,3,1,11,02,04,106,,05,18,128,,10,07,078,,12,25,189,43,1*78
$GBGSV,3,2,11,13,27,089,22,24,72,292,45,25,15,299,47,26,55,124,45,1*7A
$GBGSV,3,3,11,29,12,040,,33,04,261,42,35,54,076,43,1*4C
$GBGSV,3,1,11,02,04,106,,05,18,128,,10,07,078,28,12,25,189,49,3*7A
$GBGSV,3,2,11,13,27,089,,24,72,292,,25,15,299,,26,55,124,,3*7B
$GBGSV,3,3,11,29,12,040,,33,04,261,,35,54,076,,3*4F
$GNGLL,5025.4464522,N,01411.3822810,E,211628.00,A,A*7B
$GNRMC,211629.00,A,5025.4464569,N,01411.3822692,E,0.008,,241021,,,A,V*1E
$GNVTG,,T,,M,0.008,N,0.015,K,A*31
$GNGGA,211629.00,5025.4464569,N,01411.3822692,E,1,12,0.64,216.645,M,44.078,M,,*48
$GNGSA,A,3,24,25,29,31,32,06,12,02,,,,,1.19,0.64,1.00,1*05
$GNGSA,A,3,33,31,26,01,24,05,09,13,,,,,1.19,0.64,1.00,3*06
$GNGSA,A,3,12,35,26,13,24,25,,,,,,,1.19,0.64,1.00,4*0C
$GPGSV,3,1,10,02,36,106,36,03,02,356,15,06,28,058,29,12,75,059,48,1*6C
$GPGSV,3,2,10,19,08,044,30,24,35,152,45,25,66,284,45,29,31,209,46,1*68
$GPGSV,3,3,10,31,13,310,39,32,33,274,49,1*60
$GPGSV,3,1,10,02,36,106,,03,02,356,,06,28,058,23,12,75,059,44,6*6C
$GPGSV,3,2,10,19,08,044,,24,35,152,44,25,66,284,45,29,31,209,42,6*69
$GPGSV,3,3,10,31,13,310,40,32,33,274,42,6*62
$GAGSV,3,1,10,01,55,087,43,04,09,210,30,05,20,314,45,09,28,260,41,7*76
$GAGSV,3,2,10,13,18,034,23,21,08,095,,24,16,280,46,26,43,091,36,7*7E
$GAGSV,3,3,10,31,64,291,44,33,28,151,45,7*76
$GAGSV,3,1,10,01,55,087,41,04,09,210,29,05,20,314,38,09,28,260,46,2*74
$GAGSV,3,2,10,13,18,034,23,21,08,095,21,24,16,280,47,26,43,091,38,2*77
$GAGSV,3,3,10,31,64,291,50,33,28,151,46,2*75
$GBGSV,3,1,11,02,04,106,,05,18,128,,10,07,078,,12,25,189,43,1*78
$GBGSV,3,2,11,13,27,089,21,24,72,292,45,25,15,299,47,26,55,124,45,1*79
$GBGSV,3,3,11,29,12,040,,33,04,261,42,35,54,076,43,1*4C
$GBGSV,3,1,11,02,04,106,,05,18,128,,10,07,078,28,12,25,189,49,3*7A
$GBGSV,3,2,11,13,27,089,,24,72,292,,25,15,299,,26,55,124,,3*7B
$GBGSV,3,3,11,29,12,040,,33,04,261,,35,54,076,,3*4F
$GNGLL,5025.4464569,N,01411.3822692,E,211629.00,A,A*71
$GNRMC,211630.00,A,5025.4464614,N,01411.3822576,E,0.003,,241021,,,A,V*1D
$GNVTG,,T,,M,0.003,N,0.006,K,A*38
$GNGGA,211630.00,5025.4464614,N,01411.3822576,E,1,12,0.64,216.660,M,44.078,M,,*47
$GNGSA,A,3,24,25,29,31,32,06,12,02,,,,,1.19,0.64,1.01,1*04
$GNGSA,A,3,33,31,26,01,24,05,09,13,,,,,1.19,0.64,1.01,3*07
$GNGSA,A,3,12,35,26,13,24,25,,,,,,,1.19,0.64,1.01,4*0D
$GPGSV,3,1,10,02,36,106,36,03,02,356,16,06,28,058,29,12,75,059,48,1*6F
$GPGSV,3,2,10,19,08,044,30,24,35,152,45,25,66,284,45,29,31,209,46,1*68
$GPGSV,3,3,10,31,13,310,39,32,33,274,49,1*60
$GPGSV,3,1,10,02,36,106,,03,02,356,,06,28,058,21,12,75,059,44,6*6E
$GPGSV,3,2,10,19,08,044,,24,35,152,44,25,66,284,45,29,31,209,42,6*69
$GPGSV,3,3,10,31,13,310,39,32,33,274,42,6*6C
$GAGSV,3,1,10,01,55,087,43,04,09,210,31,05,20,314,45,09,28,260,41,7*77
$GAGSV,3,2,10,13,18,034,23,21,08,095,,24,16,280,47,26,43,091,36,7*7F
$GAGSV,3,3,10,31,64,291,44,33,28,151,45,7*76
$GAGSV,3,1,10,01,55,087,41,04,09,210,29,05,20,314,38,09,28,260,46,2*74
$GAGSV,3,2,10,13,18,034,23,21,08,095,22,24,16,280,47,26,43,091,38,2*74
$GAGSV,3,3,10,31,64,291,50,33,28,151,46,2*75
$GBGSV,3,1,11,02,04,106,,05,18,128,,10,07,078,,12,25,189,43,1*78
$GBGSV,3,2,11,13,27,089,22,24,72,292,45,25,15,299,47,26,55,124,45,1*7A
$GBGSV,3,3,11,29,12,040,,33,04,261,42,35,54,076,44,1*4B
$GBGSV,3,1,11,02,04,106,,05,18,128,,10,07,078,28,12,25,189,49,3*7A
$GBGSV,3,2,11,13,27,089,,24,72,292,,25,15,299,,26,55,124,,3*7B
$GBGSV,3,3,11,29,12,040,,33,04,261,,35,54,076,,3*4F
$GNGLL,5025.4464614,N,01411.3822576,E,211630.00,A,A*79
$GNRMC,211631.00,A,5025.4463469,N,01411.3821636,E,0.054,,241021,,,D,V*10
$GNVTG,,T,,M,0.054,N,0.099,K,D*39
$GNGGA,211631.00,5025.4463469,N,01411.3821636,E,2,12,0.67,216.899,M,44.078,M,1.0,0084*66
$GNGSA,A,3,24,25,29,31,32,06,12,02,,,,,1.25,0.67,1.05,1*0C
$GNGSA,A,3,33,31,26,01,24,05,09,13,,,,,1.25,0.67,1.05,3*0F
$GNGSA,A,3,12,35,26,13,24,25,,,,,,,1.25,0.67,1.05,4*05
$GPGSV,3,1,10,02,36,106,36,03,02,356,16,06,28,058,29,12,75,059,48,1*6F
$GPGSV,3,2,10,19,08,044,30,24,35,152,45,25,66,284,45,29,31,209,46,1*68
$GPGSV,3,3,10,31,13,310,39,32,33,274,49,1*60
$GPGSV,3,1,10,02,36,106,,03,02,356,,06,28,058,20,12,75,059,44,6*6F
$GPGSV,3,2,10,19,08,044,,24,35,152,44,25,66,284,45,29,31,209,42,6*69
$GPGSV,3,3,10,31,13,310,39,32,33,274,43,6*6D
$GAGSV,3,1,10,01,55,087,43,04,09,210,30,05,20,314,45,09,28,260,41,7*76
$GAGSV,3,2,10,13,18,034,22,21,08,095,,24,16,280,47,26,43,091,36,7*7E
$GAGSV,3,3,10,31,64,291,44,33,28,151,45,7*76
$GAGSV,3,1,10,01,55,087,41,04,09,210,29,05,20,314,38,09,28,260,46,2*74
$GAGSV,3,2,10,13,18,034,23,21,08,095,22,24,16,280,47,26,43,091,38,2*74
$GAGSV,3,3,10,31,64,291,50,33,28,151,46,2*75
$GBGSV,3,1,11,02,04,106,,05,18,128,,10,07,078,,12,25,189,43,1*78
$GBGSV,3,2,11,13,27,089,22,24,72,292,45,25,15,299,47,26,55,124,45,1*7A
$GBGSV,3,3,11,29,12,040,,33,04,261,42,35,54,076,43,1*4C
$GBGSV,3,1,11,02,04,106,,05,18,128,,10,07,078,28,12,25,189,49,3*7A
$GBGSV,3,2,11,13,27,089,,24,72,292,,25,15,299,,26,55,124,,3*7B
$GBGSV,3,3,11,29,12,040,,33,04,261,,35,54,076,,3*4F
$GNGLL,5025.4463469,N,01411.3821636,E,211631.00,A,D*76
$GNRMC,211632.00,A,5025.4463634,N,01411.3822068,E,0.003,,241021,,,F,V*17
$GNVTG,,T,,M,0.003,N,0.005,K,D*3E
$GNGGA,211632.00,5025.4463634,N,01411.3822068,E,5,12,0.67,216.824,M,44.078,M,1.0,0084*60
$GNGSA,A,3,24,25,29,31,32,06,12,02,,,,,1.25,0.67,1.05,1*0C
$GNGSA,A,3,33,31,26,01,24,05,09,13,,,,,1.25,0.67,1.05,3*0F
$GNGSA,A,3,12,35,26,13,24,25,,,,,,,1.25,0.67,1.05,4*05
$GPGSV,3,1,10,02,36,106,36,03,02,356,15,06,28,058,30,12,75,059,48,1*64
$GPGSV,3,2,10,19,08,044,30,24,35,152,45,25,66,284,45,29,31,209,46,1*68
$GPGSV,3,3,10,31,13,310,39,32,33,274,49,1*60
$GPGSV,3,1,10,02,36,106,,03,02,356,,06,28,058,19,12,75,059,44,6*65
$GPGSV,3,2,10,19,08,044,,24,35,152,43,25,66,284,45,29,31,209,42,6*6E
$GPGSV,3,3,10,31,13,310,40,32,33,274,42,6*62
$GAGSV,3,1,10,01,55,087,43,04,09,210,30,05,20,314,45,09,28,260,41,7*76
$GAGSV,3,2,10,13,18,034,23,21,08,095,,24,16,280,47,26,43,091,36,7*7F
$GAGSV,3,3,10,31,64,291,44,33,28,151,45,7*76
$GAGSV,3,1,10,01,55,087,41,04,09,210,29,05,20,314,38,09,28,260,46,2*74
$GAGSV,3,2,10,13,18,034,23,21,08,095,21,24,16,280,47,26,43,091,38,2*77
$GAGSV,3,3,10,31,64,291,50,33,28,151,46,2*75
$GBGSV,3,1,11,02,04,106,,05,18,128,,10,07,078,,12,25,189,43,1*78
$GBGSV,3,2,11,13,27,089,21,24,72,292,45,25,15,299,47,26,55,124,45,1*79
$GBGSV,3,3,11,29,12,040,,33,04,261,42,35,54,076,44,1*4B
$GBGSV,3,1,11,02,04,106,,05,18,128,,10,07,078,28,12,25,189,49,3*7A
$GBGSV,3,2,11,13,27,089,,24,72,292,,25,15,299,,26,55,124,,3*7B
$GBGSV,3,3,11,29,12,040,,33,04,261,,35,54,076,,3*4F
$GNGLL,5025.4463634,N,01411.3822068,E,211632.00,A,D*71
$GNRMC,211633.00,A,5025.4463398,N,01411.3821962,E,0.001,,241021,,,F,V*17
$GNVTG,,T,,M,0.001,N,0.001,K,D*38
$GNGGA,211633.00,5025.4463398,N,01411.3821962,E,5,12,0.67,216.859,M,44.078,M,1.0,0084*68
$GNGSA,A,3,24,25,29,31,32,06,12,02,,,,,1.25,0.67,1.05,1*0C
$GNGSA,A,3,33,31,26,01,24,05,09,13,,,,,1.25,0.67,1.05,3*0F
$GNGSA,A,3,12,35,26,13,24,25,,,,,,,1.25,0.67,1.05,4*05
$GPGSV,3,1,10,02,36,106,36,03,02,356,15,06,28,058,31,12,75,059,48,1*65
$GPGSV,3,2,10,19,08,044,30,24,35,152,45,25,66,284,45,29,31,209,46,1*68
$GPGSV,3,3,10,31,13,310,40,32,33,274,49,1*6E
$GPGSV,3,1,10,02,36,106,,03,02,356,,06,28,058,18,12,75,059,44,6*64
$GPGSV,3,2,10,19,08,044,,24,35,152,43,25,66,284,45,29,31,209,42,6*6E
$GPGSV,3,3,10,31,13,310,39,32,33,274,43,6*6D
$GAGSV,3,1,10,01,55,087,43,04,09,210,30,05,20,314,45,09,28,260,41,7*76
$GAGSV,3,2,10,13,18,034,22,21,08,095,,24,16,280,47,26,43,091,37,7*7F
$GAGSV,3,3,10,31,64,291,44,33,28,151,45,7*76
$GAGSV,3,1,10,01,55,087,41,04,09,210,29,05,20,314,39,09,28,260,46,2*75
$GAGSV,3,2,10,13,18,034,22,21,08,095,21,24,16,280,47,26,43,091,38,2*76
$GAGSV,3,3,10,31,64,291,50,33,28,151,46,2*75
$GBGSV,3,1,11,02,04,106,,05,18,128,,10,07,078,,12,25,189,43,1*78
$GBGSV,3,2,11,13,27,089,21,24,72,292,45,25,15,299,47,26,55,124,45,1*79
$GBGSV,3,3,11,29,12,040,,33,04,261,42,35,54,076,44,1*4B
$GBGSV,3,1,11,02,04,106,,05,18,128,,10,07,078,28,12,25,189,49,3*7A
$GBGSV,3,2,11,13,27,089,,24,72,292,,25,15,299,,26,55,124,,3*7B
$GBGSV,3,3,11,29,12,040,,33,04,261,,35,54,076,,3*4F
$GNGLL,5025.4463398,N,01411.3821962,E,211633.00,A,D*73
$GNRMC,211634.00,A,5025.4463134,N,01411.3821815,E,0.007,,241021,,,F,V*13
$GNVTG,,T,,M,0.007,N,0.013,K,D*3D
$GNGGA,211634.00,5025.4463134,N,01411.3821815,E,5,12,0.67,216.890,M,44.078,M,1.0,0084*6F
$GNGSA,A,3,24,25,29,31,32,06,12,02,,,,,1.25,0.67,1.05,1*0C
$GNGSA,A,3,33,31,26,01,24,05,09,13,,,,,1.25,0.67,1.05,3*0F
$GNGSA,A,3,12,35,26,13,24,25,,,,,,,1.25,0.67,1.05,4*05
$GPGSV,3,1,10,02,36,106,36,03,02,356,15,06,28,058,31,12,75,059,48,1*65
$GPGSV,3,2,10,19,08,044,30,24,35,152,45,25,66,284,45,29,31,209,46,1*68
$GPGSV,3,3,10,31,13,310,40,32,33,274,49,1*6E
$GPGSV,3,1,10,02,36,106,,03,02,356,,06,28,058,18,12,75,059,44,6*64
$GPGSV,3,2,10,19,08,044,,24,35,152,43,25,66,284,45,29,31,209,42,6*6E
$GPGSV,3,3,10,31,13,310,39,32,33,274,42,6*6C
$GAGSV,3,1,10,01,55,087,43,04,09,210,30,05,20,314,45,09,28,260,41,7*76
$GAGSV,3,2,10,13,18,034,23,21,07,095,,24,16,280,47,26,43,091,37,7*71
$GAGSV,3,3,10,31,64,291,44,33,28,151,45,7*76
$GAGSV,3,1,10,01,55,087,41,04,09,210,28,05,20,314,38,09,28,260,46,2*75
$GAGSV,3,2,10,13,18,034,22,21,07,095,21,24,16,280,47,26,43,091,38,2*79
$GAGSV,3,3,10,31,64,291,50,33,28,151,46,2*75
$GBGSV,3,1,11,02,04,106,,05,18,128,,10,07,078,,12,25,189,43,1*78
$GBGSV,3,2,11,13,27,089,20,24,72,292,45,25,15,299,47,26,55,124,45,1*78
$GBGSV,3,3,11,29,12,040,,33,04,261,42,35,54,076,44,1*4B
$GBGSV,3,1,11,02,04,106,,05,18,128,,10,07,078,27,12,25,189,49,3*75
$GBGSV,3,2,11,13,27,089,,24,72,292,,25,15,299,,26,55,124,,3*7B
$GBGSV,3,3,11,29,12,040,,33,04,261,,35,54,076,,3*4F
$GNGLL,5025.4463134,N,01411.3821815,E,211634.00,A,D*71
$GNRMC,211635.00,A,5025.4462854,N,01411.3821646,E,0.008,,241021,,,F,V*1B
$GNVTG,,T,,M,0.008,N,0.014,K,D*35
$GNGGA,211635.00,5025.4462854,N,01411.3821646,E,5,12,0.67,216.928,M,44.078,M,1.0,0084*6A
$GNGSA,A,3,24,25,29,31,32,06,12,02,,,,,1.25,0.67,1.05,1*0C
$GNGSA,A,3,33,31,26,01,24,05,09,13,,,,,1.25,0.67,1.05,3*0F
$GNGSA,A,3,12,35,26,13,24,25,,,,,,,1.25,0.67,1.05,4*05
$GPGSV,3,1,10,02,36,106,36,03,02,356,17,06,28,058,32,12,75,059,48,1*64
$GPGSV,3,2,10,19,08,044,30,24,35,152,45,25,66,284,45,29,31,209,46,1*68
$GPGSV,3,3,10,31,13,310,40,32,33,274,49,1*6E
$GPGSV,3,1,10,02,36,106,,03,02,356,,06,28,058,19,12,75,059,44,6*65
$GPGSV,3,2,10,19,08,044,,24,35,152,43,25,66,284,45,29,31,209,42,6*6E
$GPGSV,3,3,10,31,13,310,39,32,33,274,43,6*6D
$GAGSV,3,1,10,01,55,087,43,04,09,210,30,05,20,314,45,09,28,260,41,7*76
$GAGSV,3,2,10,13,18,034,22,21,07,095,,24,16,280,47,26,43,091,37,7*70
$GAGSV,3,3,10,31,64,291,44,33,28,151,45,7*76
$GAGSV,3,1,10,01,55,087,41,04,09,210,28,05,20,314,38,09,28,260,46,2*75
$GAGSV,3,2,10,13,18,034,22,21,07,095,21,24,16,280,47,26,43,091,38,2*79
$GAGSV,3,3,10,31,64,291,51,33,28,151,46,2*74
$GBGSV,3,1,11,02,04,106,,05,18,128,,10,07,078,,12,25,189,43,1*78
$GBGSV,3,2,11,13,27,089,20,24,72,292,45,25,15,299,47,26,55,124,45,1*78
$GBGSV,3,3,11,29,12,040,,33,04,261,42,35,54,076,44,1*4B
$GBGSV,3,1,11,02,04,106,,05,18,128,,10,07,078,27,12,25,189,49,3*75
$GBGSV,3,2,11,13,27,089,,24,72,292,,25,15,299,,26,55,124,,3*7B
$GBGSV,3,3,11,29,12,040,,33,04,261,,35,54,076,,3*4F
$GNGLL,5025.4462854,N,01411.3821646,E,211635.00,A,D*76
$GNRMC,211636.00,A,5025.4462553,N,01411.3821473,E,0.005,,241021,,,F,V*1B
$GNVTG,,T,,M,0.005,N,0.009,K,D*34
$GNGGA,211636.00,5025.4462553,N,01411.3821473,E,5,12,0.67,216.975,M,44.078,M,1.0,0084*6F
$GNGSA,A,3,24,25,29,31,32,06,12,02,,,,,1.25,0.67,1.05,1*0C
$GNGSA,A,3,33,31,26,01,24,05,09,13,,,,,1.25,0.67,1.05,3*0F
$GNGSA,A,3,12,35,26,13,24,25,,,,,,,1.25,0.67,1.05,4*05
$GPGSV,3,1,10,02,36,106,36,03,02,356,19,06,28,058,31,12,75,059,48,1*69
$GPGSV,3,2,10,19,08,044,30,24,35,152,45,25,66,284,44,29,31,209,46,1*69
$GPGSV,3,3,10,31,13,310,40,32,33,274,49,1*6E
$GPGSV,3,1,10,02,36,106,,03,02,356,,06,28,058,19,12,75,059,44,6*65
$GPGSV,3,2,10,19,08,044,,24,35,152,43,25,66,284,45,29,31,209,42,6*6E
$GPGSV,3,3,10,31,13,310,39,32,33,274,43,6*6D
$GAGSV,3,1,10,01,55,087,43,04,09,210,30,05,20,314,45,09,28,260,41,7*76
$GAGSV,3,2,10,13,18,034,23,21,07,095,,24,16,280,47,26,43,091,37,7*71
$GAGSV,3,3,10,31,64,291,44,33,28,151,45,7*76
$GAGSV,3,1,10,01,55,087,41,04,09,210,28,05,20,314,38,09,28,260,46,2*75
$GAGSV,3,2,10,13,18,034,22,21,07,095,20,24,16,280,47,26,43,091,38,2*78
$GAGSV,3,3,10,31,64,291,50,33,28,151,46,2*75
$GBGSV,3,1,11,02,04,106,,05,18,128,,10,07,078,,12,25,189,43,1*78
$GBGSV,3,2,11,13,27,089,21,24,72,292,45,25,15,299,47,26,55,124,46,1*7A
$GBGSV,3,3,11,29,12,040,,33,04,261,42,35,54,076,44,1*4B
$GBGSV,3,1,11,02,04,106,,05,18,128,,10,07,078,27,12,25,189,49,3*75
$GBGSV,3,2,11,13,27,089,,24,72,292,,25,15,299,,26,55,124,,3*7B
$GBGSV,3,3,11,29,12,040,,33,04,261,,35,54,076,,3*4F
$GNGLL,5025.4462553,N,01411.3821473,E,211636.00,A,D*7B
$GNRMC,211637.00,A,5025.4462227,N,01411.3821338,E,0.002,,241021,,,F,V*11
$GNVTG,,T,,M,0.002,N,0.003,K,D*39
$GNGGA,211637.00,5025.4462227,N,01411.3821338,E,5,12,0.67,216.995,M,44.078,M,1.0,0084*6C
$GNGSA,A,3,24,25,29,31,32,06,12,02,,,,,1.25,0.67,1.05,1*0C
$GNGSA,A,3,33,31,26,01,24,05,09,13,,,,,1.25,0.67,1.05,3*0F
$GNGSA,A,3,12,35,26,13,24,25,,,,,,,1.25,0.67,1.05,4*05
$GPGSV,3,1,10,02,36,106,36,03,02,356,20,06,28,058,32,12,75,059,48,1*60
$GPGSV,3,2,10,19,08,044,30,24,35,152,45,25,66,284,44,29,31,209,46,1*69
$GPGSV,3,3,10,31,13,310,40,32,33,274,49,1*6E
$GPGSV,3,1,10,02,36,106,,03,02,356,,06,28,058,19,12,75,059,44,6*65
$GPGSV,3,2,10,19,08,044,,24,35,152,43,25,66,284,45,29,31,209,42,6*6E
$GPGSV,3,3,10,31,13,310,39,32,33,274,43,6*6D
$GAGSV,3,1,10,01,55,087,43,04,09,210,30,05,20,314,45,09,28,260,41,7*76
$GAGSV,3,2,10,13,18,034,24,21,07,095,,24,16,280,47,26,43,091,37,7*76
$GAGSV,3,3,10,31,64,291,44,33,28,151,45,7*76
$GAGSV,3,1,10,01,55,087,41,04,09,210,28,05,20,314,38,09,28,260,46,2*75
$GAGSV,3,2,10,13,18,034,22,21,07,095,20,24,16,280,47,26,43,091,38,2*78
$GAGSV,3,3,10,31,64,291,50,33,28,151,46,2*75
$GBGSV,3,1,11,02,04,106,,05,18,128,,10,07,078,,12,25,189,43,1*78
$GBGSV,3,2,11,13,27,089,21,24,72,292,45,25,15,299,47,26,55,124,46,1*7A
$GBGSV,3,3,11,29,12,040,,33,04,261,42,35,54,076,44,1*4B
$GBGSV,3,1,11,02,04,106,,05,18,128,,10,07,078,27,12,25,189,49,3*75
$GBGSV,3,2,11,13,27,089,,24,72,292,,25,15,299,,26,55,124,,3*7B
$GBGSV,3,3,11,29,12,040,,33,04,261,,35,54,076,,3*4F
$GNGLL,5025.4462227,N,01411.3821338,E,211637.00,A,D*76
$GNRMC,211638.00,A,5025.4461909,N,01411.3821212,E,0.004,,241021,,,F,V*15
$GNVTG,,T,,M,0.004,N,0.007,K,D*3B
$GNGGA,211638.00,5025.4461909,N,01411.3821212,E,5,12,0.67,217.025,M,44.078,M,1.0,0084*6D
$GNGSA,A,3,24,25,29,31,32,06,12,02,,,,,1.25,0.67,1.05,1*0C
$GNGSA,A,3,33,31,26,01,24,05,09,13,,,,,1.25,0.67,1.05,3*0F
$GNGSA,A,3,12,35,26,13,24,25,,,,,,,1.25,0.67,1.05,4*05
$GPGSV,3,1,10,02,36,106,36,03,02,356,20,06,28,058,32,12,75,059,47,1*6F
$GPGSV,3,2,10,19,08,044,31,24,35,152,45,25,66,284,44,29,31,209,46,1*68
$GPGSV,3,3,10,31,13,310,40,32,33,274,49,1*6E
$GPGSV,3,1,10,02,36,106,,03,02,356,20,06,28,058,19,12,75,059,44,6*67
$GPGSV,3,2,10,19,08,044,,24,35,152,43,25,66,284,45,29,31,209,42,6*6E
$GPGSV,3,3,10,31,13,310,39,32,33,274,43,6*6D
$GAGSV,3,1,10,01,55,087,43,04,09,210,30,05,20,314,45,09,28,260,41,7*76
$GAGSV,3,2,10,13,18,034,24,21,07,095,,24,16,280,47,26,43,091,38,7*79
$GAGSV,3,3,10,31,64,291,44,33,28,151,45,7*76
$GAGSV,3,1,10,01,55,087,41,04,09,210,28,05,20,314,38,09,28,260,46,2*75
$GAGSV,3,2,10,13,18,034,21,21,07,095,21,24,16,280,47,26,43,091,38,2*7A
$GAGSV,3,3,10,31,64,291,50,33,28,151,46,2*75
$GBGSV,3,1,11,02,04,106,,05,18,128,,10,07,078,,12,25,189,43,1*78
$GBGSV,3,2,11,13,27,089,21,24,72,292,45,25,15,299,47,26,55,124,46,1*7A
$GBGSV,3,3,11,29,12,040,,33,04,261,42,35,54,076,44,1*4B
$GBGSV,3,1,11,02,04,106,,05,18,128,,10,07,078,27,12,25,189,49,3*75
$GBGSV,3,2,11,13,27,089,,24,72,292,,25,15,299,,26,55,124,,3*7B
