$GNGGA,212454.00,5025.4447581,N,01411.3818192,E,4,12,0.62,217.780,M,44.078,M,1.0,0084*63
$GNGSA,A,3,24,12,32,25,02,31,29,06,,,,,1.15,0.62,0.96,1*01
$GNGSA,A,3,81,87,88,69,79,77,78,70,,,,,1.15,0.62,0.96,2*03
$GNGSA,A,3,26,25,24,13,12,35,,,,,,,1.15,0.62,0.96,4*08
$GPGSV,3,1,11,02,38,102,25,03,02,353,25,06,27,054,31,11,,,28,1*52
$GPGSV,3,2,11,12,72,066,47,19,04,044,,24,31,153,44,25,70,288,38,1*66
$GPGSV,3,3,11,29,35,210,44,31,16,310,46,32,32,270,45,1*5B
$GPGSV,3,1,10,02,38,102,,03,02,353,17,06,27,054,26,12,72,066,43,6*6F
$GPGSV,3,2,10,19,04,044,,24,31,153,46,25,70,288,44,29,35,210,42,6*64
$GPGSV,3,3,10,31,16,310,41,32,32,270,42,6*63
$GLGSV,3,1,09,68,04,242,34,69,21,288,46,70,12,347,26,77,31,107,18,1*7B
$GLGSV,3,2,09,78,77,020,49,79,32,306,45,81,15,183,40,87,52,054,47,1*72
$GLGSV,3,3,09,88,57,140,47,1*45
$GLGSV,3,1,09,68,04,242,30,69,21,288,42,70,12,347,,77,31,107,16,3*73
$GLGSV,3,2,09,78,77,020,43,79,32,306,43,81,15,183,42,87,52,054,,3*7D
$GLGSV,3,3,09,88,57,140,43,3*43
$GBGSV,3,1,11,02,04,106,,05,18,128,,10,06,080,23,12,29,190,44,1*7C
$GBGSV,3,2,11,13,29,088,29,24,75,288,41,25,18,300,49,26,52,127,40,1*75
$GBGSV,3,3,11,29,10,039,21,33,01,259,,35,52,071,44,1*4D
$GBGSV,3,1,11,02,04,106,,05,18,128,,10,06,080,25,12,29,190,48,3*74
$GBGSV,3,2,11,13,29,088,24,24,75,288,,25,18,300,,26,52,127,,3*76
$GBGSV,3,3,11,29,10,039,,33,01,259,,35,52,071,,3*4C
$GNGLL,5025.4447581,N,01411.3818192,E,212454.00,A,D*76
$GNTXT,01,01,02,Starting GNSS*5A
$GNRMC,212454.28,V,,,,,,,241021,,,N,V*13
$GNVTG,,,,,,,,,N*2E
$GNGGA,212454.28,,,,,0,00,99.99,,,,,,*76
$GNGSA,A,1,,,,,,,,,,,,,99.99,99.99,99.99,1*33
$GNGSA,A,1,,,,,,,,,,,,,99.99,99.99,99.99,3*31
$GNGSA,A,1,,,,,,,,,,,,,99.99,99.99,99.99,4*36
$GPGSV,1,1,00,1*64
$GPGSV,1,1,00,6*63
$GAGSV,1,1,00,7*73
$GAGSV,1,1,00,2*76
$GBGSV,1,1,00,1*76
$GBGSV,1,1,00,3*74
$GNGLL,,,,,212454.28,V,N*5A
$GNRMC,212455.00,A,5025.4446905,N,01411.3799904,E,0.266,,241021,,,A,V*17
$GNVTG,,T,,M,0.266,N,0.492,K,A*30
$GNGGA,212455.00,5025.4446905,N,01411.3799904,E,1,12,0.65,222.224,M,44.078,M,,*4E
$GNGSA,A,3,24,25,31,32,29,12,06,,,,,,1.26,0.65,1.07,1*0D
$GNGSA,A,3,33,31,26,24,01,05,09,,,,,,1.26,0.65,1.07,3*0E
$GNGSA,A,3,12,13,24,25,26,35,,,,,,,1.26,0.65,1.07,4*06
$GPGSV,3,1,10,02,39,102,22,03,02,352,,06,27,054,29,12,71,067,46,1*66
$GPGSV,3,2,10,19,04,044,,24,31,153,43,25,70,288,38,29,35,210,43,1*6C
$GPGSV,3,3,10,31,16,310,45,32,32,270,44,1*66
$GPGSV,3,1,10,02,39,102,,03,02,352,,06,27,054,,12,71,067,,6*68
$GPGSV,3,2,10,19,04,044,,24,31,153,,25,70,288,,29,35,210,,6*60
$GPGSV,3,3,10,31,16,310,,32,32,270,,6*60
$GAGSV,3,1,10,01,52,090,40,04,06,209,,05,20,312,46,09,26,258,43,7*72
$GAGSV,3,2,10,13,16,032,24,21,05,097,30,24,19,282,48,26,44,087,35,7*7D
$GAGSV,3,3,10,31,67,295,41,33,31,149,44,7*74
$GAGSV,3,1,10,01,52,090,,04,06,209,,05,20,312,,09,26,258,,2*76
$GAGSV,3,2,10,13,16,032,,21,05,097,,24,19,282,,26,44,087,,2*77
$GAGSV,3,3,10,31,67,295,,33,31,149,,2*74
$GBGSV,3,1,11,02,04,106,,05,18,128,,10,06,080,23,12,29,190,43,1*7B
$GBGSV,3,2,11,13,29,088,31,24,75,288,40,25,18,300,48,26,52,127,39,1*72
$GBGSV,3,3,11,29,09,039,,33,01,259,,35,52,071,43,1*41
$GBGSV,3,1,11,02,04,106,,05,18,128,,10,06,080,,12,29,190,,3*7F
$GBGSV,3,2,11,13,29,088,,24,75,288,,25,18,300,,26,52,127,,3*70
$GBGSV,3,3,11,29,09,039,,33,01,259,,35,52,071,,3*44
$GNGLL,5025.4446905,N,01411.3799904,E,212455.00,A,A*72
$GNRMC,212456.00,A,5025.4460007,N,01411.3811401,E,0.085,,241021,,,A,V*13
$GNVTG,,T,,M,0.085,N,0.157,K,A*33
$GNGGA,212456.00,5025.4460007,N,01411.3811401,E,1,12,0.60,219.368,M,44.078,M,,*41
$GNGSA,A,3,24,25,31,32,29,12,06,,,,,,1.17,0.60,1.00,1*0D
$GNGSA,A,3,33,31,26,24,01,13,05,09,,,,,1.17,0.60,1.00,3*0C
$GNGSA,A,3,12,13,24,25,26,35,,,,,,,1.17,0.60,1.00,4*06
$GPGSV,3,1,10,02,39,102,23,03,02,352,18,06,27,054,31,12,71,067,46,1*67
$GPGSV,3,2,10,19,04,044,,24,31,153,44,25,70,288,38,29,35,210,43,1*6B
$GPGSV,3,3,10,31,16,310,45,32,32,270,45,1*67
$GPGSV,3,1,10,02,39,102,18,03,02,352,19,06,27,054,27,12,71,067,44,6*6C
$GPGSV,3,2,10,19,04,044,18,24,31,153,46,25,70,288,44,29,35,210,42,6*6D
$GPGSV,3,3,10,31,16,310,41,32,32,270,42,6*63
$GAGSV,3,1,10,01,52,090,39,04,06,209,,05,20,312,45,09,26,258,42,7*7E
$GAGSV,3,2,10,13,16,032,23,21,05,097,29,24,19,282,48,26,44,087,34,7*73
$GAGSV,3,3,10,31,67,295,41,33,31,149,44,7*74
$GAGSV,3,1,10,01,52,090,43,04,06,209,30,05,20,312,44,09,26,258,47,2*71
$GAGSV,3,2,10,13,16,032,31,21,05,097,27,24,19,282,46,26,44,087,39,2*78
$GAGSV,3,3,10,31,67,295,51,33,31,149,44,2*70
$GBGSV,3,1,11,02,04,106,,05,18,128,,10,06,080,23,12,29,190,44,1*7C
$GBGSV,3,2,11,13,29,088,30,24,75,288,41,25,18,300,49,26,52,127,40,1*7D
$GBGSV,3,3,11,29,09,039,24,33,01,259,,35,52,071,44,1*40
$GBGSV,3,1,11,02,04,106,,05,18,128,,10,06,080,26,12,29,190,49,3*76
$GBGSV,3,2,11,13,29,088,23,24,75,288,,25,18,300,,26,52,127,,3*71
$GBGSV,3,3,11,29,09,039,,33,01,259,,35,52,071,,3*44
$GNGLL,5025.4460007,N,01411.3811401,E,212456.00,A,A*79
$GNRMC,212457.00,A,5025.4458617,N,01411.3823826,E,0.002,,241021,,,A,V*19
$GNVTG,,T,,M,0.002,N,0.004,K,A*3B
$GNGGA,212457.00,5025.4458617,N,01411.3823826,E,1,12,0.60,216.703,M,44.078,M,,*42
$GNGSA,A,3,24,25,31,32,29,02,12,06,,,,,1.17,0.60,1.00,1*0F
$GNGSA,A,3,33,31,26,24,01,13,05,09,,,,,1.17,0.60,1.00,3*0C
$GNGSA,A,3,12,13,24,25,26,35,,,,,,,1.17,0.60,1.00,4*06
$GPGSV,3,1,10,02,39,102,23,03,02,352,16,06,27,054,31,12,71,067,47,1*68
$GPGSV,3,2,10,19,04,044,,24,31,153,44,25,70,288,38,29,35,210,43,1*6B
$GPGSV,3,3,10,31,16,310,45,32,32,270,45,1*67
$GPGSV,3,1,10,02,39,102,15,03,02,352,15,06,27,054,27,12,71,067,43,6*6A
$GPGSV,3,2,10,19,04,044,15,24,31,153,46,25,70,288,44,29,35,210,42,6*60
$GPGSV,3,3,10,31,16,310,41,32,32,270,42,6*63
$GAGSV,3,1,10,01,52,090,39,04,06,209,,05,20,312,45,09,26,258,42,7*7E
$GAGSV,3,2,10,13,16,032,23,21,05,097,28,24,19,282,48,26,44,087,34,7*72
$GAGSV,3,3,10,31,67,295,41,33,31,149,44,7*74
$GAGSV,3,1,10,01,52,090,41,04,06,209,28,05,20,312,43,09,26,258,45,2*7F
$GAGSV,3,2,10,13,16,032,29,21,05,097,24,24,19,282,45,26,44,087,38,2*70
$GAGSV,3,3,10,31,67,295,50,33,31,149,43,2*76
$GBGSV,3,1,11,02,04,106,,05,18,128,,10,06,080,24,12,29,190,44,1*7B
$GBGSV,3,2,11,13,29,088,30,24,75,288,41,25,18,300,49,26,52,127,40,1*7D
$GBGSV,3,3,11,29,09,039,24,33,01,259,,35,52,071,44,1*40
$GBGSV,3,1,11,02,04,106,,05,18,128,,10,06,080,26,12,29,190,49,3*76
$GBGSV,3,2,11,13,29,088,,24,75,288,,25,18,300,,26,52,127,,3*70
$GBGSV,3,3,11,29,09,039,,33,01,259,,35,52,071,,3*44
$GNGLL,5025.4458617,N,01411.3823826,E,212457.00,A,A*7C
$GNRMC,212458.00,A,5025.4457069,N,01411.3826523,E,0.002,,241021,,,A,V*1B
$GNVTG,,T,,M,0.002,N,0.003,K,A*3C
$GNGGA,212458.00,5025.4457069,N,01411.3826523,E,1,12,0.60,216.415,M,44.078,M,,*44
$GNGSA,A,3,24,25,31,32,29,02,12,06,,,,,1.17,0.60,1.00,1*0F
$GNGSA,A,3,33,31,26,24,01,13,05,09,,,,,1.17,0.60,1.00,3*0C
$GNGSA,A,3,12,13,24,25,26,35,,,,,,,1.17,0.60,1.00,4*06
$GPGSV,3,1,10,02,39,102,24,03,02,352,14,06,27,054,32,12,71,067,47,1*6E
$GPGSV,3,2,10,19,04,044,,24,31,153,44,25,70,288,38,29,35,210,44,1*6C
$GPGSV,3,3,10,31,16,310,46,32,32,270,46,1*67
$GPGSV,3,1,10,02,39,102,11,03,02,352,09,06,27,054,27,12,71,067,43,6*63
$GPGSV,3,2,10,19,04,044,11,24,31,153,46,25,70,288,44,29,35,210,42,6*64
$GPGSV,3,3,10,31,16,310,40,32,32,270,42,6*62
$GAGSV,3,1,10,01,52,090,39,04,06,209,,05,20,312,45,09,26,258,42,7*7E
$GAGSV,3,2,10,13,16,032,23,21,05,097,28,24,19,282,48,26,44,087,34,7*72
$GAGSV,3,3,10,31,67,295,41,33,31,149,44,7*74
$GAGSV,3,1,10,01,52,090,41,04,06,209,27,05,20,312,43,09,26,258,45,2*70
$GAGSV,3,2,10,13,16,032,29,21,05,097,24,24,19,282,44,26,44,087,38,2*71
$GAGSV,3,3,10,31,67,295,50,33,31,149,43,2*76
$GBGSV,3,1,11,02,04,106,,05,18,128,,10,06,080,24,12,29,190,44,1*7B
$GBGSV,3,2,11,13,29,088,30,24,75,288,41,25,18,300,49,26,52,127,40,1*7D
$GBGSV,3,3,11,29,09,039,23,33,01,259,,35,52,071,44,1*47
$GBGSV,3,1,11,02,04,106,,05,18,128,,10,06,080,25,12,29,190,49,3*75
$GBGSV,3,2,11,13,29,088,23,24,75,288,,25,18,300,,26,52,127,,3*71
$GBGSV,3,3,11,29,09,039,,33,01,259,,35,52,071,,3*44
$GNGLL,5025.4457069,N,01411.3826523,E,212458.00,A,A*7E
$GNRMC,212459.00,A,5025.4455900,N,01411.3824843,E,0.010,,241021,,,A,V*14
$GNVTG,,T,,M,0.010,N,0.018,K,A*35
$GNGGA,212459.00,5025.4455900,N,01411.3824843,E,1,12,0.60,216.730,M,44.078,M,,*4C
$GNGSA,A,3,24,25,31,32,29,02,12,06,,,,,1.17,0.60,1.00,1*0F
$GNGSA,A,3,33,31,26,24,01,13,05,09,,,,,1.17,0.60,1.00,3*0C
$GNGSA,A,3,12,13,24,25,26,35,,,,,,,1.17,0.60,1.00,4*06
$GPGSV,3,1,10,02,39,102,25,03,02,352,13,06,27,054,32,12,71,067,47,1*68
$GPGSV,3,2,10,19,04,044,,24,31,153,44,25,70,288,38,29,35,210,44,1*6C
$GPGSV,3,3,10,31,16,310,46,32,32,270,46,1*67
$GPGSV,3,1,10,02,39,102,09,03,02,352,,06,27,054,28,12,71,067,43,6*6C
$GPGSV,3,2,10,19,04,044,09,24,31,153,46,25,70,288,44,29,35,210,42,6*6D
$GPGSV,3,3,10,31,16,310,40,32,32,270,42,6*62
$GAGSV,3,1,10,01,52,090,39,04,06,209,,05,20,312,45,09,26,258,42,7*7E
$GAGSV,3,2,10,13,16,032,23,21,05,097,28,24,19,282,48,26,44,087,34,7*72
$GAGSV,3,3,10,31,67,295,41,33,31,149,44,7*74
$GAGSV,3,1,10,01,52,090,41,04,06,209,27,05,20,312,43,09,26,258,45,2*70
$GAGSV,3,2,10,13,16,032,29,21,05,097,24,24,19,282,44,26,44,087,38,2*71
$GAGSV,3,3,10,31,67,295,50,33,31,149,43,2*76
$GBGSV,3,1,11,02,04,106,,05,18,128,,10,06,080,24,12,29,190,44,1*7B
$GBGSV,3,2,11,13,29,088,30,24,75,288,41,25,18,300,49,26,52,127,40,1*7D
$GBGSV,3,3,11,29,09,039,24,33,01,259,,35,52,071,44,1*40
$GBGSV,3,1,11,02,04,106,,05,18,128,,10,06,080,25,12,29,190,49,3*75
$GBGSV,3,2,11,13,29,088,22,24,75,288,,25,18,300,,26,52,127,,3*70
$GBGSV,3,3,11,29,09,039,,33,01,259,,35,52,071,,3*44
$GNGLL,5025.4455900,N,01411.3824843,E,212459.00,A,A*72
$GNRMC,212500.00,A,5025.4455476,N,01411.3823416,E,0.002,,241021,,,A,V*1D
$GNVTG,,T,,M,0.002,N,0.004,K,A*3B
$GNGGA,212500.00,5025.4455476,N,01411.3823416,E,1,12,0.60,216.819,M,44.078,M,,*42
$GNGSA,A,3,24,25,31,32,29,02,12,06,,,,,1.17,0.60,1.00,1*0F
$GNGSA,A,3,33,31,26,24,01,13,05,09,,,,,1.17,0.60,1.00,3*0C
$GNGSA,A,3,12,13,24,25,26,35,,,,,,,1.17,0.60,1.00,4*06
$GPGSV,3,1,10,02,39,102,25,03,02,352,09,06,27,054,33,12,71,067,47,1*62
$GPGSV,3,2,10,19,04,044,,24,31,153,44,25,70,288,37,29,35,210,44,1*63
$GPGSV,3,3,10,31,16,310,46,32,32,270,46,1*67
$GPGSV,3,1,10,02,39,102,08,03,02,352,20,06,27,054,28,12,71,067,43,6*6F
$GPGSV,3,2,10,19,04,044,08,24,31,153,46,25,70,288,44,29,35,210,42,6*6C
$GPGSV,3,3,10,31,16,310,40,32,32,270,42,6*62
$GAGSV,3,1,10,01,52,090,39,04,06,209,,05,20,312,45,09,26,258,42,7*7E
$GAGSV,3,2,10,13,16,032,23,21,05,097,28,24,19,282,48,26,44,087,34,7*72
$GAGSV,3,3,10,31,67,295,41,33,31,149,44,7*74
$GAGSV,3,1,10,01,52,090,41,04,06,209,27,05,20,312,43,09,26,258,45,2*70
$GAGSV,3,2,10,13,16,032,29,21,05,097,24,24,19,282,44,26,44,087,38,2*71
$GAGSV,3,3,10,31,67,295,50,33,31,149,43,2*76
$GBGSV,3,1,11,02,04,106,,05,18,128,,10,06,080,23,12,29,190,44,1*7C
$GBGSV,3,2,11,13,29,088,29,24,75,288,41,25,18,300,48,26,52,127,39,1*7A
$GBGSV,3,3,11,29,09,039,25,33,01,259,,35,52,071,44,1*41
$GBGSV,3,1,11,02,04,106,,05,18,128,,10,06,080,24,12,29,190,49,3*74
$GBGSV,3,2,11,13,29,088,,24,75,288,,25,18,300,,26,52,127,,3*70
$GBGSV,3,3,11,29,09,039,,33,01,259,,35,52,071,,3*44
$GNGLL,5025.4455476,N,01411.3823416,E,212500.00,A,A*78
$GNRMC,212501.00,A,5025.4455666,N,01411.3822703,E,0.004,,241021,,,A,V*1F
$GNVTG,,T,,M,0.004,N,0.007,K,A*3E
$GNGGA,212501.00,5025.4455666,N,01411.3822703,E,1,12,0.60,216.700,M,44.078,M,,*41
$GNGSA,A,3,24,25,31,32,29,02,12,06,,,,,1.17,0.60,1.00,1*0F
$GNGSA,A,3,33,31,26,24,01,13,05,09,,,,,1.17,0.60,1.00,3*0C
$GNGSA,A,3,12,13,24,25,26,35,,,,,,,1.17,0.60,1.00,4*06
$GPGSV,3,1,10,02,39,102,25,03,02,352,08,06,27,054,33,12,71,067,47,1*63
$GPGSV,3,2,10,19,04,044,,24,31,153,44,25,70,288,37,29,35,210,44,1*63
$GPGSV,3,3,10,31,16,310,46,32,32,270,45,1*64
$GPGSV,3,1,10,02,39,102,08,03,02,352,18,06,27,054,28,12,71,067,43,6*64
$GPGSV,3,2,10,19,04,044,08,24,31,153,46,25,70,288,44,29,35,210,42,6*6C
$GPGSV,3,3,10,31,16,310,40,32,32,270,42,6*62
$GAGSV,3,1,10,01,52,090,39,04,06,209,,05,20,312,45,09,26,258,42,7*7E
$GAGSV,3,2,10,13,16,032,23,21,05,097,28,24,19,282,47,26,44,087,34,7*7D
$GAGSV,3,3,10,31,67,295,41,33,31,149,44,7*74
$GAGSV,3,1,10,01,52,090,41,04,06,209,27,05,20,312,43,09,26,258,45,2*70
$GAGSV,3,2,10,13,16,032,29,21,05,097,24,24,19,282,44,26,44,087,38,2*71
$GAGSV,3,3,10,31,67,295,50,33,31,149,43,2*76
$GBGSV,3,1,11,02,04,106,,05,18,128,,10,06,080,23,12,29,190,44,1*7C
$GBGSV,3,2,11,13,29,088,29,24,75,288,41,25,18,300,49,26,52,127,39,1*7B
$GBGSV,3,3,11,29,09,039,25,33,01,259,,35,52,071,44,1*41
$GBGSV,3,1,11,02,04,106,,05,18,128,,10,06,080,24,12,29,190,49,3*74
$GBGSV,3,2,11,13,29,088,,24,75,288,,25,18,300,,26,52,127,,3*70
$GBGSV,3,3,11,29,09,039,,33,01,259,,35,52,071,,3*44
$GNGLL,5025.4455666,N,01411.3822703,E,212501.00,A,A*7C
$GNRMC,212502.00,A,5025.4455619,N,01411.3822129,E,0.007,,241021,,,A,V*19
$GNVTG,,T,,M,0.007,N,0.012,K,A*39
$GNGGA,212502.00,5025.4455619,N,01411.3822129,E,1,12,0.60,216.627,M,44.078,M,,*40
$GNGSA,A,3,24,25,31,32,29,02,12,06,,,,,1.17,0.60,1.00,1*0F
$GNGSA,A,3,33,31,26,24,01,13,05,09,,,,,1.17,0.60,1.00,3*0C
$GNGSA,A,3,12,13,24,25,26,35,,,,,,,1.17,0.60,1.00,4*06
$GPGSV,3,1,10,02,39,102,25,03,02,352,08,06,27,054,34,12,71,067,48,1*6B
$GPGSV,3,2,10,19,04,044,,24,31,153,44,25,70,288,37,29,35,210,44,1*63
$GPGSV,3,3,10,31,16,310,46,32,32,270,45,1*64
$GPGSV,3,1,10,02,39,102,07,03,02,352,16,06,27,054,28,12,71,067,43,6*65
$GPGSV,3,2,10,19,04,044,,24,31,153,46,25,70,288,44,29,35,210,42,6*64
$GPGSV,3,3,10,31,16,310,40,32,32,270,43,6*63
$GAGSV,3,1,10,01,52,090,39,04,06,209,,05,20,312,45,09,26,258,42,7*7E
$GAGSV,3,2,10,13,16,032,23,21,05,097,28,24,19,282,48,26,44,087,34,7*72
$GAGSV,3,3,10,31,67,295,41,33,31,149,44,7*74
$GAGSV,3,1,10,01,52,090,41,04,06,209,27,05,20,312,43,09,26,258,45,2*70
$GAGSV,3,2,10,13,16,032,29,21,05,097,24,24,19,282,44,26,44,087,38,2*71
$GAGSV,3,3,10,31,67,295,50,33,31,149,43,2*76
$GBGSV,3,1,11,02,04,106,,05,18,128,,10,06,080,24,12,29,190,44,1*7B
$GBGSV,3,2,11,13,29,088,29,24,75,288,41,25,18,300,49,26,52,127,39,1*7B
$GBGSV,3,3,11,29,09,039,24,33,01,259,,35,52,071,44,1*40
$GBGSV,3,1,11,02,04,106,,05,18,128,,10,06,080,24,12,29,190,49,3*74
$GBGSV,3,2,11,13,29,088,,24,75,288,,25,18,300,,26,52,127,,3*70
$GBGSV,3,3,11,29,09,039,,33,01,259,,35,52,071,,3*44
$GNGLL,5025.4455619,N,01411.3822129,E,212502.00,A,A*79
$GNRMC,212503.00,A,5025.4455712,N,01411.3821940,E,0.006,,241021,,,A,V*17
$GNVTG,,T,,M,0.006,N,0.012,K,A*38
$GNGGA,212503.00,5025.4455712,N,01411.3821940,E,1,12,0.60,216.595,M,44.078,M,,*45
$GNGSA,A,3,24,25,31,32,29,02,12,06,,,,,1.17,0.60,1.00,1*0F
$GNGSA,A,3,33,31,26,24,01,13,05,09,,,,,1.17,0.60,1.00,3*0C
$GNGSA,A,3,12,13,24,25,26,35,,,,,,,1.17,0.60,1.00,4*06
$GPGSV,3,1,10,02,39,102,26,03,02,352,08,06,27,054,34,12,71,067,48,1*68
$GPGSV,3,2,10,19,04,044,,24,31,153,44,25,70,288,38,29,35,210,44,1*6C
$GPGSV,3,3,10,31,16,310,46,32,32,270,45,1*64
$GPGSV,3,1,10,02,39,102,,03,02,352,15,06,27,054,28,12,71,067,43,6*61
$GPGSV,3,2,10,19,04,044,,24,31,153,46,25,70,288,44,29,35,210,42,6*64
$GPGSV,3,3,10,31,16,310,40,32,32,270,43,6*63
$GAGSV,3,1,10,01,52,090,39,04,06,209,,05,20,312,45,09,26,258,42,7*7E
$GAGSV,3,2,10,13,16,032,22,21,05,097,28,24,19,282,48,26,44,087,34,7*73
$GAGSV,3,3,10,31,67,295,41,33,31,149,44,7*74
$GAGSV,3,1,10,01,52,090,41,04,06,209,26,05,20,312,43,09,26,258,45,2*71
$GAGSV,3,2,10,13,16,032,29,21,05,097,23,24,19,282,44,26,44,087,38,2*76
$GAGSV,3,3,10,31,67,295,50,33,31,149,43,2*76
$GBGSV,3,1,11,02,04,106,,05,18,128,,10,06,080,24,12,29,190,44,1*7B
$GBGSV,3,2,11,13,29,088,29,24,75,288,41,25,18,300,48,26,52,127,40,1*74
$GBGSV,3,3,11,29,09,039,24,33,01,259,,35,52,071,44,1*40
$GBGSV,3,1,11,02,04,106,,05,18,128,,10,06,080,23,12,29,190,49,3*73
$GBGSV,3,2,11,13,29,088,,24,75,288,,25,18,300,,26,52,127,,3*70
$GBGSV,3,3,11,29,09,039,,33,01,259,,35,52,071,,3*44
$GNGLL,5025.4455712,N,01411.3821940,E,212503.00,A,A*76
$GNRMC,212504.00,A,5025.4455969,N,01411.3821836,E,0.005,,241021,,,A,V*11
$GNVTG,,T,,M,0.005,N,0.008,K,A*30
$GNGGA,212504.00,5025.4455969,N,01411.3821836,E,1,12,0.60,216.525,M,44.078,M,,*4B
$GNGSA,A,3,24,25,31,32,29,02,12,06,,,,,1.17,0.60,1.00,1*0F
$GNGSA,A,3,33,31,26,24,01,13,05,09,,,,,1.17,0.60,1.00,3*0C
$GNGSA,A,3,12,13,24,25,26,35,,,,,,,1.17,0.60,1.00,4*06
$GPGSV,3,1,10,02,39,102,26,03,02,352,09,06,27,054,34,12,71,067,48,1*69
$GPGSV,3,2,10,19,04,044,,24,31,153,44,25,70,288,39,29,35,210,45,1*6C
$GPGSV,3,3,10,31,16,310,46,32,32,270,45,1*64
$GPGSV,3,1,10,02,39,102,,03,02,352,15,06,27,054,28,12,71,067,44,6*66
$GPGSV,3,2,10,19,04,044,,24,31,153,46,25,70,288,44,29,35,210,42,6*64
$GPGSV,3,3,10,31,16,310,40,32,32,270,43,6*63
$GAGSV,3,1,10,01,52,090,39,04,06,209,,05,20,312,45,09,26,258,42,7*7E
$GAGSV,3,2,10,13,16,032,22,21,05,097,28,24,19,282,48,26,44,087,35,7*72
$GAGSV,3,3,10,31,67,295,41,33,31,149,44,7*74
$GAGSV,3,1,10,01,52,090,41,04,06,209,27,05,20,312,43,09,26,258,45,2*70
$GAGSV,3,2,10,13,16,032,29,21,05,097,23,24,19,282,44,26,44,087,38,2*76
$GAGSV,3,3,10,31,67,295,50,33,31,149,43,2*76
$GBGSV,3,1,11,02,04,106,,05,18,128,,10,06,080,25,12,29,190,44,1*7A
$GBGSV,3,2,11,13,29,088,30,24,75,288,41,25,18,300,49,26,52,127,40,1*7D
$GBGSV,3,3,11,29,09,039,24,33,01,259,,35,52,071,44,1*40
$GBGSV,3,1,11,02,04,106,,05,18,128,,10,06,080,22,12,29,190,49,3*72
$GBGSV,3,2,11,13,29,088,,24,75,288,,25,18,300,,26,52,127,,3*70
$GBGSV,3,3,11,29,09,039,,33,01,259,,35,52,071,,3*44
$GNGLL,5025.4455969,N,01411.3821836,E,212504.00,A,A*73
$GNRMC,212505.00,A,5025.4456084,N,01411.3821234,E,0.002,,241021,,,A,V*16
$GNVTG,,T,,M,0.002,N,0.003,K,A*3C
$GNGGA,212505.00,5025.4456084,N,01411.3821234,E,1,12,0.60,216.575,M,44.078,M,,*4E
$GNGSA,A,3,24,25,31,32,29,02,12,06,,,,,1.17,0.60,1.00,1*0F
$GNGSA,A,3,33,31,26,24,01,13,05,09,,,,,1.17,0.60,1.00,3*0C
$GNGSA,A,3,12,13,24,25,26,35,,,,,,,1.17,0.60,1.00,4*06
$GPGSV,3,1,10,02,39,102,26,03,02,352,13,06,27,054,35,12,71,067,47,1*6C
$GPGSV,3,2,10,19,04,044,,24,31,153,44,25,70,288,39,29,35,210,45,1*6C
$GPGSV,3,3,10,31,16,310,46,32,32,270,45,1*64
$GPGSV,3,1,10,02,39,102,,03,02,352,14,06,27,054,28,12,71,067,44,6*67
$GPGSV,3,2,10,19,04,044,,24,31,153,46,25,70,288,44,29,35,210,42,6*64
$GPGSV,3,3,10,31,16,310,40,32,32,270,43,6*63
$GAGSV,3,1,10,01,52,090,39,04,06,209,,05,20,312,45,09,26,258,42,7*7E
$GAGSV,3,2,10,13,16,032,21,21,05,097,28,24,19,282,48,26,44,087,35,7*71
$GAGSV,3,3,10,31,67,295,41,33,31,149,44,7*74
$GAGSV,3,1,10,01,52,090,41,04,06,209,27,05,20,312,42,09,26,258,45,2*71
$GAGSV,3,2,10,13,16,032,29,21,05,097,24,24,19,282,45,26,44,087,38,2*70
$GAGSV,3,3,10,31,67,295,50,33,31,149,43,2*76
$GBGSV,3,1,11,02,04,106,,05,18,128,,10,06,080,25,12,29,190,44,1*7A
$GBGSV,3,2,11,13,29,088,30,24,75,288,41,25,18,300,49,26,52,127,40,1*7D
$GBGSV,3,3,11,29,09,039,23,33,01,259,,35,52,071,44,1*47
$GBGSV,3,1,11,02,04,106,,05,18,128,,10,06,080,23,12,29,190,49,3*73
$GBGSV,3,2,11,13,29,088,,24,75,288,,25,18,300,,26,52,127,,3*70
$GBGSV,3,3,11,29,09,039,,33,01,259,,35,52,071,,3*44
$GNGLL,5025.4456084,N,01411.3821234,E,212505.00,A,A*73
$GNRMC,212506.00,A,5025.4456320,N,01411.3821042,E,0.005,,241021,,,A,V*1C
$GNVTG,,T,,M,0.005,N,0.010,K,A*39
$GNGGA,212506.00,5025.4456320,N,01411.3821042,E,1,12,0.60,216.639,M,44.078,M,,*48
$GNGSA,A,3,24,25,31,32,29,02,12,06,,,,,1.17,0.60,1.00,1*0F
$GNGSA,A,3,33,31,26,24,01,13,05,09,,,,,1.17,0.60,1.00,3*0C
$GNGSA,A,3,12,13,24,25,26,35,,,,,,,1.17,0.60,1.00,4*06
$GPGSV,3,1,10,02,39,102,26,03,02,352,16,06,27,054,35,12,71,067,47,1*69
$GPGSV,3,2,10,19,04,044,,24,31,153,44,25,70,288,39,29,35,210,45,1*6C
$GPGSV,3,3,10,31,16,310,46,32,32,270,45,1*64
$GPGSV,3,1,10,02,39,102,,03,02,352,14,06,27,054,28,12,71,067,44,6*67
$GPGSV,3,2,10,19,04,044,,24,31,153,46,25,70,288,44,29,35,210,41,6*67
$GPGSV,3,3,10,31,16,310,40,32,32,270,43,6*63
$GAGSV,3,1,10,01,52,090,39,04,06,209,,05,20,312,45,09,26,258,42,7*7E
$GAGSV,3,2,10,13,16,032,21,21,05,097,27,24,19,282,48,26,44,087,35,7*7E
$GAGSV,3,3,10,31,67,295,41,33,31,149,44,7*74
$GAGSV,3,1,10,01,52,090,41,04,06,209,26,05,20,312,43,09,26,258,45,2*71
$GAGSV,3,2,10,13,16,032,29,21,05,097,23,24,19,282,45,26,44,087,38,2*77
$GAGSV,3,3,10,31,67,295,50,33,31,149,43,2*76
$GBGSV,3,1,11,02,04,106,,05,18,128,,10,06,080,25,12,29,190,44,1*7A
$GBGSV,3,2,11,13,29,088,29,24,75,288,41,25,18,300,49,26,52,127,40,1*75
$GBGSV,3,3,11,29,09,039,23,33,01,259,,35,52,071,44,1*47
$GBGSV,3,1,11,02,04,106,,05,18,128,,10,06,080,23,12,29,190,49,3*73
$GBGSV,3,2,11,13,29,088,,24,75,288,,25,18,300,,26,52,127,,3*70
$GBGSV,3,3,11,29,09,039,,33,01,259,,35,52,071,,3*44
$GNGLL,5025.4456320,N,01411.3821042,E,212506.00,A,A*7E
$GNRMC,212507.00,A,5025.4456476,N,01411.3820792,E,0.001,,241021,,,A,V*16
$GNVTG,,T,,M,0.001,N,0.002,K,A*3E
$GNGGA,212507.00,5025.4456476,N,01411.3820792,E,1,12,0.60,216.747,M,44.078,M,,*4E
$GNGSA,A,3,24,25,31,32,29,02,12,06,,,,,1.17,0.60,1.00,1*0F
$GNGSA,A,3,33,31,26,24,01,13,05,09,,,,,1.17,0.60,1.00,3*0C
$GNGSA,A,3,12,13,24,25,26,35,,,,,,,1.17,0.60,1.00,4*06
$GPGSV,3,1,10,02,39,102,26,03,02,352,19,06,27,054,35,12,71,067,47,1*66
$GPGSV,3,2,10,19,04,044,,24,31,153,44,25,70,288,39,29,35,210,45,1*6C
$GPGSV,3,3,10,31,16,310,46,32,32,270,45,1*64
$GPGSV,3,1,10,02,39,102,,03,02,352,11,06,27,054,28,12,71,067,44,6*62
$GPGSV,3,2,10,19,04,044,,24,31,153,46,25,70,288,44,29,35,210,42,6*64
$GPGSV,3,3,10,31,16,310,40,32,32,270,43,6*63
$GAGSV,3,1,10,01,52,090,40,04,06,209,,05,20,312,45,09,26,258,42,7*70
$GAGSV,3,2,10,13,16,032,22,21,05,097,27,24,19,282,48,26,44,087,35,7*7D
$GAGSV,3,3,10,31,67,295,41,33,31,149,44,7*74
$GAGSV,3,1,10,01,52,090,41,04,06,209,26,05,20,312,42,09,26,258,45,2*70
$GAGSV,3,2,10,13,16,032,29,21,05,097,23,24,19,282,45,26,44,087,38,2*77
$GAGSV,3,3,10,31,67,295,50,33,31,149,43,2*76
$GBGSV,3,1,11,02,04,106,,05,18,128,,10,06,080,25,12,29,190,44,1*7A
$GBGSV,3,2,11,13,29,088,30,24,75,288,41,25,18,300,49,26,52,127,40,1*7D
$GBGSV,3,3,11,29,09,039,25,33,01,259,,35,52,071,44,1*41
$GBGSV,3,1,11,02,04,106,,05,18,128,,10,06,080,,12,29,190,49,3*72
$GBGSV,3,2,11,13,29,088,21,24,75,288,,25,18,300,,26,52,127,,3*73
$GBGSV,3,3,11,29,09,039,,33,01,259,,35,52,071,,3*44
$GNGLL,5025.4456476,N,01411.3820792,E,212507.00,A,A*70
$GNRMC,212508.00,A,5025.4456652,N,01411.3820529,E,0.007,,241021,,,A,V*19
$GNVTG,,T,,M,0.007,N,0.013,K,A*38
$GNGGA,212508.00,5025.4456652,N,01411.3820529,E,1,12,0.60,216.839,M,44.078,M,,*41
$GNGSA,A,3,24,25,31,32,29,02,12,06,,,,,1.17,0.60,1.00,1*0F
$GNGSA,A,3,33,31,26,24,01,13,05,09,,,,,1.17,0.60,1.00,3*0C
$GNGSA,A,3,12,13,24,25,26,35,,,,,,,1.17,0.60,1.00,4*06
$GPGSV,3,1,10,02,39,102,25,03,02,352,22,06,27,054,35,12,71,067,47,1*6D
$GPGSV,3,2,10,19,04,044,,24,31,153,44,25,70,288,39,29,35,210,45,1*6C
$GPGSV,3,3,10,31,16,310,46,32,32,270,45,1*64
$GPGSV,3,1,10,02,39,102,,03,02,352,,06,27,054,28,12,71,067,44,6*62
$GPGSV,3,2,10,19,04,044,,24,31,153,46,25,70,288,44,29,35,210,41,6*67
$GPGSV,3,3,10,31,16,310,40,32,32,270,43,6*63
$GAGSV,3,1,10,01,52,090,40,04,06,209,,05,20,312,45,09,26,258,42,7*70
$GAGSV,3,2,10,13,16,032,22,21,05,097,27,24,19,282,48,26,44,087,35,7*7D
$GAGSV,3,3,10,31,67,295,41,33,31,149,44,7*74
$GAGSV,3,1,10,01,52,090,41,04,06,209,26,05,20,312,42,09,26,258,45,2*70
$GAGSV,3,2,10,13,16,032,29,21,05,097,23,24,19,282,45,26,44,087,38,2*77
$GAGSV,3,3,10,31,67,295,50,33,31,149,43,2*76
$GBGSV,3,1,11,02,04,106,,05,18,128,,10,06,080,25,12,29,190,44,1*7A
$GBGSV,3,2,11,13,29,088,29,24,75,288,41,25,18,300,49,26,52,127,40,1*75
$GBGSV,3,3,11,29,09,039,25,33,01,259,,35,52,071,44,1*41
$GBGSV,3,1,11,02,04,106,,05,18,128,,10,06,080,,12,29,190,49,3*72
$GBGSV,3,2,11,13,29,088,20,24,75,288,,25,18,300,,26,52,127,,3*72
$GBGSV,3,3,11,29,09,039,,33,01,259,,35,52,071,,3*44
$GNGLL,5025.4456652,N,01411.3820529,E,212508.00,A,A*79
$GNRMC,212509.00,A,5025.4456723,N,01411.3820137,E,0.006,,241021,,,A,V*15
$GNVTG,,T,,M,0.006,N,0.012,K,A*38
$GNGGA,212509.00,5025.4456723,N,01411.3820137,E,1,12,0.60,216.964,M,44.078,M,,*45
$GNGSA,A,3,24,25,31,32,29,02,12,06,,,,,1.17,0.60,1.00,1*0F
$GNGSA,A,3,33,31,26,24,01,13,05,09,,,,,1.17,0.60,1.00,3*0C
$GNGSA,A,3,12,13,24,25,26,35,,,,,,,1.17,0.60,1.00,4*06
$GPGSV,3,1,10,02,39,102,24,03,02,352,22,06,27,054,36,12,71,067,47,1*6F
$GPGSV,3,2,10,19,04,044,,24,31,153,44,25,70,288,39,29,35,210,45,1*6C
$GPGSV,3,3,10,31,16,310,46,32,32,270,45,1*64
$GPGSV,3,1,10,02,39,102,,03,02,352,,06,27,054,29,12,71,067,44,6*63
$GPGSV,3,2,10,19,04,044,,24,31,153,46,25,70,288,44,29,35,210,42,6*64
$GPGSV,3,3,10,31,16,310,40,32,32,270,43,6*63
$GAGSV,3,1,10,01,52,090,40,04,06,209,,05,20,312,45,09,26,258,42,7*70
$GAGSV,3,2,10,13,16,032,22,21,05,097,26,24,19,282,48,26,44,087,35,7*7C
$GAGSV,3,3,10,31,67,295,41,33,31,149,44,7*74
$GAGSV,3,1,10,01,52,090,41,04,06,209,26,05,20,312,42,09,26,258,45,2*70
$GAGSV,3,2,10,13,16,032,29,21,05,097,23,24,19,282,45,26,44,087,38,2*77
$GAGSV,3,3,10,31,67,295,50,33,31,149,43,2*76
$GBGSV,3,1,11,02,04,106,,05,18,128,,10,06,080,25,12,29,190,44,1*7A
$GBGSV,3,2,11,13,29,088,29,24,75,288,40,25,18,300,49,26,52,127,40,1*74
$GBGSV,3,3,11,29,09,039,25,33,01,259,,35,52,071,44,1*41
$GBGSV,3,1,11,02,04,106,,05,18,128,,10,06,080,,12,29,190,49,3*72
$GBGSV,3,2,11,13,29,088,18,24,75,288,,25,18,300,,26,52,127,,3*79
$GBGSV,3,3,11,29,09,039,,33,01,259,,35,52,071,,3*44
$GNGLL,5025.4456723,N,01411.3820137,E,212509.00,A,A*74
$GNRMC,212510.00,A,5025.4457270,N,01411.3820226,E,0.010,,241021,,,A,V*1B
$GNVTG,,T,,M,0.010,N,0.018,K,A*35
$GNGGA,212510.00,5025.4457270,N,01411.3820226,E,1,12,0.60,217.060,M,44.078,M,,*40
$GNGSA,A,3,24,25,31,32,29,02,12,06,,,,,1.17,0.60,1.01,1*0E
$GNGSA,A,3,33,31,26,24,01,13,05,09,,,,,1.17,0.60,1.01,3*0D
$GNGSA,A,3,12,13,24,25,26,35,,,,,,,1.17,0.60,1.01,4*07
$GPGSV,3,1,10,02,39,102,22,03,02,352,21,06,27,054,36,12,71,067,48,1*65
$GPGSV,3,2,10,19,04,044,,24,31,153,44,25,70,288,40,29,35,210,45,1*62
$GPGSV,3,3,10,31,16,310,46,32,32,270,45,1*64
$GPGSV,3,1,10,02,39,102,,03,02,352,,06,27,054,29,12,71,067,44,6*63
$GPGSV,3,2,10,19,04,044,,24,31,153,46,25,70,288,44,29,35,210,41,6*67
$GPGSV,3,3,10,31,16,310,40,32,32,270,43,6*63
$GAGSV,3,1,10,01,52,090,40,04,06,209,,05,20,312,45,09,26,258,42,7*70
$GAGSV,3,2,10,13,16,032,22,21,05,097,26,24,19,282,48,26,44,087,35,7*7C
$GAGSV,3,3,10,31,67,295,41,33,31,149,44,7*74
$GAGSV,3,1,10,01,52,090,41,04,06,209,26,05,20,312,42,09,26,258,45,2*70
$GAGSV,3,2,10,13,16,032,29,21,05,097,23,24,19,282,45,26,44,087,38,2*77
$GAGSV,3,3,10,31,67,295,50,33,31,149,43,2*76
$GBGSV,3,1,11,02,04,106,,05,18,128,,10,06,080,25,12,29,190,44,1*7A
$GBGSV,3,2,11,13,29,088,29,24,75,288,40,25,18,300,49,26,52,127,40,1*74
$GBGSV,3,3,11,29,09,039,24,33,01,259,,35,52,071,44,1*40
$GBGSV,3,1,11,02,04,106,,05,18,128,,10,06,080,,12,29,190,49,3*72
$GBGSV,3,2,11,13,29,088,18,24,75,288,,25,18,300,,26,52,127,,3*79
$GBGSV,3,3,11,29,09,039,,33,01,259,,35,52,071,,3*44
$GNGLL,5025.4457270,N,01411.3820226,E,212510.00,A,A*7D
$GNRMC,212511.00,A,5025.4457675,N,01411.3820226,E,0.006,,241021,,,A,V*1C
$GNVTG,,T,,M,0.006,N,0.011,K,A*3B
$GNGGA,212511.00,5025.4457675,N,01411.3820226,E,1,12,0.60,217.163,M,44.078,M,,*42
$GNGSA,A,3,24,25,31,32,29,02,12,06,,,,,1.17,0.60,1.01,1*0E
$GNGSA,A,3,33,31,26,24,01,13,05,09,,,,,1.17,0.60,1.01,3*0D
$GNGSA,A,3,12,13,24,25,26,35,,,,,,,1.17,0.60,1.01,4*07
$GPGSV,3,1,10,02,39,102,21,03,02,352,22,06,27,054,36,12,71,067,48,1*65
$GPGSV,3,2,10,19,04,044,,24,31,153,44,25,70,288,40,29,35,210,45,1*62
$GPGSV,3,3,10,31,16,310,46,32,32,270,45,1*64
$GPGSV,3,1,10,02,39,102,,03,02,352,,06,27,054,29,12,71,067,44,6*63
$GPGSV,3,2,10,19,04,044,,24,31,153,46,25,70,288,43,29,35,210,41,6*60
$GPGSV,3,3,10,31,16,310,40,32,32,270,43,6*63
$GAGSV,3,1,10,01,52,090,39,04,06,209,,05,20,312,45,09,26,258,42,7*7E
$GAGSV,3,2,10,13,16,032,22,21,05,097,26,24,19,282,48,26,44,087,35,7*7C
$GAGSV,3,3,10,31,67,295,41,33,31,149,44,7*74
$GAGSV,3,1,10,01,52,090,41,04,06,209,26,05,20,312,42,09,26,258,45,2*70
$GAGSV,3,2,10,13,16,032,29,21,05,097,23,24,19,282,45,26,44,087,38,2*77
$GAGSV,3,3,10,31,67,295,50,33,31,149,44,2*71
$GBGSV,3,1,11,02,04,106,,05,18,128,,10,06,080,26,12,29,190,44,1*79
$GBGSV,3,2,11,13,29,088,29,24,75,288,40,25,18,300,49,26,52,127,41,1*75
$GBGSV,3,3,11,29,09,039,25,33,01,259,,35,52,071,44,1*41
$GBGSV,3,1,11,02,04,106,,05,18,128,,10,06,080,,12,29,190,49,3*72
$GBGSV,3,2,11,13,29,088,,24,75,288,,25,18,300,,26,52,127,,3*70
$GBGSV,3,3,11,29,09,039,,33,01,259,,35,52,071,,3*44
$GNGLL,5025.4457675,N,01411.3820226,E,212511.00,A,A*7D
$GNRMC,212512.00,A,5025.4458052,N,01411.3820062,E,0.002,,241021,,,A,V*15
$GNVTG,,T,,M,0.002,N,0.004,K,A*3B
$GNGGA,212512.00,5025.4458052,N,01411.3820062,E,1,12,0.60,217.265,M,44.078,M,,*4A
$GNGSA,A,3,24,25,31,32,29,02,12,06,,,,,1.17,0.60,1.01,1*0E
$GNGSA,A,3,33,31,26,24,01,13,05,09,,,,,1.17,0.60,1.01,3*0D
$GNGSA,A,3,12,13,24,25,26,35,,,,,,,1.17,0.60,1.01,4*07
$GPGSV,3,1,10,02,39,102,21,03,02,352,22,06,27,054,36,12,71,067,48,1*65
$GPGSV,3,2,10,19,04,044,,24,31,153,44,25,70,288,40,29,35,210,45,1*62
$GPGSV,3,3,10,31,16,310,46,32,32,270,45,1*64
$GPGSV,3,1,10,02,39,102,,03,02,352,,06,27,054,29,12,71,067,44,6*63
$GPGSV,3,2,10,19,04,044,,24,31,153,46,25,70,288,43,29,35,210,41,6*60
$GPGSV,3,3,10,31,16,310,40,32,32,270,43,6*63
$GAGSV,3,1,10,01,52,090,39,04,06,209,,05,20,312,45,09,26,258,42,7*7E
$GAGSV,3,2,10,13,16,032,23,21,05,097,26,24,19,282,48,26,44,087,36,7*7E
$GAGSV,3,3,10,31,67,295,42,33,31,149,44,7*77
$GAGSV,3,1,10,01,52,090,41,04,06,209,27,05,20,312,42,09,26,258,45,2*71
$GAGSV,3,2,10,13,16,032,29,21,05,097,23,24,19,282,45,26,44,087,38,2*77
$GAGSV,3,3,10,31,67,295,50,33,31,149,44,2*71
$GBGSV,3,1,11,02,04,106,,05,18,128,,10,06,080,26,12,29,190,44,1*79
$GBGSV,3,2,11,13,29,088,29,24,75,288,40,25,18,300,49,26,52,127,41,1*75
$GBGSV,3,3,11,29,09,039,25,33,01,259,,35,52,071,44,1*41
$GBGSV,3,1,11,02,04,106,,05,18,128,,10,06,080,,12,29,190,49,3*72
$GBGSV,3,2,11,13,29,088,,24,75,288,,25,18,300,,26,52,127,,3*70
$GBGSV,3,3,11,29,09,039,,33,01,259,,35,52,071,,3*44
$GNGLL,5025.4458052,N,01411.3820062,E,212512.00,A,A*70
$GNRMC,212513.00,A,5025.4458356,N,01411.3819838,E,0.014,,241021,,,A,V*19
$GNVTG,,T,,M,0.014,N,0.026,K,A*3C
$GNGGA,212513.00,5025.4458356,N,01411.3819838,E,1,12,0.60,217.361,M,44.078,M,,*44
$GNGSA,A,3,24,25,31,32,29,02,12,06,,,,,1.17,0.60,1.01,1*0E
$GNGSA,A,3,33,31,26,24,01,13,05,09,,,,,1.17,0.60,1.01,3*0D
$GNGSA,A,3,12,13,24,25,26,35,,,,,,,1.17,0.60,1.01,4*07
$GPGSV,3,1,10,02,39,102,22,03,02,352,21,06,27,054,36,12,71,067,48,1*65
$GPGSV,3,2,10,19,04,044,,24,31,153,44,25,70,288,40,29,35,210,45,1*62
$GPGSV,3,3,10,31,16,310,46,32,32,270,44,1*65
$GPGSV,3,1,10,02,39,102,,03,02,352,,06,27,054,29,12,71,067,44,6*63
$GPGSV,3,2,10,19,04,044,,24,31,153,46,25,70,288,43,29,35,210,41,6*60
$GPGSV,3,3,10,31,16,310,40,32,32,270,43,6*63
$GAGSV,3,1,10,01,52,090,39,04,06,209,,05,20,312,45,09,26,258,42,7*7E
$GAGSV,3,2,10,13,16,032,23,21,05,097,26,24,19,282,48,26,44,087,36,7*7E
$GAGSV,3,3,10,31,67,295,42,33,31,149,44,7*77
$GAGSV,3,1,10,01,52,090,41,04,06,209,26,05,20,312,42,09,26,258,45,2*70
$GAGSV,3,2,10,13,16,032,29,21,05,097,24,24,19,282,45,26,44,087,38,2*70
$GAGSV,3,3,10,31,67,295,50,33,31,149,44,2*71
$GBGSV,3,1,11,02,04,106,,05,18,128,,10,06,080,26,12,29,190,44,1*79
$GBGSV,3,2,11,13,29,088,29,24,75,288,40,25,18,300,49,26,52,127,41,1*75
$GBGSV,3,3,11,29,09,039,25,33,01,259,,35,52,071,44,1*41
$GBGSV,3,1,11,02,04,106,,05,18,128,,10,06,080,,12,29,190,49,3*72
$GBGSV,3,2,11,13,29,088,,24,75,288,,25,18,300,,26,52,127,,3*70
$GBGSV,3,3,11,29,09,039,,33,01,259,,35,52,071,,3*44
$GNGLL,5025.4458356,N,01411.3819838,E,212513.00,A,A*7B
$GNRMC,212514.00,A,5025.4458572,N,01411.3819527,E,0.005,,241021,,,A,V*1D
$GNVTG,,T,,M,0.005,N,0.010,K,A*39
$GNGGA,212514.00,5025.4458572,N,01411.3819527,E,1,12,0.60,217.472,M,44.078,M,,*45
$GNGSA,A,3,24,25,31,32,29,02,12,06,,,,,1.17,0.60,1.01,1*0E
$GNGSA,A,3,33,31,26,24,01,13,05,09,,,,,1.17,0.60,1.01,3*0D
$GNGSA,A,3,12,13,24,25,26,35,,,,,,,1.17,0.60,1.01,4*07
$GPGSV,3,1,10,02,39,102,22,03,02,352,20,06,27,054,36,12,71,067,48,1*64
$GPGSV,3,2,10,19,04,044,,24,31,153,44,25,70,288,40,29,35,210,45,1*62
$GPGSV,3,3,10,31,16,310,46,32,32,270,44,1*65
$GPGSV,3,1,10,02,39,102,,03,02,352,,06,27,054,30,12,71,067,44,6*6B
$GPGSV,3,2,10,19,04,044,,24,31,153,46,25,70,288,43,29,35,210,41,6*60
$GPGSV,3,3,10,31,16,310,40,32,32,270,43,6*63
$GAGSV,3,1,10,01,52,090,39,04,06,209,,05,20,312,45,09,26,258,42,7*7E
$GAGSV,3,2,10,13,16,032,24,21,05,097,26,24,19,282,48,26,44,087,36,7*79
$GAGSV,3,3,10,31,67,295,42,33,31,149,44,7*77
$GAGSV,3,1,10,01,52,090,41,04,06,209,26,05,20,312,42,09,26,258,45,2*70
$GAGSV,3,2,10,13,16,032,29,21,05,097,23,24,19,282,45,26,44,087,38,2*77
$GAGSV,3,3,10,31,67,295,50,33,31,149,44,2*71
$GBGSV,3,1,11,02,04,106,,05,18,128,,10,06,080,26,12,29,190,44,1*79
$GBGSV,3,2,11,13,29,088,29,24,75,288,40,25,18,300,49,26,52,127,41,1*75
$GBGSV,3,3,11,29,09,039,25,33,01,259,,35,52,071,44,1*41
$GBGSV,3,1,11,02,04,106,,05,18,128,,10,06,080,,12,29,190,49,3*72
$GBGSV,3,2,11,13,29,088,,24,75,288,,25,18,300,,26,52,127,,3*70
$GBGSV,3,3,11,29,09,039,,33,01,259,,35,52,071,,3*44
$GNGLL,5025.4458572,N,01411.3819527,E,212514.00,A,A*7F
$GNRMC,212515.00,A,5025.4458679,N,01411.3819103,E,0.010,,241021,,,A,V*12
$GNVTG,,T,,M,0.010,N,0.018,K,A*35
$GNGGA,212515.00,5025.4458679,N,01411.3819103,E,1,12,0.60,217.615,M,44.078,M,,*4D
$GNGSA,A,3,24,25,31,32,29,02,12,06,,,,,1.17,0.60,1.00,1*0F
$GNGSA,A,3,33,31,26,24,01,13,05,09,,,,,1.17,0.60,1.00,3*0C
$GNGSA,A,3,12,13,24,25,26,35,,,,,,,1.17,0.60,1.00,4*06
$GPGSV,3,1,10,02,39,102,23,03,02,352,21,06,27,054,36,12,71,067,48,1*64
$GPGSV,3,2,10,19,04,044,,24,31,153,43,25,70,289,40,29,35,210,45,1*64
$GPGSV,3,3,10,31,16,310,46,32,32,270,44,1*65
$GPGSV,3,1,10,02,39,102,,03,02,352,,06,27,054,30,12,71,067,44,6*6B
$GPGSV,3,2,10,19,04,044,,24,31,153,46,25,70,289,43,29,35,210,41,6*61
$GPGSV,3,3,10,31,16,310,40,32,32,270,43,6*63
$GAGSV,3,1,10,01,52,090,39,04,06,209,,05,20,312,44,09,26,258,42,7*7F
$GAGSV,3,2,10,13,16,032,24,21,05,097,26,24,19,282,48,26,44,087,36,7*79
$GAGSV,3,3,10,31,67,295,42,33,31,149,44,7*77
$GAGSV,3,1,10,01,52,090,41,04,06,209,26,05,20,312,42,09,26,258,45,2*70
$GAGSV,3,2,10,13,16,032,29,21,05,097,24,24,19,282,45,26,44,087,38,2*70
$GAGSV,3,3,10,31,67,295,50,33,31,149,44,2*71
$GBGSV,3,1,11,02,04,106,,05,18,128,,10,06,080,26,12,29,190,44,1*79
$GBGSV,3,2,11,13,29,088,29,24,75,288,39,25,18,300,49,26,52,127,42,1*78
$GBGSV,3,3,11,29,09,039,25,33,01,259,,35,52,071,44,1*41
$GBGSV,3,1,11,02,04,106,,05,18,128,,10,06,080,,12,29,190,49,3*72
$GBGSV,3,2,11,13,29,088,,24,75,288,,25,18,300,,26,52,127,,3*70
$GBGSV,3,3,11,29,09,039,,33,01,259,,35,52,071,,3*44
$GNGLL,5025.4458679,N,01411.3819103,E,212515.00,A,A*74
$GNRMC,212516.00,A,5025.4459053,N,01411.3819140,E,0.007,,241021,,,A,V*1F
$GNVTG,,T,,M,0.007,N,0.012,K,A*39
$GNGGA,212516.00,5025.4459053,N,01411.3819140,E,1,12,0.60,217.650,M,44.078,M,,*47
$GNGSA,A,3,24,25,31,32,29,02,12,06,,,,,1.17,0.60,1.00,1*0F
$GNGSA,A,3,33,31,26,24,01,13,05,09,,,,,1.17,0.60,1.00,3*0C
$GNGSA,A,3,12,13,24,25,26,35,,,,,,,1.17,0.60,1.00,4*06
$GPGSV,3,1,10,02,39,102,25,03,02,352,22,06,27,054,36,12,71,067,48,1*61
$GPGSV,3,2,10,19,04,044,,24,31,153,43,25,70,289,40,29,35,210,45,1*64
$GPGSV,3,3,10,31,16,310,46,32,32,270,44,1*65
$GPGSV,3,1,10,02,39,102,,03,02,352,,06,27,054,29,12,71,067,44,6*63
$GPGSV,3,2,10,19,04,044,,24,31,153,46,25,70,289,43,29,35,210,41,6*61
$GPGSV,3,3,10,31,16,310,40,32,32,270,43,6*63
$GAGSV,3,1,10,01,52,090,39,04,06,209,,05,20,312,44,09,26,258,42,7*7F
$GAGSV,3,2,10,13,16,032,24,21,05,097,26,24,19,282,48,26,44,087,37,7*78
$GAGSV,3,3,10,31,67,295,42,33,31,149,44,7*77
$GAGSV,3,1,10,01,52,090,41,04,06,209,25,05,20,312,42,09,26,258,45,2*73
$GAGSV,3,2,10,13,16,032,29,21,05,097,23,24,19,282,45,26,44,087,38,2*77
$GAGSV,3,3,10,31,67,295,50,33,31,149,44,2*71
$GBGSV,3,1,11,02,04,106,,05,18,128,,10,06,080,26,12,29,190,44,1*79
$GBGSV,3,2,11,13,29,088,28,24,75,288,39,25,18,300,49,26,52,127,42,1*79
$GBGSV,3,3,11,29,09,039,26,33,01,259,,35,52,071,44,1*42
$GBGSV,3,1,11,02,04,106,,05,18,128,,10,06,080,,12,29,190,49,3*72
$GBGSV,3,2,11,13,29,088,,24,75,288,,25,18,300,,26,52,127,,3*70
$GBGSV,3,3,11,29,09,039,,33,01,259,,35,52,071,,3*44
$GNGLL,5025.4459053,N,01411.3819140,E,212516.00,A,A*7F
$GNRMC,212517.00,A,5025.4459330,N,01411.3819145,E,0.006,,241021,,,A,V*1C
$GNVTG,,T,,M,0.006,N,0.012,K,A*38
$GNGGA,212517.00,5025.4459330,N,01411.3819145,E,1,12,0.60,217.688,M,44.078,M,,*40
$GNGSA,A,3,24,25,31,32,29,02,12,06,,,,,1.17,0.60,1.00,1*0F
$GNGSA,A,3,33,31,26,24,01,13,05,09,,,,,1.17,0.60,1.00,3*0C
$GNGSA,A,3,12,13,24,25,26,35,,,,,,,1.17,0.60,1.00,4*06
$GPGSV,3,1,10,02,39,102,26,03,02,352,22,06,27,054,36,12,71,067,48,1*62
$GPGSV,3,2,10,19,04,044,,24,31,153,43,25,70,289,40,29,35,210,45,1*64
$GPGSV,3,3,10,31,16,310,46,32,32,270,44,1*65
$GPGSV,3,1,10,02,39,102,,03,02,352,,06,27,054,29,12,71,067,44,6*63
$GPGSV,3,2,10,19,04,044,,24,31,153,45,25,70,289,43,29,35,210,41,6*62
$GPGSV,3,3,10,31,16,310,40,32,32,270,43,6*63
$GAGSV,3,1,10,01,52,090,39,04,06,209,,05,20,312,44,09,26,258,42,7*7F
$GAGSV,3,2,10,13,16,032,24,21,05,097,26,24,19,282,48,26,44,087,37,7*78
$GAGSV,3,3,10,31,67,295,42,33,31,149,44,7*77
$GAGSV,3,1,10,01,52,090,41,04,06,209,26,05,20,312,42,09,26,258,45,2*70
$GAGSV,3,2,10,13,16,032,29,21,05,097,23,24,19,282,45,26,44,087,38,2*77
$GAGSV,3,3,10,31,67,295,50,33,31,149,44,2*71
$GBGSV,3,1,11,02,04,106,,05,18,128,,10,06,080,26,12,29,190,44,1*79
$GBGSV,3,2,11,13,29,088,28,24,75,288,39,25,18,300,48,26,52,127,42,1*78
$GBGSV,3,3,11,29,09,039,26,33,01,259,,35,52,071,44,1*42
$GBGSV,3,1,11,02,04,106,,05,18,128,,10,06,080,,12,29,190,49,3*72
$GBGSV,3,2,11,13,29,088,,24,75,288,,25,18,300,,26,52,127,,3*70
$GBGSV,3,3,11,29,09,039,,33,01,259,,35,52,071,,3*44
$GNGLL,5025.4459330,N,01411.3819145,E,212517.00,A,A*7D
$GNRMC,212518.00,A,5025.4459594,N,01411.3819086,E,0.008,,241021,,,A,V*1B
$GNVTG,,T,,M,0.008,N,0.015,K,A*31
$GNGGA,212518.00,5025.4459594,N,01411.3819086,E,1,12,0.60,217.727,M,44.078,M,,*4D
$GNGSA,A,3,24,25,31,32,29,02,12,06,,,,,1.17,0.60,1.00,1*0F
$GNGSA,A,3,33,31,26,24,01,13,05,09,,,,,1.17,0.60,1.00,3*0C
$GNGSA,A,3,12,13,24,25,26,35,,,,,,,1.17,0.60,1.00,4*06
$GPGSV,3,1,10,02,39,102,27,03,02,352,23,06,27,054,36,12,71,067,48,1*62
$GPGSV,3,2,10,19,04,044,,24,31,153,43,25,70,289,40,29,35,210,45,1*64
$GPGSV,3,3,10,31,16,310,46,32,32,270,44,1*65
$GPGSV,3,1,10,02,39,102,,03,02,352,,06,27,054,29,12,71,067,44,6*63
$GPGSV,3,2,10,19,04,044,,24,31,153,45,25,70,289,43,29,35,210,41,6*62
$GPGSV,3,3,10,31,16,310,40,32,32,270,43,6*63
$GAGSV,3,1,10,01,52,090,39,04,06,209,,05,20,312,44,09,26,258,42,7*7F
$GAGSV,3,2,10,13,16,032,25,21,05,097,26,24,19,282,48,26,44,087,37,7*79
$GAGSV,3,3,10,31,67,295,42,33,31,149,44,7*77
$GAGSV,3,1,10,01,52,090,41,04,06,209,25,05,20,312,42,09,26,258,45,2*73
$GAGSV,3,2,10,13,16,032,29,21,05,097,23,24,19,282,45,26,44,087,38,2*77
$GAGSV,3,3,10,31,67,295,50,33,31,149,44,2*71
$GBGSV,3,1,11,02,04,106,,05,18,128,,10,06,080,26,12,29,190,44,1*79
$GBGSV,3,2,11,13,29,088,28,24,75,288,39,25,18,300,49,26,52,127,42,1*79
$GBGSV,3,3,11,29,09,039,26,33,01,259,,35,52,071,44,1*42
$GBGSV,3,1,11,02,04,106,,05,18,128,,10,06,080,,12,29,190,49,3*72
$GBGSV,3,2,11,13,29,088,,24,75,288,,25,18,300,,26,52,127,,3*70
$GBGSV,3,3,11,29,09,039,,33,01,259,,35,52,071,,3*44
$GNGLL,5025.4459594,N,01411.3819086,E,212518.00,A,A*74
$GNRMC,212519.00,A,5025.4459800,N,01411.3818971,E,0.008,,241021,,,A,V*1A
$GNVTG,,T,,M,0.008,N,0.015,K,A*31
$GNGGA,212519.00,5025.4459800,N,01411.3818971,E,1,12,0.60,217.776,M,44.078,M,,*48
$GNGSA,A,3,24,25,31,32,29,02,12,06,,,,,1.17,0.60,1.00,1*0F
$GNGSA,A,3,33,31,26,24,01,13,05,09,,,,,1.17,0.60,1.00,3*0C
$GNGSA,A,3,12,13,24,25,26,35,,,,,,,1.17,0.60,1.00,4*06
$GPGSV,3,1,10,02,39,102,27,03,02,352,22,06,27,054,36,12,71,067,48,1*63
$GPGSV,3,2,10,19,04,044,,24,31,153,43,25,70,289,40,29,35,210,45,1*64
$GPGSV,3,3,10,31,16,310,46,32,32,270,44,1*65
$GPGSV,3,1,10,02,39,102,,03,02,352,,06,27,054,29,12,71,067,44,6*63
$GPGSV,3,2,10,19,04,044,,24,31,153,45,25,70,289,43,29,35,210,41,6*62
$GPGSV,3,3,10,31,16,310,40,32,32,270,43,6*63
$GAGSV,3,1,10,01,52,090,39,04,06,209,,05,20,312,44,09,26,258,42,7*7F
$GAGSV,3,2,10,13,16,032,25,21,05,097,26,24,19,282,48,26,44,087,37,7*79
$GAGSV,3,3,10,31,67,295,42,33,31,149,44,7*77
$GAGSV,3,1,10,01,52,090,41,04,06,209,25,05,20,312,42,09,26,258,45,2*73
$GAGSV,3,2,10,13,16,032,29,21,05,097,23,24,19,282,45,26,44,087,38,2*77
$GAGSV,3,3,10,31,67,295,50,33,31,149,44,2*71
$GBGSV,3,1,11,02,04,106,,05,18,128,,10,06,080,26,12,29,190,44,1*79
$GBGSV,3,2,11,13,29,088,28,24,75,288,39,25,18,300,49,26,52,127,42,1*79
$GBGSV,3,3,11,29,09,039,26,33,01,259,,35,52,071,44,1*42
$GBGSV,3,1,11,02,04,106,,05,18,128,,10,06,080,,12,29,190,49,3*72
$GBGSV,3,2,11,13,29,088,,24,75,288,,25,18,300,,26,52,127,,3*70
$GBGSV,3,3,11,29,09,039,,33,01,259,,35,52,071,,3*44
$GNGLL,5025.4459800,N,01411.3818971,E,212519.00,A,A*75
$GNRMC,212520.00,A,5025.4459961,N,01411.3818762,E,0.007,,241021,,,A,V*15
$GNVTG,,T,,M,0.007,N,0.012,K,A*39
$GNGGA,212520.00,5025.4459961,N,01411.3818762,E,1,12,0.60,217.832,M,44.078,M,,*47
$GNGSA,A,3,24,25,31,32,29,02,12,06,,,,,1.17,0.60,1.00,1*0F
$GNGSA,A,3,33,31,26,24,01,13,05,09,,,,,1.17,0.60,1.00,3*0C
$GNGSA,A,3,12,13,24,25,26,35,,,,,,,1.17,0.60,1.00,4*06
$GPGSV,3,1,10,02,39,102,28,03,02,352,21,06,27,054,35,12,71,067,48,1*6C
$GPGSV,3,2,10,19,04,044,22,24,31,153,43,25,70,289,40,29,35,210,45,1*64
$GPGSV,3,3,10,31,16,310,46,32,32,270,44,1*65
$GPGSV,3,1,10,02,39,102,,03,02,352,21,06,27,054,29,12,71,067,44,6*60
$GPGSV,3,2,10,19,04,044,,24,31,153,45,25,70,289,43,29,35,210,41,6*62
$GPGSV,3,3,10,31,16,310,40,32,32,270,43,6*63
$GAGSV,3,1,10,01,52,090,39,04,06,209,,05,20,312,44,09,26,258,42,7*7F
$GAGSV,3,2,10,13,16,032,25,21,05,097,26,24,19,282,48,26,44,087,37,7*79
$GAGSV,3,3,10,31,67,295,42,33,31,149,44,7*77
$GAGSV,3,1,10,01,52,090,41,04,06,209,26,05,20,312,42,09,26,258,45,2*70
$GAGSV,3,2,10,13,16,032,28,21,05,097,23,24,19,282,45,26,44,087,38,2*76
$GAGSV,3,3,10,31,67,295,50,33,31,149,44,2*71
$GBGSV,3,1,11,02,04,106,,05,18,128,,10,06,080,26,12,29,190,44,1*79
$GBGSV,3,2,11,13,29,088,28,24,75,288,39,25,18,300,49,26,52,127,42,1*79
$GBGSV,3,3,11,29,09,039,26,33,01,259,,35,52,071,44,1*42
$GBGSV,3,1,11,02,04,106,,05,18,128,,10,06,080,,12,29,190,49,3*72
$GBGSV,3,2,11,13,29,088,,24,75,288,,25,18,300,,26,52,127,,3*70
$GBGSV,3,3,11,29,09,039,,33,01,259,,35,52,071,,3*44
$GNGLL,5025.4459961,N,01411.3818762,E,212520.00,A,A*75
$GNRMC,212521.00,A,5025.4460029,N,01411.3818432,E,0.012,,241021,,,A,V*19
$GNVTG,,T,,M,0.012,N,0.022,K,A*3E
$GNGGA,212521.00,5025.4460029,N,01411.3818432,E,1,12,0.60,217.907,M,44.078,M,,*48
$GNGSA,A,3,24,25,31,32,29,02,12,06,,,,,1.17,0.60,1.00,1*0F
$GNGSA,A,3,33,31,26,24,01,13,05,09,,,,,1.17,0.60,1.00,3*0C
$GNGSA,A,3,12,13,24,25,26,35,,,,,,,1.17,0.60,1.00,4*06
$GPGSV,3,1,11,02,39,102,28,03,02,352,21,06,27,054,35,11,,,36,1*50
$GPGSV,3,2,11,12,71,067,48,19,04,044,18,24,31,153,43,25,70,289,40,1*6B
$GPGSV,3,3,11,29,35,210,45,31,16,310,46,32,32,269,44,1*53
$GPGSV,3,1,10,02,39,102,,03,02,352,21,06,27,054,29,12,71,067,44,6*60
$GPGSV,3,2,10,19,04,044,,24,31,153,45,25,70,289,43,29,35,210,41,6*62
$GPGSV,3,3,10,31,16,310,40,32,32,269,43,6*6B
$GAGSV,3,1,10,01,52,090,39,04,06,209,,05,20,312,44,09,26,258,42,7*7F
$GAGSV,3,2,10,13,16,032,25,21,05,097,26,24,19,282,48,26,44,087,37,7*79
$GAGSV,3,3,10,31,67,295,42,33,31,149,44,7*77
$GAGSV,3,1,10,01,52,090,41,04,06,209,25,05,20,312,42,09,26,258,45,2*73
$GAGSV,3,2,10,13,16,032,29,21,05,097,23,24,19,282,46,26,44,087,38,2*74
$GAGSV,3,3,10,31,67,295,50,33,31,149,44,2*71
$GBGSV,3,1,11,02,04,106,,05,18,128,,10,06,080,26,12,29,190,44,1*79
$GBGSV,3,2,11,13,29,088,28,24,75,288,39,25,18,300,49,26,52,127,42,1*79
$GBGSV,3,3,11,29,09,039,26,33,01,259,23,35,52,071,44,1*43
$GBGSV,3,1,11,02,04,106,,05,18,128,,10,06,080,,12,29,190,49,3*72
$GBGSV,3,2,11,13,29,088,,24,75,288,,25,18,300,,26,52,127,,3*70
$GBGSV,3,3,11,29,09,039,,33,01,259,,35,52,071,,3*44
$GNGLL,5025.4460029,N,01411.3818432,E,212521.00,A,A*7D
$GNRMC,212522.00,A,5025.4460055,N,01411.3818165,E,0.008,,241021,,,A,V*1D
$GNVTG,,T,,M,0.008,N,0.015,K,A*31
$GNGGA,212522.00,5025.4460055,N,01411.3818165,E,1,12,0.60,217.949,M,44.078,M,,*4D
$GNGSA,A,3,24,25,31,32,29,02,12,06,,,,,1.17,0.60,1.00,1*0F
$GNGSA,A,3,33,31,26,24,01,13,05,09,,,,,1.17,0.60,1.00,3*0C
$GNGSA,A,3,12,13,24,25,26,35,,,,,,,1.17,0.60,1.00,4*06
$GPGSV,3,1,11,02,39,102,27,03,02,352,21,06,27,054,35,11,,,36,1*5F
$GPGSV,3,2,11,12,71,067,48,19,04,044,14,24,31,153,43,25,70,289,39,1*69
$GPGSV,3,3,11,29,35,210,45,31,16,310,46,32,32,269,44,1*53
$GPGSV,3,1,10,02,39,102,,03,02,352,21,06,27,054,29,12,71,067,44,6*60
$GPGSV,3,2,10,19,04,044,,24,31,153,45,25,70,289,43,29,35,210,41,6*62
$GPGSV,3,3,10,31,16,310,40,32,32,269,43,6*6B
$GAGSV,3,1,10,01,52,090,38,04,06,209,,05,20,312,44,09,26,258,42,7*7E
$GAGSV,3,2,10,13,16,032,25,21,05,097,26,24,19,282,48,26,44,087,37,7*79
$GAGSV,3,3,10,31,67,295,42,33,31,149,44,7*77
$GAGSV,3,1,10,01,52,090,41,04,06,209,25,05,20,312,42,09,26,258,45,2*73
$GAGSV,3,2,10,13,16,032,29,21,05,097,23,24,19,282,46,26,44,087,38,2*74
$GAGSV,3,3,10,31,67,295,50,33,31,149,44,2*71
$GBGSV,3,1,11,02,04,106,,05,18,128,,10,06,080,26,12,29,190,43,1*7E
$GBGSV,3,2,11,13,29,088,28,24,75,288,39,25,18,300,49,26,52,127,42,1*79
$GBGSV,3,3,11,29,09,039,25,33,01,259,,35,52,071,44,1*41
$GBGSV,3,1,11,02,04,106,,05,18,128,,10,06,080,,12,29,190,49,3*72
$GBGSV,3,2,11,13,29,088,,24,75,288,,25,18,300,,26,52,127,,3*70
$GBGSV,3,3,11,29,09,039,,33,01,259,,35,52,071,,3*44
$GNGLL,5025.4460055,N,01411.3818165,E,212522.00,A,A*72
$GNRMC,212523.00,A,5025.4460072,N,01411.3817960,E,0.006,,241021,,,A,V*15
$GNVTG,,T,,M,0.006,N,0.012,K,A*38
$GNGGA,212523.00,5025.4460072,N,01411.3817960,E,1,12,0.60,217.971,M,44.078,M,,*40
$GNGSA,A,3,24,25,31,32,29,02,12,06,,,,,1.17,0.60,1.01,1*0E
$GNGSA,A,3,33,31,26,24,01,13,05,09,,,,,1.17,0.60,1.01,3*0D
$GNGSA,A,3,12,13,24,25,26,35,,,,,,,1.17,0.60,1.01,4*07
$GPGSV,3,1,11,02,39,102,26,03,02,352,20,06,27,054,35,11,,,36,1*5F
$GPGSV,3,2,11,12,71,067,48,19,04,044,13,24,31,153,43,25,70,289,38,1*6F
$GPGSV,3,3,11,29,35,210,45,31,16,310,46,32,32,269,43,1*54
$GPGSV,3,1,10,02,39,102,,03,02,352,21,06,27,054,29,12,71,067,44,6*60
$GPGSV,3,2,10,19,04,044,,24,31,153,45,25,70,289,42,29,35,210,41,6*63
$GPGSV,3,3,10,31,16,310,40,32,32,269,43,6*6B
$GAGSV,3,1,10,01,52,090,38,04,06,209,,05,20,312,44,09,26,258,43,7*7F
$GAGSV,3,2,10,13,16,032,25,21,05,097,26,24,19,282,48,26,44,087,37,7*79
$GAGSV,3,3,10,31,67,295,42,33,31,149,44,7*77
$GAGSV,3,1,10,01,52,090,41,04,06,209,25,05,20,312,42,09,26,258,45,2*73
$GAGSV,3,2,10,13,16,032,29,21,05,097,23,24,19,282,46,26,44,087,38,2*74
$GAGSV,3,3,10,31,67,295,50,33,31,149,44,2*71
$GBGSV,3,1,11,02,04,106,,05,18,128,,10,06,080,27,12,29,190,43,1*7F
$GBGSV,3,2,11,13,29,088,28,24,75,288,39,25,18,300,49,26,52,127,42,1*79
$GBGSV,3,3,11,29,09,039,25,33,01,259,25,35,52,071,44,1*46
$GBGSV,3,1,11,02,04,106,,05,18,128,,10,06,080,,12,29,190,49,3*72
$GBGSV,3,2,11,13,29,088,,24,75,288,,25,18,300,,26,52,127,,3*70
$GBGSV,3,3,11,29,09,039,,33,01,259,,35,52,071,,3*44
$GNGLL,5025.4460072,N,01411.3817960,E,212523.00,A,A*74
$GNRMC,212524.00,A,5025.4460141,N,01411.3817824,E,0.008,,241021,,,A,V*1C
$GNVTG,,T,,M,0.008,N,0.015,K,A*31
$GNGGA,212524.00,5025.4460141,N,01411.3817824,E,1,12,0.60,217.983,M,44.078,M,,*4A
$GNGSA,A,3,24,25,31,32,29,02,12,06,,,,,1.17,0.60,1.01,1*0E
$GNGSA,A,3,33,31,26,24,01,13,05,09,,,,,1.17,0.60,1.01,3*0D
$GNGSA,A,3,12,13,24,25,26,35,,,,,,,1.17,0.60,1.01,4*07
$GPGSV,3,1,11,02,39,102,26,03,02,352,19,06,27,054,34,11,,,36,1*54
$GPGSV,3,2,11,12,71,067,48,19,04,044,,24,31,153,43,25,70,289,38,1*6D
$GPGSV,3,3,11,29,35,210,45,31,16,310,46,32,32,269,43,1*54
$GPGSV,3,1,10,02,39,102,,03,02,352,21,06,27,054,29,12,71,067,44,6*60
$GPGSV,3,2,10,19,04,044,,24,31,153,45,25,70,289,42,29,35,210,41,6*63
$GPGSV,3,3,10,31,16,310,40,32,32,269,43,6*6B
$GAGSV,3,1,10,01,52,090,38,04,06,209,,05,20,312,44,09,26,258,42,7*7E
$GAGSV,3,2,10,13,16,032,25,21,05,097,26,24,19,282,48,26,44,087,37,7*79
$GAGSV,3,3,10,31,67,295,42,33,31,149,44,7*77
$GAGSV,3,1,10,01,52,090,41,04,06,209,25,05,20,312,42,09,26,258,45,2*73
$GAGSV,3,2,10,13,16,032,29,21,05,097,23,24,19,282,46,26,44,087,38,2*74
$GAGSV,3,3,10,31,67,295,50,33,31,149,44,2*71
$GBGSV,3,1,11,02,04,106,,05,18,128,,10,06,080,26,12,29,190,43,1*7E
$GBGSV,3,2,11,13,29,088,28,24,75,288,39,25,18,300,49,26,52,127,42,1*79
$GBGSV,3,3,11,29,09,039,25,33,01,259,25,35,52,071,44,1*46
$GBGSV,3,1,11,02,04,106,,05,18,128,,10,06,080,,12,29,190,49,3*72
$GBGSV,3,2,11,13,29,088,,24,75,288,,25,18,300,,26,52,127,,3*70
$GBGSV,3,3,11,29,09,039,,33,01,259,,35,52,071,,3*44
$GNGLL,5025.4460141,N,01411.3817824,E,212524.00,A,A*73
$GNRMC,212525.00,A,5025.4458575,N,01411.3816912,E,0.047,,241021,,,D,V*1E
$GNVTG,,T,,M,0.047,N,0.086,K,D*35
$GNGGA,212525.00,5025.4458575,N,01411.3816912,E,2,12,0.60,218.044,M,44.078,M,1.0,0084*6B
$GNGSA,A,3,24,25,31,32,29,02,12,06,,,,,1.17,0.60,1.01,1*0E
$GNGSA,A,3,33,31,26,24,01,13,05,09,,,,,1.17,0.60,1.01,3*0D
$GNGSA,A,3,12,13,24,25,26,35,,,,,,,1.17,0.60,1.01,4*07
$GPGSV,3,1,11,02,39,102,24,03,02,352,19,06,27,054,34,11,,,35,1*55
$GPGSV,3,2,11,12,71,067,48,19,04,044,,24,31,153,43,25,70,289,38,1*6D
$GPGSV,3,3,11,29,35,210,45,31,16,310,46,32,32,269,44,1*53
$GPGSV,3,1,10,02,39,102,,03,02,352,21,06,27,054,29,12,71,067,44,6*60
$GPGSV,3,2,10,19,04,044,,24,31,153,45,25,70,289,42,29,35,210,41,6*63
$GPGSV,3,3,10,31,16,310,40,32,32,269,43,6*6B
$GAGSV,3,1,10,01,52,090,38,04,06,209,,05,20,312,44,09,26,258,43,7*7F
$GAGSV,3,2,10,13,16,032,25,21,05,097,26,24,19,282,48,26,44,087,37,7*79
$GAGSV,3,3,10,31,67,295,41,33,31,149,44,7*74
$GAGSV,3,1,10,01,52,090,41,04,06,209,25,05,20,312,42,09,26,258,45,2*73
$GAGSV,3,2,10,13,16,032,29,21,05,097,23,24,19,282,46,26,44,087,38,2*74
$GAGSV,3,3,10,31,67,295,49,33,31,149,44,2*79
$GBGSV,3,1,11,02,04,106,,05,18,128,,10,06,080,27,12,29,190,43,1*7F
$GBGSV,3,2,11,13,29,088,28,24,75,288,39,25,18,300,49,26,52,127,42,1*79
$GBGSV,3,3,11,29,09,039,25,33,01,259,25,35,52,071,44,1*46
$GBGSV,3,1,11,02,04,106,,05,18,128,,10,06,080,,12,29,190,49,3*72
$GBGSV,3,2,11,13,29,088,,24,75,288,,25,18,300,,26,52,127,,3*70
$GBGSV,3,3,11,29,09,039,,33,01,259,,35,52,071,,3*44
$GNGLL,5025.4458575,N,01411.3816912,E,212525.00,A,D*7A
$GNRMC,212526.00,A,5025.4447572,N,01411.3818203,E,0.005,,241021,,,R,V*01
$GNVTG,,T,,M,0.005,N,0.009,K,D*34
$GNGGA,212526.00,5025.4447572,N,01411.3818203,E,4,12,0.60,217.759,M,44.078,M,1.0,0084*66
$GNGSA,A,3,24,25,31,32,29,02,12,06,,,,,1.17,0.60,1.01,1*0E
$GNGSA,A,3,33,31,26,24,01,13,05,09,,,,,1.17,0.60,1.01,3*0D
$GNGSA,A,3,12,13,24,25,26,35,,,,,,,1.17,0.60,1.01,4*07
$GPGSV,3,1,11,02,39,102,22,03,02,352,19,06,27,054,34,11,,,35,1*53
$GPGSV,3,2,11,12,71,067,48,19,04,044,,24,31,153,43,25,70,289,39,1*6C
$GPGSV,3,3,11,29,35,210,45,31,16,310,46,32,32,269,44,1*53
$GPGSV,3,1,10,02,39,102,,03,02,352,21,06,27,054,29,12,71,067,44,6*60
$GPGSV,3,2,10,19,04,044,,24,31,153,45,25,70,289,43,29,35,210,41,6*62
$GPGSV,3,3,10,31,16,310,40,32,32,269,43,6*6B
$GAGSV,3,1,10,01,52,090,38,04,06,209,,05,20,311,44,09,26,258,43,7*7C
$GAGSV,3,2,10,13,16,032,25,21,05,097,26,24,19,282,48,26,44,087,37,7*79
$GAGSV,3,3,10,31,67,295,41,33,31,149,44,7*74
$GAGSV,3,1,10,01,52,090,41,04,06,209,25,05,20,311,42,09,26,258,46,2*73
$GAGSV,3,2,10,13,16,032,29,21,05,097,24,24,19,282,46,26,44,087,38,2*73
$GAGSV,3,3,10,31,67,295,49,33,31,149,44,2*79
$GBGSV,3,1,11,02,04,106,,05,18,128,,10,06,080,27,12,29,190,43,1*7F
$GBGSV,3,2,11,13,29,088,28,24,75,288,38,25,18,300,49,26,52,127,42,1*78
$GBGSV,3,3,11,29,09,039,24,33,01,259,25,35,52,071,44,1*47
$GBGSV,3,1,11,02,04,106,,05,18,128,,10,06,080,,12,29,190,49,3*72
$GBGSV,3,2,11,13,29,088,,24,75,288,,25,18,300,,26,52,127,,3*70
$GBGSV,3,3,11,29,09,039,,33,01,259,,35,52,071,,3*44
$GNGLL,5025.4447572,N,01411.3818203,E,212526.00,A,D*75
$GNRMC,212527.00,A,5025.4447560,N,01411.3818184,E,0.005,,241021,,,R,V*0F
$GNVTG,,T,,M,0.005,N,0.009,K,D*34
$GNGGA,212527.00,5025.4447560,N,01411.3818184,E,4,12,0.60,217.765,M,44.078,M,1.0,0084*67
$GNGSA,A,3,24,25,31,32,29,02,12,06,,,,,1.17,0.60,1.01,1*0E
$GNGSA,A,3,33,31,26,24,01,13,05,09,,,,,1.17,0.60,1.01,3*0D
$GNGSA,A,3,12,13,24,25,26,35,,,,,,,1.17,0.60,1.01,4*07
$GPGSV,3,1,11,02,39,102,21,03,02,352,20,06,27,054,34,11,,,34,1*5B
$GPGSV,3,2,11,12,71,067,48,19,04,044,,24,31,153,43,25,70,289,38,1*6D
$GPGSV,3,3,11,29,35,210,45,31,16,310,46,32,32,269,44,1*53
$GPGSV,3,1,10,02,39,102,,03,02,352,21,06,27,054,29,12,71,067,44,6*60
$GPGSV,3,2,10,19,04,044,,24,31,153,45,25,70,289,43,29,35,210,41,6*62
$GPGSV,3,3,10,31,16,310,40,32,32,269,43,6*6B
$GAGSV,3,1,10,01,52,090,38,04,06,209,,05,20,311,44,09,26,258,43,7*7C
$GAGSV,3,2,10,13,16,032,26,21,05,097,26,24,19,282,48,26,44,087,37,7*7A
$GAGSV,3,3,10,31,67,295,41,33,31,149,44,7*74
$GAGSV,3,1,10,01,52,090,41,04,06,209,26,05,20,311,42,09,26,258,46,2*70
$GAGSV,3,2,10,13,16,032,29,21,05,097,24,24,19,282,46,26,44,087,38,2*73
$GAGSV,3,3,10,31,67,295,49,33,31,149,44,2*79
$GBGSV,3,1,11,02,04,106,,05,18,128,,10,06,080,27,12,29,190,43,1*7F
$GBGSV,3,2,11,13,29,088,28,24,75,288,39,25,18,300,49,26,52,127,43,1*78
$GBGSV,3,3,11,29,09,039,24,33,01,259,25,35,52,071,44,1*47
$GBGSV,3,1,11,02,04,106,,05,18,128,,10,06,080,,12,29,190,49,3*72
$GBGSV,3,2,11,13,29,088,,24,75,288,,25,18,300,,26,52,127,,3*70
$GBGSV,3,3,11,29,09,039,,33,01,259,,35,52,071,,3*44
$GNGLL,5025.4447560,N,01411.3818184,E,212527.00,A,D*7B
$GNRMC,212528.00,A,5025.4447568,N,01411.3818181,E,0.012,,241021,,,R,V*0B
$GNVTG,,T,,M,0.012,N,0.022,K,D*3B
$GNGGA,212528.00,5025.4447568,N,01411.3818181,E,4,12,0.60,217.770,M,44.078,M,1.0,0084*61
$GNGSA,A,3,24,25,31,32,29,02,12,06,,,,,1.17,0.60,1.01,1*0E
$GNGSA,A,3,33,31,26,24,01,13,05,09,,,,,1.17,0.60,1.01,3*0D
$GNGSA,A,3,12,13,24,25,26,35,,,,,,,1.17,0.60,1.01,4*07
$GPGSV,3,1,11,02,39,102,18,03,02,352,20,06,27,054,34,11,,,34,1*51
$GPGSV,3,2,11,12,71,067,48,19,04,044,,24,31,153,43,25,70,289,38,1*6D
$GPGSV,3,3,11,29,35,210,45,31,16,310,46,32,32,269,44,1*53
$GPGSV,3,1,10,02,39,102,,03,02,352,21,06,27,054,29,12,71,067,44,6*60
$GPGSV,3,2,10,19,04,044,,24,31,153,45,25,70,289,43,29,35,210,41,6*62
$GPGSV,3,3,10,31,16,310,40,32,32,269,43,6*6B
$GAGSV,3,1,10,01,52,090,38,04,06,209,,05,20,311,44,09,26,258,43,7*7C
$GAGSV,3,2,10,13,16,032,26,21,05,097,27,24,19,282,48,26,44,087,37,7*7B
$GAGSV,3,3,10,31,67,295,41,33,31,149,44,7*74
$GAGSV,3,1,10,01,52,090,41,04,06,209,26,05,20,311,42,09,26,258,46,2*70
$GAGSV,3,2,10,13,16,032,29,21,05,097,24,24,19,282,46,26,44,087,38,2*73
$GAGSV,3,3,10,31,67,295,49,33,31,149,44,2*79
$GBGSV,3,1,11,02,04,106,,05,18,128,,10,06,080,27,12,29,190,43,1*7F
$GBGSV,3,2,11,13,29,088,28,24,75,288,39,25,18,300,49,26,52,127,43,1*78
$GBGSV,3,3,11,29,09,039,25,33,01,259,25,35,52,071,44,1*46
$GBGSV,3,1,11,02,04,106,,05,18,128,,10,06,080,,12,29,190,49,3*72
$GBGSV,3,2,11,13,29,088,,24,75,288,,25,18,300,,26,52,127,,3*70
$GBGSV,3,3,11,29,09,039,,33,01,259,,35,52,071,,3*44
$GNGLL,5025.4447568,N,01411.3818181,E,212528.00,A,D*79
$GNRMC,212529.00,A,5025.4447571,N,01411.3818193,E,0.009,,241021,,,R,V*0B
$GNVTG,,T,,M,0.009,N,0.017,K,D*37
$GNGGA,212529.00,5025.4447571,N,01411.3818193,E,4,12,0.60,217.765,M,44.078,M,1.0,0084*6F
$GNGSA,A,3,24,25,31,32,29,02,12,06,,,,,1.17,0.60,1.01,1*0E
$GNGSA,A,3,33,31,26,24,01,13,05,09,,,,,1.17,0.60,1.01,3*0D
$GNGSA,A,3,12,13,24,25,26,35,,,,,,,1.17,0.60,1.01,4*07
$GPGSV,3,1,11,02,39,102,17,03,02,352,20,06,27,054,33,11,,,33,1*5E
$GPGSV,3,2,11,12,71,067,48,19,04,044,,24,31,153,43,25,70,289,37,1*62
$GPGSV,3,3,11,29,35,210,45,31,16,310,46,32,32,269,44,1*53
$GPGSV,3,1,10,02,39,102,,03,02,352,21,06,27,054,28,12,71,067,44,6*61
$GPGSV,3,2,10,19,04,044,,24,31,153,45,25,70,289,43,29,35,210,41,6*62
$GPGSV,3,3,10,31,16,310,40,32,32,269,43,6*6B
$GAGSV,3,1,10,01,52,090,38,04,06,209,,05,20,311,44,09,26,257,43,7*73
$GAGSV,3,2,10,13,16,032,26,21,05,097,27,24,19,282,48,26,44,087,37,7*7B
$GAGSV,3,3,10,31,67,295,41,33,31,149,44,7*74
$GAGSV,3,1,10,01,52,090,41,04,06,209,25,05,20,311,42,09,26,257,46,2*7C
$GAGSV,3,2,10,13,16,032,29,21,05,097,24,24,19,282,46,26,44,087,38,2*73
$GAGSV,3,3,10,31,67,295,49,33,31,149,44,2*79
$GBGSV,3,1,11,02,04,106,,05,18,128,,10,06,080,27,12,29,190,43,1*7F
$GBGSV,3,2,11,13,29,088,28,24,75,288,39,25,18,300,49,26,52,127,43,1*78
$GBGSV,3,3,11,29,09,039,24,33,01,259,26,35,52,071,44,1*44
$GBGSV,3,1,11,02,04,106,,05,18,128,,10,06,080,,12,29,190,49,3*72
$GBGSV,3,2,11,13,29,088,,24,75,288,,25,18,300,,26,52,127,,3*70
$GBGSV,3,3,11,29,09,039,,33,01,259,,35,52,071,,3*44
$GNGLL,5025.4447571,N,01411.3818193,E,212529.00,A,D*73
$GNRMC,212530.00,A,5025.4447570,N,01411.3818171,E,0.007,,241021,,,R,V*00
$GNVTG,,T,,M,0.007,N,0.013,K,D*3D
$GNGGA,212530.00,5025.4447570,N,01411.3818171,E,4,12,0.60,217.770,M,44.078,M,1.0,0084*6E
$GNGSA,A,3,24,25,31,32,29,12,06,,,,,,1.17,0.60,1.01,1*0C
$GNGSA,A,3,33,31,26,24,01,13,05,09,,,,,1.17,0.60,1.01,3*0D
$GNGSA,A,3,12,13,24,25,26,35,,,,,,,1.17,0.60,1.01,4*07
$GPGSV,3,1,11,02,39,102,17,03,02,352,20,06,27,054,33,11,,,32,1*5F
$GPGSV,3,2,11,12,71,067,48,19,04,044,,24,31,153,43,25,70,289,37,1*62
$GPGSV,3,3,11,29,35,210,45,31,16,310,46,32,32,269,44,1*53
$GPGSV,3,1,10,02,39,102,,03,02,352,20,06,27,054,28,12,71,067,44,6*60
$GPGSV,3,2,10,19,04,044,,24,31,153,45,25,70,289,43,29,35,210,40,6*63
$GPGSV,3,3,10,31,16,310,40,32,32,269,43,6*6B
$GAGSV,3,1,10,01,52,090,38,04,06,209,,05,20,311,44,09,26,257,43,7*73
$GAGSV,3,2,10,13,16,032,26,21,05,097,27,24,19,282,48,26,44,087,37,7*7B
$GAGSV,3,3,10,31,67,295,41,33,31,149,44,7*74
$GAGSV,3,1,10,01,52,090,41,04,06,209,25,05,20,311,42,09,26,257,46,2*7C
$GAGSV,3,2,10,13,16,032,29,21,05,097,24,24,19,282,46,26,44,087,38,2*73
$GAGSV,3,3,10,31,67,295,49,33,31,149,44,2*79
$GBGSV,3,1,11,02,04,106,,05,18,128,,10,06,080,27,12,29,190,43,1*7F
$GBGSV,3,2,11,13,29,088,28,24,75,288,39,25,18,300,49,26,52,127,43,1*78
$GBGSV,3,3,11,29,09,039,24,33,01,259,27,35,52,071,44,1*45
$GBGSV,3,1,11,02,04,106,,05,18,128,,10,06,080,,12,29,190,50,3*7A
$GBGSV,3,2,11,13,29,088,,24,75,288,,25,18,300,,26,52,127,,3*70
$GBGSV,3,3,11,29,09,039,,33,01,259,,35,52,071,,3*44
$GNGLL,5025.4447570,N,01411.3818171,E,212530.00,A,D*76
$GNRMC,212531.00,A,5025.4447570,N,01411.3818185,E,0.011,,241021,,,R,V*0D
$GNVTG,,T,,M,0.011,N,0.020,K,D*3A
$GNGGA,212531.00,5025.4447570,N,01411.3818185,E,4,12,0.60,217.766,M,44.078,M,1.0,0084*63
$GNGSA,A,3,24,25,31,32,29,02,12,06,,,,,1.17,0.60,1.01,1*0E
$GNGSA,A,3,33,31,26,24,01,13,05,09,,,,,1.17,0.60,1.01,3*0D
$GNGSA,A,3,12,13,24,25,26,35,,,,,,,1.17,0.60,1.01,4*07
$GPGSV,3,1,11,02,39,102,20,03,02,352,20,06,27,054,33,11,,,32,1*5B
$GPGSV,3,2,11,12,71,067,48,19,04,044,,24,31,153,43,25,70,289,36,1*63
$GPGSV,3,3,11,29,35,210,45,31,16,310,46,32,32,269,44,1*53
$GPGSV,3,1,10,02,39,102,,03,02,352,19,06,27,054,28,12,71,067,44,6*6A
$GPGSV,3,2,10,19,04,044,,24,31,153,45,25,70,289,43,29,35,210,41,6*62
$GPGSV,3,3,10,31,16,310,40,32,32,269,43,6*6B
$GAGSV,3,1,10,01,52,090,38,04,06,209,,05,20,311,44,09,26,257,43,7*73
$GAGSV,3,2,10,13,16,032,26,21,05,097,27,24,19,282,48,26,44,087,37,7*7B
$GAGSV,3,3,10,31,67,295,41,33,31,149,44,7*74
$GAGSV,3,1,10,01,52,090,41,04,06,209,25,05,20,311,42,09,26,257,46,2*7C
$GAGSV,3,2,10,13,16,032,29,21,05,097,24,24,19,282,46,26,44,087,38,2*73
$GAGSV,3,3,10,31,67,295,49,33,31,149,44,2*79
$GBGSV,3,1,11,02,04,106,,05,18,128,,10,06,080,27,12,29,190,43,1*7F
$GBGSV,3,2,11,13,29,088,28,24,75,288,39,25,18,300,48,26,52,127,43,1*79
$GBGSV,3,3,11,29,09,039,24,33,01,259,27,35,52,071,44,1*45
$GBGSV,3,1,11,02,04,106,,05,18,128,,10,06,080,,12,29,190,50,3*7A
$GBGSV,3,2,11,13,29,088,,24,75,288,,25,18,300,,26,52,127,,3*70
$GBGSV,3,3,11,29,09,039,,33,01,259,,35,52,071,,3*44
$GNGLL,5025.4447570,N,01411.3818185,E,212531.00,A,D*7C
$GNRMC,212532.00,A,5025.4447574,N,01411.3818185,E,0.006,,241021,,,R,V*0C
$GNVTG,,T,,M,0.006,N,0.011,K,D*3E
$GNGGA,212532.00,5025.4447574,N,01411.3818185,E,4,12,0.60,217.768,M,44.078,M,1.0,0084*6A
$GNGSA,A,3,24,25,31,32,29,02,12,06,,,,,1.17,0.60,1.01,1*0E
$GNGSA,A,3,33,31,26,24,01,13,05,09,,,,,1.17,0.60,1.01,3*0D
$GNGSA,A,3,12,13,24,25,26,35,,,,,,,1.17,0.60,1.01,4*07
$GPGSV,3,1,11,02,39,102,22,03,02,352,19,06,27,054,32,11,,,31,1*51
$GPGSV,3,2,11,12,71,067,48,19,04,044,,24,31,153,43,25,70,289,36,1*63
$GPGSV,3,3,11,29,35,210,45,31,16,310,46,32,32,269,44,1*53
$GPGSV,3,1,10,02,39,102,,03,02,352,18,06,27,054,28,12,71,067,44,6*6B
$GPGSV,3,2,10,19,04,044,,24,31,153,45,25,70,289,43,29,35,210,41,6*62
$GPGSV,3,3,10,31,16,310,40,32,32,269,42,6*6A
$GAGSV,3,1,10,01,52,090,38,04,06,209,,05,20,311,44,09,26,257,43,7*73
$GAGSV,3,2,10,13,16,032,26,21,05,097,26,24,19,282,48,26,44,087,37,7*7A
$GAGSV,3,3,10,31,67,295,41,33,31,149,44,7*74
$GAGSV,3,1,10,01,52,090,41,04,06,209,25,05,20,311,42,09,26,257,46,2*7C
$GAGSV,3,2,10,13,16,032,29,21,05,097,25,24,19,282,46,26,44,087,38,2*72
$GAGSV,3,3,10,31,67,295,49,33,31,149,44,2*79
$GBGSV,3,1,11,02,04,106,,05,18,128,,10,06,080,26,12,29,190,43,1*7E
$GBGSV,3,2,11,13,29,088,28,24,75,288,39,25,18,300,49,26,52,127,43,1*78
$GBGSV,3,3,11,29,09,039,24,33,01,259,27,35,52,071,44,1*45
