$GNGGA,213434.00,5025.4447552,N,01411.3818058,E,4,12,0.64,217.790,M,44.078,M,1.0,0084*6A
$GNGSA,A,3,24,31,32,29,12,25,02,06,,,,,1.25,0.64,1.08,1*02
$GNGSA,A,3,81,87,88,69,79,77,70,78,,,,,1.25,0.64,1.08,2*00
$GNGSA,A,3,12,13,24,25,26,35,,,,,,,1.25,0.64,1.08,4*0B
$GPGSV,3,1,10,02,40,097,40,03,01,349,,06,26,050,31,12,68,072,46,1*68
$GPGSV,3,2,10,19,01,044,26,24,27,154,47,25,74,295,42,29,39,212,44,1*65
$GPGSV,3,3,10,31,20,310,46,32,30,265,48,1*6A
$GPGSV,3,1,10,02,40,097,,03,01,349,22,06,26,050,18,12,68,072,44,6*62
$GPGSV,3,2,10,19,01,044,,24,27,154,44,25,74,295,45,29,39,212,38,6*69
$GPGSV,3,3,10,31,20,310,40,32,30,265,44,6*67
$GLGSV,3,1,09,68,00,239,,69,18,283,47,70,14,343,22,77,27,111,14,1*7E
$GLGSV,3,2,09,78,78,046,50,79,36,308,50,81,20,184,46,87,48,048,45,1*78
$GLGSV,3,3,09,88,62,133,44,1*44
$GLGSV,3,1,09,68,00,239,,69,18,283,43,70,14,343,,77,27,111,16,3*7A
$GLGSV,3,2,09,78,78,046,42,79,36,308,45,81,20,184,42,87,48,048,,3*78
$GLGSV,3,3,09,88,62,133,42,3*40
$GBGSV,3,1,10,02,04,106,,05,18,128,,10,05,082,22,12,33,190,41,1*73
$GBGSV,3,2,10,13,31,087,28,24,79,280,40,25,21,301,47,26,48,129,41,1*77
$GBGSV,3,3,10,29,06,039,22,35,50,066,41,1*76
$GBGSV,3,1,10,02,04,106,,05,18,128,,10,05,082,,12,33,190,48,3*78
$GBGSV,3,2,10,13,31,087,27,24,79,280,,25,21,301,,26,48,129,,3*78
$GBGSV,3,3,10,29,06,039,,35,50,066,,3*71
$GNGLL,5025.4447552,N,01411.3818058,E,213434.00,A,D*78
$GNTXT,01,01,02,Starting GNSS*5A
$GNRMC,213434.32,V,,,,,,,241021,,,N,V*1F
$GNVTG,,,,,,,,,N*2E
$GNGGA,213434.32,,,,,0,00,99.99,,,,,,*7A
$GNGSA,A,1,,,,,,,,,,,,,99.99,99.99,99.99,1*33
$GNGSA,A,1,,,,,,,,,,,,,99.99,99.99,99.99,3*31
$GNGSA,A,1,,,,,,,,,,,,,99.99,99.99,99.99,4*36
$GPGSV,1,1,00,1*64
$GPGSV,1,1,00,6*63
$GAGSV,1,1,00,7*73
$GAGSV,1,1,00,2*76
$GBGSV,1,1,00,1*76
$GBGSV,1,1,00,3*74
$GNGLL,,,,,213434.32,V,N*56
$GNRMC,213435.00,A,5025.4457759,N,01411.3810812,E,0.043,,241021,,,A,V*1A
$GNVTG,,T,,M,0.043,N,0.079,K,A*34
$GNGGA,213435.00,5025.4457759,N,01411.3810812,E,1,12,0.70,216.248,M,44.078,M,,*4F
$GNGSA,A,3,24,25,29,31,32,12,02,,,,,,1.37,0.70,1.18,1*03
$GNGSA,A,3,33,31,24,26,01,09,05,,,,,,1.37,0.70,1.18,3*04
$GNGSA,A,3,13,12,24,26,25,35,,,,,,,1.37,0.70,1.18,4*0C
$GPGSV,3,1,10,02,40,097,38,03,01,349,,06,26,049,29,12,67,073,45,1*6B
$GPGSV,3,2,10,19,00,045,28,24,27,154,46,25,74,295,41,29,39,212,43,1*6E
$GPGSV,3,3,10,31,20,310,45,32,30,265,47,1*66
$GPGSV,3,1,10,02,40,097,,03,01,349,,06,26,049,,12,67,073,,6*6D
$GPGSV,3,2,10,19,00,045,,24,27,154,,25,74,295,,29,39,212,,6*63
$GPGSV,3,3,10,31,20,310,,32,30,265,,6*63
$GAGSV,3,1,10,01,49,093,37,04,03,208,,05,21,308,46,09,23,255,46,7*78
$GAGSV,3,2,10,13,13,031,23,21,03,100,,24,21,284,46,26,45,082,40,7*73
$GAGSV,3,3,10,31,71,298,41,33,35,148,39,7*71
$GAGSV,3,1,10,01,49,093,,04,03,208,,05,21,308,,09,23,255,,2*79
$GAGSV,3,2,10,13,13,031,,21,03,100,,24,21,284,,26,45,082,,2*71
$GAGSV,3,3,10,31,71,298,,33,35,148,,2*7B
$GBGSV,3,1,10,02,04,106,,05,18,128,,10,05,082,21,12,33,190,41,1*70
$GBGSV,3,2,10,13,31,087,31,24,79,279,41,25,21,301,47,26,48,129,42,1*7B
$GBGSV,3,3,10,29,06,039,24,35,50,066,41,1*70
$GBGSV,3,1,10,02,04,106,,05,18,128,,10,05,082,,12,33,190,,3*74
$GBGSV,3,2,10,13,31,087,,24,79,279,,25,21,301,,26,48,129,,3*7B
$GBGSV,3,3,10,29,06,039,,35,50,066,,3*71
$GNGLL,5025.4457759,N,01411.3810812,E,213435.00,A,A*7A
$GNRMC,213436.00,A,5025.4463980,N,01411.3833306,E,0.065,,241021,,,A,V*1F
$GNVTG,,T,,M,0.065,N,0.120,K,A*3D
$GNGGA,213436.00,5025.4463980,N,01411.3833306,E,1,12,0.60,215.760,M,44.078,M,,*43
$GNGSA,A,3,24,25,29,31,32,12,02,06,,,,,1.19,0.60,1.03,1*02
$GNGSA,A,3,33,31,24,26,01,09,05,13,,,,,1.19,0.60,1.03,3*01
$GNGSA,A,3,13,12,24,26,25,35,,,,,,,1.19,0.60,1.03,4*0B
$GPGSV,3,1,10,02,40,097,39,03,01,349,,06,26,049,30,12,67,073,46,1*61
$GPGSV,3,2,10,19,00,045,27,24,27,154,47,25,74,295,41,29,39,212,44,1*67
$GPGSV,3,3,10,31,20,310,45,32,30,265,48,1*69
$GPGSV,3,1,10,02,40,097,,03,01,349,22,06,26,049,,12,67,073,45,6*6C
$GPGSV,3,2,10,19,00,045,,24,27,154,45,25,74,295,46,29,39,212,39,6*6A
$GPGSV,3,3,10,31,20,310,41,32,30,265,45,6*67
$GAGSV,3,1,10,01,49,093,37,04,03,208,,05,21,308,46,09,23,255,46,7*78
$GAGSV,3,2,10,13,13,031,24,21,03,100,,24,21,284,47,26,45,082,41,7*74
$GAGSV,3,3,10,31,71,298,41,33,35,148,39,7*71
$GAGSV,3,1,10,01,49,093,44,04,03,208,30,05,21,308,45,09,23,255,50,2*7E
$GAGSV,3,2,10,13,13,031,28,21,03,100,,24,21,284,50,26,45,082,38,2*75
$GAGSV,3,3,10,31,71,298,49,33,35,148,43,2*71
$GBGSV,3,1,10,02,04,106,,05,18,128,,10,05,082,20,12,33,190,41,1*71
$GBGSV,3,2,10,13,31,087,29,24,79,279,41,25,21,301,47,26,48,129,42,1*72
$GBGSV,3,3,10,29,06,039,23,35,50,066,41,1*77
$GBGSV,3,1,10,02,04,106,,05,18,128,,10,05,082,,12,33,190,49,3*79
$GBGSV,3,2,10,13,31,087,29,24,79,279,,25,21,301,,26,48,129,,3*70
$GBGSV,3,3,10,29,06,039,,35,50,066,,3*71
$GNGLL,5025.4463980,N,01411.3833306,E,213436.00,A,A*7B
$GNRMC,213437.00,A,5025.4469576,N,01411.3843081,E,0.007,,241021,,,A,V*1E
$GNVTG,,T,,M,0.007,N,0.013,K,A*38
$GNGGA,213437.00,5025.4469576,N,01411.3843081,E,1,12,0.60,214.103,M,44.078,M,,*44
$GNGSA,A,3,24,25,29,31,32,12,02,06,,,,,1.19,0.60,1.03,1*02
$GNGSA,A,3,33,31,24,26,01,09,05,13,,,,,1.19,0.60,1.03,3*01
$GNGSA,A,3,13,12,24,26,25,35,,,,,,,1.19,0.60,1.03,4*0B
$GPGSV,3,1,10,02,40,097,40,03,01,349,,06,26,049,30,12,67,073,46,1*6F
$GPGSV,3,2,10,19,00,045,27,24,27,154,47,25,74,295,41,29,39,212,44,1*67
$GPGSV,3,3,10,31,20,310,45,32,30,265,48,1*69
$GPGSV,3,1,10,02,40,097,,03,01,349,22,06,26,049,19,12,67,073,45,6*64
$GPGSV,3,2,10,19,00,045,,24,27,154,45,25,74,295,46,29,39,212,39,6*6A
$GPGSV,3,3,10,31,20,310,40,32,30,265,45,6*66
$GAGSV,3,1,10,01,49,093,36,04,03,208,19,05,21,308,46,09,23,255,46,7*71
$GAGSV,3,2,10,13,13,031,23,21,03,100,,24,21,284,46,26,45,082,40,7*73
$GAGSV,3,3,10,31,71,298,40,33,35,148,39,7*70
$GAGSV,3,1,10,01,49,093,43,04,03,208,27,05,21,308,44,09,23,255,49,2*76
$GAGSV,3,2,10,13,13,031,28,21,03,100,,24,21,284,49,26,45,082,37,2*72
$GAGSV,3,3,10,31,71,298,48,33,35,148,42,2*71
$GBGSV,3,1,10,02,04,106,,05,18,128,,10,05,082,21,12,33,190,41,1*70
$GBGSV,3,2,10,13,31,087,29,24,79,279,40,25,21,301,47,26,48,129,42,1*73
$GBGSV,3,3,10,29,06,039,23,35,50,066,41,1*77
$GBGSV,3,1,10,02,04,106,,05,18,128,,10,05,082,,12,33,190,48,3*78
$GBGSV,3,2,10,13,31,087,28,24,79,279,,25,21,301,,26,48,129,,3*71
$GBGSV,3,3,10,29,06,039,,35,50,066,,3*71
$GNGLL,5025.4469576,N,01411.3843081,E,213437.00,A,A*7E
$GNRMC,213438.00,A,5025.4468317,N,01411.3842214,E,0.010,,241021,,,A,V*18
$GNVTG,,T,,M,0.010,N,0.018,K,A*35
$GNGGA,213438.00,5025.4468317,N,01411.3842214,E,1,12,0.60,212.771,M,44.078,M,,*41
$GNGSA,A,3,24,25,29,31,32,12,02,06,,,,,1.19,0.60,1.03,1*02
$GNGSA,A,3,33,31,24,26,01,09,05,13,,,,,1.19,0.60,1.03,3*01
$GNGSA,A,3,13,12,24,26,25,35,,,,,,,1.19,0.60,1.03,4*0B
$GPGSV,3,1,10,02,40,097,40,03,01,349,,06,26,049,30,12,67,073,46,1*6F
$GPGSV,3,2,10,19,00,045,26,24,27,154,47,25,74,295,41,29,39,212,44,1*66
$GPGSV,3,3,10,31,20,310,45,32,30,265,48,1*69
$GPGSV,3,1,10,02,40,097,,03,01,349,22,06,26,049,18,12,67,073,45,6*65
$GPGSV,3,2,10,19,00,045,,24,27,154,45,25,74,295,46,29,39,212,39,6*6A
$GPGSV,3,3,10,31,20,310,41,32,30,265,45,6*67
$GAGSV,3,1,10,01,49,093,36,04,03,208,19,05,21,308,46,09,23,255,46,7*71
$GAGSV,3,2,10,13,13,031,23,21,03,100,,24,21,284,46,26,45,082,40,7*73
$GAGSV,3,3,10,31,71,298,40,33,35,148,39,7*70
$GAGSV,3,1,10,01,49,093,43,04,03,208,27,05,21,308,44,09,23,255,48,2*77
$GAGSV,3,2,10,13,13,031,28,21,03,100,,24,21,284,49,26,45,082,36,2*73
$GAGSV,3,3,10,31,71,298,48,33,35,148,41,2*72
$GBGSV,3,1,10,02,04,106,,05,18,128,,10,05,082,21,12,33,190,41,1*70
$GBGSV,3,2,10,13,31,087,28,24,79,279,41,25,21,301,47,26,48,129,42,1*73
$GBGSV,3,3,10,29,06,039,22,35,50,066,41,1*76
$GBGSV,3,1,10,02,04,106,,05,18,128,,10,05,082,,12,33,190,48,3*78
$GBGSV,3,2,10,13,31,087,28,24,79,279,,25,21,301,,26,48,129,,3*71
$GBGSV,3,3,10,29,06,039,,35,50,066,,3*71
$GNGLL,5025.4468317,N,01411.3842214,E,213438.00,A,A*7E
$GNRMC,213439.00,A,5025.4468871,N,01411.3840904,E,0.025,,241021,,,A,V*1C
$GNVTG,,T,,M,0.025,N,0.046,K,A*38
$GNGGA,213439.00,5025.4468871,N,01411.3840904,E,1,12,0.60,212.877,M,44.078,M,,*4A
$GNGSA,A,3,24,25,29,31,32,12,02,06,,,,,1.19,0.60,1.03,1*02
$GNGSA,A,3,33,31,24,26,01,09,05,13,,,,,1.19,0.60,1.03,3*01
$GNGSA,A,3,13,12,24,26,25,35,,,,,,,1.19,0.60,1.03,4*0B
$GPGSV,3,1,10,02,40,097,40,03,01,349,,06,26,049,29,12,67,073,46,1*67
$GPGSV,3,2,10,19,00,045,26,24,27,154,47,25,74,295,41,29,39,212,44,1*66
$GPGSV,3,3,10,31,20,310,45,32,30,265,48,1*69
$GPGSV,3,1,10,02,40,097,,03,01,349,22,06,26,049,17,12,67,073,45,6*6A
$GPGSV,3,2,10,19,00,045,,24,27,154,45,25,74,295,46,29,39,212,39,6*6A
$GPGSV,3,3,10,31,20,310,41,32,30,265,45,6*67
$GAGSV,3,1,10,01,49,093,36,04,03,208,19,05,21,308,46,09,23,255,46,7*71
$GAGSV,3,2,10,13,13,031,23,21,03,100,,24,21,284,46,26,45,082,40,7*73
$GAGSV,3,3,10,31,71,298,40,33,35,148,39,7*70
$GAGSV,3,1,10,01,49,093,42,04,03,208,26,05,21,308,44,09,23,255,48,2*77
$GAGSV,3,2,10,13,13,031,28,21,03,100,,24,21,284,49,26,45,082,36,2*73
$GAGSV,3,3,10,31,71,298,47,33,35,148,41,2*7D
$GBGSV,3,1,10,02,04,106,,05,18,128,,10,05,082,22,12,33,190,41,1*73
$GBGSV,3,2,10,13,31,087,28,24,79,279,41,25,21,301,47,26,48,129,42,1*73
$GBGSV,3,3,10,29,06,039,22,35,50,066,41,1*76
$GBGSV,3,1,10,02,04,106,,05,18,128,,10,05,082,,12,33,190,48,3*78
$GBGSV,3,2,10,13,31,087,27,24,79,279,,25,21,301,,26,48,129,,3*7E
$GBGSV,3,3,10,29,06,039,,35,50,066,,3*71
$GNGLL,5025.4468871,N,01411.3840904,E,213439.00,A,A*7C
$GNRMC,213440.00,A,5025.4468733,N,01411.3839108,E,0.009,,241021,,,A,V*1F
$GNVTG,,T,,M,0.009,N,0.017,K,A*32
$GNGGA,213440.00,5025.4468733,N,01411.3839108,E,1,12,0.60,213.117,M,44.078,M,,*49
$GNGSA,A,3,24,25,29,31,32,12,02,06,,,,,1.19,0.60,1.03,1*02
$GNGSA,A,3,33,31,24,26,01,09,05,13,,,,,1.19,0.60,1.03,3*01
$GNGSA,A,3,13,12,24,26,25,35,,,,,,,1.19,0.60,1.03,4*0B
$GPGSV,3,1,10,02,40,097,40,03,01,349,24,06,26,049,29,12,67,073,45,1*62
$GPGSV,3,2,10,19,00,045,25,24,27,154,47,25,74,295,41,29,39,212,44,1*65
$GPGSV,3,3,10,31,20,310,45,32,30,265,47,1*66
$GPGSV,3,1,10,02,40,097,,03,01,349,20,06,26,049,16,12,67,073,44,6*68
$GPGSV,3,2,10,19,00,045,,24,27,154,44,25,74,295,45,29,39,212,38,6*69
$GPGSV,3,3,10,31,20,310,40,32,30,265,44,6*67
$GAGSV,3,1,10,01,49,093,35,04,03,208,20,05,21,308,46,09,23,255,46,7*78
$GAGSV,3,2,10,13,13,031,23,21,03,100,,24,21,284,46,26,45,082,40,7*73
$GAGSV,3,3,10,31,71,298,40,33,35,148,39,7*70
$GAGSV,3,1,10,01,49,093,42,04,03,208,26,05,21,308,44,09,23,255,48,2*77
$GAGSV,3,2,10,13,13,031,27,21,03,100,,24,21,284,49,26,45,082,36,2*7C
$GAGSV,3,3,10,31,71,298,47,33,35,148,41,2*7D
$GBGSV,3,1,10,02,04,106,,05,18,128,,10,05,082,21,12,33,190,41,1*70
$GBGSV,3,2,10,13,31,087,28,24,79,279,41,25,21,301,47,26,48,129,42,1*73
$GBGSV,3,3,10,29,06,039,22,35,50,066,41,1*76
$GBGSV,3,1,10,02,04,106,,05,18,128,,10,05,082,,12,33,190,48,3*78
$GBGSV,3,2,10,13,31,087,27,24,79,279,,25,21,301,,26,48,129,,3*7E
$GBGSV,3,3,10,29,06,039,,35,50,066,,3*71
$GNGLL,5025.4468733,N,01411.3839108,E,213440.00,A,A*71
$GNRMC,213441.00,A,5025.4468650,N,01411.3836704,E,0.007,,241021,,,A,V*11
$GNVTG,,T,,M,0.007,N,0.013,K,A*38
$GNGGA,213441.00,5025.4468650,N,01411.3836704,E,1,12,0.60,213.195,M,44.078,M,,*43
$GNGSA,A,3,24,25,29,31,32,12,02,06,,,,,1.19,0.60,1.03,1*02
$GNGSA,A,3,33,31,24,26,01,09,05,13,,,,,1.19,0.60,1.03,3*01
$GNGSA,A,3,13,12,24,26,25,35,,,,,,,1.19,0.60,1.03,4*0B
$GPGSV,3,1,10,02,40,097,41,03,01,349,22,06,26,049,29,12,67,073,45,1*65
$GPGSV,3,2,10,19,00,045,24,24,27,154,47,25,74,295,41,29,39,212,45,1*65
$GPGSV,3,3,10,31,20,310,45,32,30,265,47,1*66
$GPGSV,3,1,10,02,40,097,,03,01,349,21,06,26,049,15,12,67,073,44,6*6A
$GPGSV,3,2,10,19,00,045,,24,27,154,44,25,74,295,45,29,39,212,38,6*69
$GPGSV,3,3,10,31,20,310,40,32,30,265,44,6*67
$GAGSV,3,1,10,01,49,093,35,04,03,208,20,05,21,308,46,09,23,255,46,7*78
$GAGSV,3,2,10,13,13,031,23,21,03,100,,24,21,284,46,26,45,082,40,7*73
$GAGSV,3,3,10,31,71,298,40,33,35,148,39,7*70
$GAGSV,3,1,10,01,49,093,43,04,03,208,26,05,21,308,44,09,23,255,48,2*76
$GAGSV,3,2,10,13,13,031,27,21,03,100,,24,21,284,49,26,45,082,36,2*7C
$GAGSV,3,3,10,31,71,298,47,33,35,148,42,2*7E
$GBGSV,3,1,10,02,04,106,,05,18,128,,10,05,082,21,12,33,190,41,1*70
$GBGSV,3,2,10,13,31,087,28,24,79,279,41,25,21,301,47,26,48,129,42,1*73
$GBGSV,3,3,10,29,06,039,22,35,50,066,41,1*76
$GBGSV,3,1,10,02,04,106,,05,18,128,,10,05,082,,12,33,190,48,3*78
$GBGSV,3,2,10,13,31,087,27,24,79,279,,25,21,301,,26,48,129,,3*7E
$GBGSV,3,3,10,29,06,039,,35,50,066,,3*71
$GNGLL,5025.4468650,N,01411.3836704,E,213441.00,A,A*71
$GNRMC,213442.00,A,5025.4468574,N,01411.3835086,E,0.006,,241021,,,A,V*18
$GNVTG,,T,,M,0.006,N,0.012,K,A*38
$GNGGA,213442.00,5025.4468574,N,01411.3835086,E,1,12,0.60,213.368,M,44.078,M,,*4B
$GNGSA,A,3,24,25,29,31,32,12,02,06,,,,,1.19,0.60,1.03,1*02
$GNGSA,A,3,33,31,24,26,01,09,05,13,,,,,1.19,0.60,1.03,3*01
$GNGSA,A,3,13,12,24,26,25,35,,,,,,,1.19,0.60,1.03,4*0B
$GPGSV,3,1,10,02,40,097,41,03,01,349,22,06,26,049,29,12,67,073,45,1*65
$GPGSV,3,2,10,19,00,045,22,24,27,154,47,25,74,295,41,29,39,212,45,1*63
$GPGSV,3,3,10,31,20,310,45,32,30,265,47,1*66
$GPGSV,3,1,10,02,40,097,,03,01,349,21,06,26,049,12,12,67,073,44,6*6D
$GPGSV,3,2,10,19,00,045,,24,27,154,44,25,74,295,45,29,39,212,38,6*69
$GPGSV,3,3,10,31,20,310,40,32,30,265,44,6*67
$GAGSV,3,1,10,01,49,093,35,04,03,208,19,05,21,308,46,09,23,255,46,7*72
$GAGSV,3,2,10,13,13,031,23,21,03,100,,24,21,284,46,26,45,082,40,7*73
$GAGSV,3,3,10,31,71,298,40,33,35,148,40,7*7E
$GAGSV,3,1,10,01,49,093,43,04,03,208,25,05,21,308,44,09,23,255,48,2*75
$GAGSV,3,2,10,13,13,031,27,21,03,100,,24,21,284,49,26,45,082,36,2*7C
$GAGSV,3,3,10,31,71,298,47,33,35,148,42,2*7E
$GBGSV,3,1,10,02,04,106,,05,18,128,,10,05,082,20,12,33,190,41,1*71
$GBGSV,3,2,10,13,31,087,27,24,79,279,41,25,21,301,47,26,48,129,42,1*7C
$GBGSV,3,3,10,29,06,039,22,35,50,066,41,1*76
$GBGSV,3,1,10,02,04,106,,05,18,128,,10,05,082,,12,33,190,48,3*78
$GBGSV,3,2,10,13,31,087,27,24,79,279,,25,21,301,,26,48,129,,3*7E
$GBGSV,3,3,10,29,06,039,,35,50,066,,3*71
$GNGLL,5025.4468574,N,01411.3835086,E,213442.00,A,A*79
$GNRMC,213443.00,A,5025.4468476,N,01411.3833435,E,0.012,,241021,,,A,V*15
$GNVTG,,T,,M,0.012,N,0.022,K,A*3E
$GNGGA,213443.00,5025.4468476,N,01411.3833435,E,1,12,0.60,213.510,M,44.078,M,,*4A
$GNGSA,A,3,24,25,29,31,32,12,02,06,,,,,1.19,0.60,1.03,1*02
$GNGSA,A,3,33,31,24,26,01,09,05,13,,,,,1.19,0.60,1.03,3*01
$GNGSA,A,3,13,12,24,26,25,35,,,,,,,1.19,0.60,1.03,4*0B
$GPGSV,3,1,10,02,40,097,41,03,01,349,21,06,26,049,28,12,67,073,45,1*67
$GPGSV,3,2,10,19,00,045,22,24,27,154,47,25,74,295,41,29,39,212,45,1*63
$GPGSV,3,3,10,31,20,310,45,32,30,265,47,1*66
$GPGSV,3,1,10,02,40,097,,03,01,349,21,06,26,049,,12,67,073,44,6*6E
$GPGSV,3,2,10,19,00,045,,24,27,154,44,25,74,295,45,29,39,212,38,6*69
$GPGSV,3,3,10,31,20,310,40,32,30,265,44,6*67
$GAGSV,3,1,10,01,49,093,35,04,03,208,20,05,21,308,46,09,23,255,46,7*78
$GAGSV,3,2,10,13,13,031,23,21,03,100,,24,21,284,46,26,45,082,40,7*73
$GAGSV,3,3,10,31,71,298,40,33,35,148,40,7*7E
$GAGSV,3,1,10,01,49,093,43,04,03,208,26,05,21,308,44,09,23,255,48,2*76
$GAGSV,3,2,10,13,13,031,27,21,03,100,,24,21,284,49,26,45,082,36,2*7C
$GAGSV,3,3,10,31,71,298,47,33,35,148,42,2*7E
$GBGSV,3,1,10,02,04,106,,05,18,128,,10,05,082,21,12,33,190,41,1*70
$GBGSV,3,2,10,13,31,087,28,24,79,279,41,25,21,301,47,26,48,129,42,1*73
$GBGSV,3,3,10,29,06,039,22,35,50,066,41,1*76
$GBGSV,3,1,10,02,04,106,,05,18,128,,10,05,082,,12,33,190,48,3*78
$GBGSV,3,2,10,13,31,087,27,24,79,279,,25,21,301,,26,48,129,,3*7E
$GBGSV,3,3,10,29,06,039,,35,50,066,,3*71
$GNGLL,5025.4468476,N,01411.3833435,E,213443.00,A,A*71
$GNRMC,213444.00,A,5025.4468314,N,01411.3832380,E,0.006,,241021,,,A,V*1C
$GNVTG,,T,,M,0.006,N,0.010,K,A*3A
$GNGGA,213444.00,5025.4468314,N,01411.3832380,E,1,12,0.60,213.647,M,44.078,M,,*47
$GNGSA,A,3,24,25,29,31,32,12,02,06,,,,,1.19,0.60,1.03,1*02
$GNGSA,A,3,33,31,24,26,01,09,05,13,,,,,1.19,0.60,1.03,3*01
$GNGSA,A,3,13,12,24,26,25,35,,,,,,,1.19,0.60,1.03,4*0B
$GPGSV,3,1,10,02,40,097,41,03,01,349,21,06,26,049,28,12,67,073,45,1*67
$GPGSV,3,2,10,19,00,045,22,24,27,154,47,25,74,295,40,29,39,212,45,1*62
$GPGSV,3,3,10,31,20,310,45,32,30,265,47,1*66
$GPGSV,3,1,10,02,40,097,,03,01,349,21,06,26,049,,12,67,073,44,6*6E
$GPGSV,3,2,10,19,00,045,,24,27,154,44,25,74,295,45,29,39,212,38,6*69
$GPGSV,3,3,10,31,20,310,40,32,30,265,44,6*67
$GAGSV,3,1,10,01,49,093,35,04,03,208,20,05,21,308,46,09,23,255,46,7*78
$GAGSV,3,2,10,13,13,031,23,21,03,100,,24,21,284,46,26,45,082,40,7*73
$GAGSV,3,3,10,31,71,298,40,33,35,148,40,7*7E
$GAGSV,3,1,10,01,49,093,43,04,03,208,25,05,21,308,44,09,23,255,48,2*75
$GAGSV,3,2,10,13,13,031,27,21,03,100,,24,21,284,49,26,45,082,36,2*7C
$GAGSV,3,3,10,31,71,298,47,33,35,148,42,2*7E
$GBGSV,3,1,10,02,04,106,,05,18,128,,10,05,082,21,12,33,190,41,1*70
$GBGSV,3,2,10,13,31,087,28,24,79,279,41,25,21,301,47,26,48,129,42,1*73
$GBGSV,3,3,10,29,06,039,23,35,50,066,41,1*77
$GBGSV,3,1,10,02,04,106,,05,18,128,,10,05,082,,12,33,190,48,3*78
$GBGSV,3,2,10,13,31,087,27,24,79,279,,25,21,301,,26,48,129,,3*7E
$GBGSV,3,3,10,29,06,039,,35,50,066,,3*71
$GNGLL,5025.4468314,N,01411.3832380,E,213444.00,A,A*7D
$GNRMC,213445.00,A,5025.4468111,N,01411.3831339,E,0.009,,241021,,,A,V*14
$GNVTG,,T,,M,0.009,N,0.017,K,A*32
$GNGGA,213445.00,5025.4468111,N,01411.3831339,E,1,12,0.60,213.772,M,44.078,M,,*47
$GNGSA,A,3,24,25,29,31,32,12,02,06,,,,,1.19,0.60,1.03,1*02
$GNGSA,A,3,33,31,24,26,01,09,05,13,,,,,1.19,0.60,1.03,3*01
$GNGSA,A,3,13,12,24,26,25,35,,,,,,,1.19,0.60,1.03,4*0B
$GPGSV,3,1,10,02,40,097,41,03,01,349,20,06,26,049,28,12,67,073,46,1*65
$GPGSV,3,2,10,19,00,045,22,24,27,154,47,25,74,295,40,29,39,212,45,1*62
$GPGSV,3,3,10,31,20,310,45,32,30,265,47,1*66
$GPGSV,3,1,10,02,40,097,,03,01,349,21,06,26,049,,12,67,073,44,6*6E
$GPGSV,3,2,10,19,00,045,,24,27,154,45,25,74,295,45,29,39,212,38,6*68
$GPGSV,3,3,10,31,20,310,40,32,30,265,44,6*67
$GAGSV,3,1,10,01,49,093,34,04,03,208,21,05,21,308,46,09,23,255,46,7*78
$GAGSV,3,2,10,13,13,031,24,21,03,100,,24,21,284,46,26,45,082,40,7*74
$GAGSV,3,3,10,31,71,298,40,33,35,148,40,7*7E
$GAGSV,3,1,10,01,49,093,43,04,03,208,25,05,21,308,44,09,23,255,48,2*75
$GAGSV,3,2,10,13,13,031,27,21,03,100,,24,21,284,49,26,45,082,36,2*7C
$GAGSV,3,3,10,31,71,298,47,33,35,148,42,2*7E
$GBGSV,3,1,10,02,04,106,,05,18,128,,10,05,082,21,12,33,190,41,1*70
$GBGSV,3,2,10,13,31,087,27,24,79,279,42,25,21,301,47,26,48,129,42,1*7F
$GBGSV,3,3,10,29,06,039,24,35,50,066,41,1*70
$GBGSV,3,1,10,02,04,106,,05,18,128,,10,05,082,,12,33,190,48,3*78
$GBGSV,3,2,10,13,31,087,27,24,79,279,,25,21,301,,26,48,129,,3*7E
$GBGSV,3,3,10,29,06,039,,35,50,066,,3*71
$GNGLL,5025.4468111,N,01411.3831339,E,213445.00,A,A*7A
$GNRMC,213446.00,A,5025.4468111,N,01411.3830635,E,0.010,,241021,,,A,V*17
$GNVTG,,T,,M,0.010,N,0.018,K,A*35
$GNGGA,213446.00,5025.4468111,N,01411.3830635,E,1,12,0.60,213.828,M,44.078,M,,*4C
$GNGSA,A,3,24,25,29,31,32,12,02,06,,,,,1.19,0.60,1.03,1*02
$GNGSA,A,3,33,31,24,26,01,09,05,13,,,,,1.19,0.60,1.03,3*01
$GNGSA,A,3,13,12,24,26,25,35,,,,,,,1.19,0.60,1.03,4*0B
$GPGSV,3,1,11,02,40,097,41,03,01,349,21,06,26,049,27,11,,,33,1*5E
$GPGSV,3,2,11,12,67,073,46,19,00,045,23,24,27,154,47,25,74,295,40,1*67
$GPGSV,3,3,11,29,39,212,45,31,20,310,45,32,30,265,47,1*56
$GPGSV,3,1,10,02,40,097,,03,01,349,21,06,26,049,,12,67,073,44,6*6E
$GPGSV,3,2,10,19,00,045,,24,27,154,45,25,74,295,45,29,39,212,39,6*69
$GPGSV,3,3,10,31,20,310,40,32,30,265,44,6*67
$GAGSV,3,1,10,01,49,093,34,04,03,208,21,05,21,308,46,09,23,255,46,7*78
$GAGSV,3,2,10,13,13,031,25,21,03,100,,24,21,284,46,26,45,082,40,7*75
$GAGSV,3,3,10,31,71,298,40,33,35,148,41,7*7F
$GAGSV,3,1,10,01,49,093,43,04,03,208,25,05,21,308,44,09,23,255,48,2*75
$GAGSV,3,2,10,13,13,031,27,21,03,100,,24,21,284,49,26,45,082,37,2*7D
$GAGSV,3,3,10,31,71,298,47,33,35,148,42,2*7E
$GBGSV,3,1,10,02,04,106,,05,18,128,,10,05,082,20,12,33,190,41,1*71
$GBGSV,3,2,10,13,31,087,27,24,79,279,42,25,21,301,47,26,48,129,42,1*7F
$GBGSV,3,3,10,29,06,039,24,35,50,066,41,1*70
$GBGSV,3,1,10,02,04,106,,05,18,128,,10,05,082,,12,33,190,48,3*78
$GBGSV,3,2,10,13,31,087,27,24,79,279,,25,21,301,,26,48,129,,3*7E
$GBGSV,3,3,10,29,06,039,,35,50,066,,3*71
$GNGLL,5025.4468111,N,01411.3830635,E,213446.00,A,A*71
$GNRMC,213447.00,A,5025.4468000,N,01411.3830058,E,0.006,,241021,,,A,V*1D
$GNVTG,,T,,M,0.006,N,0.010,K,A*3A
$GNGGA,213447.00,5025.4468000,N,01411.3830058,E,1,12,0.60,213.878,M,44.078,M,,*44
$GNGSA,A,3,24,25,29,31,32,12,02,06,,,,,1.19,0.60,1.03,1*02
$GNGSA,A,3,33,31,24,26,01,09,05,13,,,,,1.19,0.60,1.03,3*01
$GNGSA,A,3,13,12,24,26,25,35,,,,,,,1.19,0.60,1.03,4*0B
$GPGSV,3,1,11,02,40,097,41,03,01,349,21,06,26,049,27,11,,,33,1*5E
$GPGSV,3,2,11,12,67,073,46,19,00,045,24,24,27,154,47,25,74,295,41,1*61
$GPGSV,3,3,11,29,39,212,45,31,20,310,46,32,30,265,47,1*55
$GPGSV,3,1,10,02,40,097,,03,01,349,21,06,26,049,,12,67,073,44,6*6E
$GPGSV,3,2,10,19,00,045,,24,27,154,45,25,74,295,45,29,39,212,38,6*68
$GPGSV,3,3,10,31,20,310,40,32,30,265,44,6*67
$GAGSV,3,1,10,01,49,093,34,04,03,208,21,05,21,308,46,09,23,255,46,7*78
$GAGSV,3,2,10,13,13,031,24,21,03,100,,24,21,284,46,26,45,082,40,7*74
$GAGSV,3,3,10,31,71,298,40,33,35,148,41,7*7F
$GAGSV,3,1,10,01,49,093,43,04,03,208,25,05,21,308,44,09,23,255,48,2*75
$GAGSV,3,2,10,13,13,031,26,21,03,100,,24,21,284,49,26,45,082,36,2*7D
$GAGSV,3,3,10,31,71,298,47,33,35,148,42,2*7E
$GBGSV,3,1,10,02,04,106,,05,18,128,,10,05,082,20,12,33,190,41,1*71
$GBGSV,3,2,10,13,31,087,27,24,79,279,42,25,21,301,47,26,48,129,42,1*7F
$GBGSV,3,3,10,29,06,039,25,35,50,066,41,1*71
$GBGSV,3,1,10,02,04,106,,05,18,128,,10,05,082,,12,33,190,48,3*78
$GBGSV,3,2,10,13,31,087,27,24,79,279,,25,21,301,,26,48,129,,3*7E
$GBGSV,3,3,10,29,06,039,,35,50,066,,3*71
$GNGLL,5025.4468000,N,01411.3830058,E,213447.00,A,A*7C
$GNRMC,213448.00,A,5025.4467796,N,01411.3829316,E,0.010,,241021,,,A,V*13
$GNVTG,,T,,M,0.010,N,0.019,K,A*34
$GNGGA,213448.00,5025.4467796,N,01411.3829316,E,1,12,0.60,213.963,M,44.078,M,,*46
$GNGSA,A,3,24,25,29,31,32,12,02,06,,,,,1.19,0.60,1.03,1*02
$GNGSA,A,3,33,31,24,26,01,09,05,13,,,,,1.19,0.60,1.03,3*01
$GNGSA,A,3,13,12,24,26,25,35,,,,,,,1.19,0.60,1.03,4*0B
$GPGSV,3,1,11,02,40,097,41,03,01,349,21,06,26,049,27,11,,,33,1*5E
$GPGSV,3,2,11,12,67,073,46,19,00,045,24,24,27,154,47,25,74,295,41,1*61
$GPGSV,3,3,11,29,39,212,45,31,20,310,45,32,30,265,47,1*56
$GPGSV,3,1,10,02,40,097,,03,01,349,22,06,26,049,,12,67,073,44,6*6D
$GPGSV,3,2,10,19,00,045,,24,27,154,45,25,74,295,46,29,39,212,38,6*6B
$GPGSV,3,3,10,31,20,310,40,32,30,265,44,6*67
$GAGSV,3,1,10,01,49,093,34,04,03,208,20,05,21,308,46,09,23,255,46,7*79
$GAGSV,3,2,10,13,13,031,24,21,03,100,,24,21,284,46,26,45,082,39,7*7A
$GAGSV,3,3,10,31,71,298,40,33,35,148,41,7*7F
$GAGSV,3,1,10,01,49,093,43,04,03,208,24,05,21,308,44,09,23,255,48,2*74
$GAGSV,3,2,10,13,13,031,26,21,03,100,,24,21,284,49,26,45,082,36,2*7D
$GAGSV,3,3,10,31,71,298,47,33,35,148,42,2*7E
$GBGSV,3,1,10,02,04,106,,05,18,128,,10,05,082,21,12,33,190,41,1*70
$GBGSV,3,2,10,13,31,087,28,24,79,279,42,25,21,301,47,26,48,129,43,1*71
$GBGSV,3,3,10,29,06,039,25,35,50,066,41,1*71
$GBGSV,3,1,10,02,04,106,,05,18,128,,10,05,082,,12,33,190,48,3*78
$GBGSV,3,2,10,13,31,087,27,24,79,279,,25,21,301,,26,48,129,,3*7E
$GBGSV,3,3,10,29,06,039,,35,50,066,,3*71
$GNGLL,5025.4467796,N,01411.3829316,E,213448.00,A,A*75
$GNRMC,213449.00,A,5025.4467521,N,01411.3828574,E,0.003,,241021,,,A,V*1D
$GNVTG,,T,,M,0.003,N,0.005,K,A*3B
$GNGGA,213449.00,5025.4467521,N,01411.3828574,E,1,12,0.62,214.067,M,44.078,M,,*42
$GNGSA,A,3,24,25,29,31,32,12,02,,,,,,1.22,0.62,1.05,1*08
$GNGSA,A,3,33,31,24,26,01,09,05,13,,,,,1.22,0.62,1.05,3*0D
$GNGSA,A,3,13,12,24,26,25,35,,,,,,,1.22,0.62,1.05,4*07
$GPGSV,3,1,11,02,40,097,41,03,01,349,21,06,26,049,,11,,,33,1*5B
$GPGSV,3,2,11,12,67,073,46,19,00,045,26,24,27,154,47,25,74,295,41,1*63
$GPGSV,3,3,11,29,39,212,45,31,20,310,46,32,30,265,47,1*55
$GPGSV,3,1,10,02,40,097,,03,01,349,22,06,26,049,,12,67,073,43,6*6A
$GPGSV,3,2,10,19,00,045,,24,27,154,45,25,74,295,46,29,39,212,38,6*6B
$GPGSV,3,3,10,31,20,310,40,32,30,265,44,6*67
$GAGSV,3,1,10,01,49,093,34,04,03,208,21,05,21,308,46,09,23,255,46,7*78
$GAGSV,3,2,10,13,13,031,24,21,03,100,,24,21,284,46,26,45,082,40,7*74
$GAGSV,3,3,10,31,71,298,40,33,35,148,41,7*7F
$GAGSV,3,1,10,01,49,093,43,04,03,208,25,05,21,308,44,09,23,255,48,2*75
$GAGSV,3,2,10,13,13,031,26,21,03,100,,24,21,284,49,26,45,082,36,2*7D
$GAGSV,3,3,10,31,71,298,47,33,35,148,42,2*7E
$GBGSV,3,1,10,02,04,106,,05,18,128,,10,05,082,21,12,33,190,41,1*70
$GBGSV,3,2,10,13,31,087,28,24,79,279,42,25,21,301,47,26,48,129,43,1*71
$GBGSV,3,3,10,29,06,039,24,35,50,066,41,1*70
$GBGSV,3,1,10,02,04,106,,05,18,128,,10,05,082,,12,33,190,48,3*78
$GBGSV,3,2,10,13,31,087,27,24,79,279,,25,21,301,,26,48,129,,3*7E
$GBGSV,3,3,10,29,06,039,,35,50,066,,3*71
$GNGLL,5025.4467521,N,01411.3828574,E,213449.00,A,A*79
$GNRMC,213450.00,A,5025.4467242,N,01411.3827826,E,0.009,,241021,,,A,V*18
$GNVTG,,T,,M,0.009,N,0.016,K,A*33
$GNGGA,213450.00,5025.4467242,N,01411.3827826,E,1,12,0.62,214.176,M,44.078,M,,*4C
$GNGSA,A,3,24,25,29,31,32,12,02,,,,,,1.22,0.62,1.05,1*08
$GNGSA,A,3,33,31,24,26,01,09,05,13,,,,,1.22,0.62,1.05,3*0D
$GNGSA,A,3,13,12,24,26,25,35,,,,,,,1.22,0.62,1.05,4*07
$GPGSV,3,1,11,02,40,097,41,03,01,349,20,06,26,049,,11,,,34,1*5D
$GPGSV,3,2,11,12,67,073,46,19,00,045,27,24,27,154,47,25,74,295,41,1*62
$GPGSV,3,3,11,29,39,212,45,31,20,310,45,32,30,265,47,1*56
$GPGSV,3,1,10,02,40,097,,03,01,349,22,06,26,049,21,12,67,073,44,6*6E
$GPGSV,3,2,10,19,00,045,,24,27,154,45,25,74,295,46,29,39,212,38,6*6B
$GPGSV,3,3,10,31,20,310,40,32,30,265,44,6*67
$GAGSV,3,1,10,01,49,093,34,04,03,208,21,05,21,308,46,09,23,255,46,7*78
$GAGSV,3,2,10,13,13,031,24,21,03,100,,24,21,284,47,26,45,082,39,7*7B
$GAGSV,3,3,10,31,71,298,40,33,35,148,42,7*7C
$GAGSV,3,1,10,01,49,093,43,04,03,208,25,05,21,308,44,09,23,255,48,2*75
$GAGSV,3,2,10,13,13,031,26,21,03,100,,24,21,284,49,26,45,082,36,2*7D
$GAGSV,3,3,10,31,71,298,47,33,35,148,42,2*7E
$GBGSV,3,1,10,02,04,106,,05,18,128,,10,05,082,21,12,33,190,41,1*70
$GBGSV,3,2,10,13,31,087,28,24,79,279,42,25,21,301,47,26,48,129,42,1*70
$GBGSV,3,3,10,29,06,039,24,35,50,066,41,1*70
$GBGSV,3,1,10,02,04,106,,05,18,128,,10,05,082,,12,33,190,48,3*78
$GBGSV,3,2,10,13,31,087,27,24,79,279,,25,21,301,,26,48,129,,3*7E
$GBGSV,3,3,10,29,06,039,,35,50,066,,3*71
$GNGLL,5025.4467242,N,01411.3827826,E,213450.00,A,A*76
$GNRMC,213451.00,A,5025.4466935,N,01411.3827110,E,0.011,,241021,,,A,V*16
$GNVTG,,T,,M,0.011,N,0.020,K,A*3F
$GNGGA,213451.00,5025.4466935,N,01411.3827110,E,1,12,0.62,214.285,M,44.078,M,,*44
$GNGSA,A,3,24,25,29,31,32,12,02,,,,,,1.22,0.62,1.05,1*08
$GNGSA,A,3,33,31,24,26,01,09,05,13,,,,,1.22,0.62,1.05,3*0D
$GNGSA,A,3,13,12,24,26,25,35,,,,,,,1.22,0.62,1.05,4*07
$GPGSV,3,1,11,02,40,097,41,03,01,349,19,06,26,049,,11,,,34,1*57
$GPGSV,3,2,11,12,67,073,46,19,00,045,27,24,27,154,47,25,74,295,41,1*62
$GPGSV,3,3,11,29,39,212,45,31,20,310,45,32,30,265,47,1*56
$GPGSV,3,1,10,02,40,097,,03,01,349,22,06,26,049,19,12,67,073,43,6*62
$GPGSV,3,2,10,19,00,045,,24,27,154,45,25,74,295,46,29,39,212,38,6*6B
$GPGSV,3,3,10,31,20,310,40,32,30,265,44,6*67
$GAGSV,3,1,10,01,49,093,34,04,03,208,21,05,21,308,46,09,23,255,46,7*78
$GAGSV,3,2,10,13,13,031,23,21,03,100,,24,21,284,47,26,45,082,39,7*7C
$GAGSV,3,3,10,31,71,298,40,33,35,148,42,7*7C
$GAGSV,3,1,10,01,49,093,43,04,03,208,24,05,21,308,44,09,23,255,48,2*74
$GAGSV,3,2,10,13,13,031,26,21,03,100,,24,21,284,49,26,45,082,36,2*7D
$GAGSV,3,3,10,31,71,298,47,33,35,148,42,2*7E
$GBGSV,3,1,10,02,04,106,,05,18,128,,10,05,082,20,12,33,190,41,1*71
$GBGSV,3,2,10,13,31,087,27,24,79,279,42,25,21,301,47,26,48,129,42,1*7F
$GBGSV,3,3,10,29,06,039,24,35,50,066,41,1*70
$GBGSV,3,1,10,02,04,106,,05,18,128,,10,05,082,,12,33,190,48,3*78
$GBGSV,3,2,10,13,31,087,27,24,79,279,,25,21,301,,26,48,129,,3*7E
$GBGSV,3,3,10,29,06,039,,35,50,066,,3*71
$GNGLL,5025.4466935,N,01411.3827110,E,213451.00,A,A*71
$GNRMC,213452.00,A,5025.4466710,N,01411.3826554,E,0.003,,241021,,,A,V*1A
$GNVTG,,T,,M,0.003,N,0.006,K,A*38
$GNGGA,213452.00,5025.4466710,N,01411.3826554,E,1,12,0.62,214.363,M,44.078,M,,*42
$GNGSA,A,3,24,25,29,31,32,12,02,,,,,,1.22,0.62,1.05,1*08
$GNGSA,A,3,33,31,24,26,01,09,05,13,,,,,1.22,0.62,1.05,3*0D
$GNGSA,A,3,13,12,24,26,25,35,,,,,,,1.22,0.62,1.05,4*07
$GPGSV,3,1,11,02,40,097,41,03,01,349,18,06,26,049,,11,,,34,1*56
$GPGSV,3,2,11,12,67,073,46,19,00,045,27,24,27,154,47,25,74,295,41,1*62
$GPGSV,3,3,11,29,39,212,45,31,20,310,45,32,30,265,47,1*56
$GPGSV,3,1,10,02,40,097,,03,01,349,22,06,26,049,19,12,67,073,43,6*62
$GPGSV,3,2,10,19,00,045,,24,27,154,45,25,74,295,46,29,39,212,38,6*6B
$GPGSV,3,3,10,31,20,310,40,32,30,265,44,6*67
$GAGSV,3,1,10,01,49,093,34,04,03,208,21,05,21,308,46,09,23,255,46,7*78
$GAGSV,3,2,10,13,13,031,23,21,03,100,,24,21,284,47,26,45,082,39,7*7C
$GAGSV,3,3,10,31,71,298,40,33,35,148,42,7*7C
$GAGSV,3,1,10,01,49,093,43,04,03,208,24,05,21,308,44,09,23,255,48,2*74
$GAGSV,3,2,10,13,13,031,26,21,03,100,,24,21,284,49,26,45,082,36,2*7D
$GAGSV,3,3,10,31,71,298,47,33,35,148,42,2*7E
$GBGSV,3,1,10,02,04,106,,05,18,128,,10,05,082,20,12,33,190,41,1*71
$GBGSV,3,2,10,13,31,087,28,24,79,279,42,25,21,301,47,26,48,129,42,1*70
$GBGSV,3,3,10,29,06,039,23,35,50,066,41,1*77
$GBGSV,3,1,10,02,04,106,,05,18,128,,10,05,082,,12,33,190,48,3*78
$GBGSV,3,2,10,13,31,087,27,24,79,279,,25,21,301,,26,48,129,,3*7E
$GBGSV,3,3,10,29,06,039,,35,50,066,,3*71
$GNGLL,5025.4466710,N,01411.3826554,E,213452.00,A,A*7E
$GNRMC,213453.00,A,5025.4466464,N,01411.3825983,E,0.006,,241021,,,A,V*1B
$GNVTG,,T,,M,0.006,N,0.012,K,A*38
$GNGGA,213453.00,5025.4466464,N,01411.3825983,E,1,12,0.62,214.442,M,44.078,M,,*42
$GNGSA,A,3,24,25,29,31,32,12,02,06,,,,,1.22,0.62,1.05,1*0E
$GNGSA,A,3,33,31,24,26,01,09,05,13,,,,,1.22,0.62,1.05,3*0D
$GNGSA,A,3,13,12,24,26,25,35,,,,,,,1.22,0.62,1.05,4*07
$GPGSV,3,1,11,02,40,097,40,03,01,349,16,06,26,049,,11,,,34,1*59
$GPGSV,3,2,11,12,67,073,46,19,00,045,27,24,27,154,47,25,74,295,41,1*62
$GPGSV,3,3,11,29,39,212,45,31,20,310,46,32,30,265,47,1*55
$GPGSV,3,1,10,02,40,097,,03,01,349,21,06,26,049,19,12,67,073,44,6*66
$GPGSV,3,2,10,19,00,045,,24,27,154,45,25,74,295,46,29,39,212,39,6*6A
$GPGSV,3,3,10,31,20,310,40,32,30,265,44,6*67
$GAGSV,3,1,10,01,49,093,34,04,03,208,21,05,21,308,46,09,23,255,46,7*78
$GAGSV,3,2,10,13,13,031,23,21,03,100,,24,21,284,46,26,45,082,39,7*7D
$GAGSV,3,3,10,31,71,298,40,33,35,148,42,7*7C
$GAGSV,3,1,10,01,49,093,43,04,03,208,23,05,21,308,44,09,23,255,48,2*73
$GAGSV,3,2,10,13,13,031,26,21,03,100,,24,21,284,49,26,45,082,36,2*7D
$GAGSV,3,3,10,31,71,298,48,33,35,148,42,2*71
$GBGSV,3,1,10,02,04,106,,05,18,128,,10,05,082,20,12,33,190,41,1*71
$GBGSV,3,2,10,13,31,087,28,24,79,279,42,25,21,301,48,26,48,129,42,1*7F
$GBGSV,3,3,10,29,06,039,24,35,50,066,41,1*70
$GBGSV,3,1,10,02,04,106,,05,18,128,,10,05,082,,12,33,190,48,3*78
$GBGSV,3,2,10,13,31,087,27,24,79,279,,25,21,301,,26,48,129,,3*7E
$GBGSV,3,3,10,29,06,039,,35,50,066,,3*71
$GNGLL,5025.4466464,N,01411.3825983,E,213453.00,A,A*7A
$GNRMC,213454.00,A,5025.4466249,N,01411.3825535,E,0.014,,241021,,,A,V*17
$GNVTG,,T,,M,0.014,N,0.026,K,A*3C
$GNGGA,213454.00,5025.4466249,N,01411.3825535,E,1,12,0.62,214.509,M,44.078,M,,*43
$GNGSA,A,3,24,25,29,31,32,12,02,06,,,,,1.22,0.62,1.05,1*0E
$GNGSA,A,3,33,31,24,26,01,09,05,13,,,,,1.22,0.62,1.05,3*0D
$GNGSA,A,3,13,12,24,26,25,35,,,,,,,1.22,0.62,1.05,4*07
$GPGSV,3,1,11,02,40,097,40,03,01,349,16,06,26,049,,11,,,34,1*59
$GPGSV,3,2,11,12,67,073,46,19,00,045,27,24,27,154,47,25,74,295,41,1*62
$GPGSV,3,3,11,29,39,212,45,31,20,310,46,32,30,265,47,1*55
$GPGSV,3,1,10,02,40,097,,03,01,349,22,06,26,049,19,12,67,073,44,6*65
$GPGSV,3,2,10,19,00,045,,24,27,154,45,25,74,295,46,29,39,212,39,6*6A
$GPGSV,3,3,10,31,20,310,40,32,30,265,44,6*67
$GAGSV,3,1,10,01,49,093,34,04,03,208,22,05,21,308,46,09,23,255,46,7*7B
$GAGSV,3,2,10,13,13,031,23,21,03,100,,24,21,284,46,26,45,082,39,7*7D
$GAGSV,3,3,10,31,71,298,39,33,35,148,42,7*72
$GAGSV,3,1,10,01,49,093,43,04,03,208,23,05,21,308,44,09,23,255,48,2*73
$GAGSV,3,2,10,13,13,031,26,21,03,100,,24,21,284,49,26,45,082,36,2*7D
$GAGSV,3,3,10,31,71,298,48,33,35,148,42,2*71
$GBGSV,3,1,10,02,04,106,,05,18,128,,10,05,082,20,12,33,190,41,1*71
$GBGSV,3,2,10,13,31,087,27,24,79,279,42,25,21,301,48,26,48,129,42,1*70
$GBGSV,3,3,10,29,06,039,24,35,50,066,41,1*70
$GBGSV,3,1,10,02,04,106,,05,18,128,,10,05,082,,12,33,190,48,3*78
$GBGSV,3,2,10,13,31,087,27,24,79,279,,25,21,301,,26,48,129,,3*7E
$GBGSV,3,3,10,29,06,039,,35,50,066,,3*71
$GNGLL,5025.4466249,N,01411.3825535,E,213454.00,A,A*75
$GNRMC,213455.00,A,5025.4466106,N,01411.3825167,E,0.014,,241021,,,A,V*1D
$GNVTG,,T,,M,0.014,N,0.026,K,A*3C
$GNGGA,213455.00,5025.4466106,N,01411.3825167,E,1,12,0.62,214.564,M,44.078,M,,*42
$GNGSA,A,3,24,25,29,31,32,12,02,06,,,,,1.22,0.62,1.05,1*0E
$GNGSA,A,3,33,31,24,26,01,09,05,13,,,,,1.22,0.62,1.05,3*0D
$GNGSA,A,3,13,12,24,26,25,35,,,,,,,1.22,0.62,1.05,4*07
$GPGSV,3,1,11,02,40,097,40,03,01,349,15,06,26,049,,11,,,34,1*5A
$GPGSV,3,2,11,12,67,073,46,19,00,045,27,24,27,154,47,25,74,295,42,1*61
$GPGSV,3,3,11,29,39,212,45,31,20,310,46,32,30,265,47,1*55
$GPGSV,3,1,10,02,40,097,,03,01,349,22,06,26,049,19,12,67,073,44,6*65
$GPGSV,3,2,10,19,00,045,,24,27,154,45,25,74,295,46,29,39,212,39,6*6A
$GPGSV,3,3,10,31,20,310,40,32,30,265,44,6*67
$GAGSV,3,1,10,01,49,093,33,04,03,208,22,05,21,308,46,09,23,255,46,7*7C
$GAGSV,3,2,10,13,13,031,24,21,03,100,,24,21,284,46,26,45,082,39,7*7A
$GAGSV,3,3,10,31,71,298,40,33,35,148,42,7*7C
$GAGSV,3,1,10,01,49,093,43,04,03,208,23,05,21,308,44,09,23,255,48,2*73
$GAGSV,3,2,10,13,13,031,25,21,03,100,,24,21,284,49,26,45,082,36,2*7E
$GAGSV,3,3,10,31,71,298,48,33,35,148,42,2*71
$GBGSV,3,1,10,02,04,106,,05,18,128,,10,05,082,19,12,33,190,41,1*7B
$GBGSV,3,2,10,13,31,087,27,24,79,279,42,25,21,301,48,26,48,129,42,1*70
$GBGSV,3,3,10,29,06,039,24,35,50,066,41,1*70
$GBGSV,3,1,10,02,04,106,,05,18,128,,10,05,082,,12,33,190,48,3*78
$GBGSV,3,2,10,13,31,087,27,24,79,279,,25,21,301,,26,48,129,,3*7E
$GBGSV,3,3,10,29,06,039,,35,50,066,,3*71
$GNGLL,5025.4466106,N,01411.3825167,E,213455.00,A,A*7F
$GNRMC,213456.00,A,5025.4465979,N,01411.3824878,E,0.023,,241021,,,A,V*1F
$GNVTG,,T,,M,0.023,N,0.043,K,A*3B
$GNGGA,213456.00,5025.4465979,N,01411.3824878,E,1,12,0.62,214.595,M,44.078,M,,*4A
$GNGSA,A,3,24,25,29,31,32,12,02,06,,,,,1.22,0.62,1.05,1*0E
$GNGSA,A,3,33,31,24,26,01,09,05,13,,,,,1.22,0.62,1.05,3*0D
$GNGSA,A,3,13,12,24,26,25,35,,,,,,,1.22,0.62,1.05,4*07
$GPGSV,3,1,11,02,40,097,40,03,01,349,16,06,26,049,,11,,,34,1*59
$GPGSV,3,2,11,12,67,073,46,19,00,045,27,24,27,154,47,25,74,295,42,1*61
$GPGSV,3,3,11,29,39,212,45,31,20,310,45,32,30,265,47,1*56
$GPGSV,3,1,10,02,40,097,,03,01,349,22,06,26,049,19,12,67,073,44,6*65
$GPGSV,3,2,10,19,00,045,,24,27,154,45,25,74,295,46,29,39,212,39,6*6A
$GPGSV,3,3,10,31,20,310,40,32,30,265,44,6*67
$GAGSV,3,1,10,01,49,093,33,04,03,208,22,05,21,308,46,09,23,255,46,7*7C
$GAGSV,3,2,10,13,13,031,24,21,03,100,,24,21,284,46,26,45,082,39,7*7A
$GAGSV,3,3,10,31,71,298,40,33,35,148,43,7*7D
$GAGSV,3,1,10,01,49,093,43,04,03,208,22,05,21,308,44,09,23,255,48,2*72
$GAGSV,3,2,10,13,13,031,25,21,03,100,,24,21,284,49,26,45,082,36,2*7E
$GAGSV,3,3,10,31,71,298,47,33,35,148,42,2*7E
$GBGSV,3,1,10,02,04,106,,05,18,128,,10,05,082,19,12,33,190,41,1*7B
$GBGSV,3,2,10,13,31,087,27,24,79,279,42,25,21,301,48,26,48,129,42,1*70
$GBGSV,3,3,10,29,06,039,24,35,50,066,41,1*70
$GBGSV,3,1,10,02,04,106,,05,18,128,,10,05,082,,12,33,190,48,3*78
$GBGSV,3,2,10,13,31,087,27,24,79,279,,25,21,301,,26,48,129,,3*7E
$GBGSV,3,3,10,29,06,039,,35,50,066,,3*71
$GNGLL,5025.4465979,N,01411.3824878,E,213456.00,A,A*79
$GNRMC,213457.00,A,5025.4465873,N,01411.3824747,E,0.013,,241021,,,A,V*15
$GNVTG,,T,,M,0.013,N,0.024,K,A*39
$GNGGA,213457.00,5025.4465873,N,01411.3824747,E,1,12,0.62,214.600,M,44.078,M,,*4C
$GNGSA,A,3,24,25,29,31,32,12,02,06,,,,,1.22,0.62,1.05,1*0E
$GNGSA,A,3,33,31,24,26,01,09,05,13,,,,,1.22,0.62,1.05,3*0D
$GNGSA,A,3,13,12,24,26,25,35,,,,,,,1.22,0.62,1.05,4*07
$GPGSV,3,1,11,02,40,097,39,03,01,349,18,06,26,049,,11,,,33,1*5E
$GPGSV,3,2,11,12,67,073,46,19,00,045,28,24,27,154,47,25,74,295,42,1*6E
$GPGSV,3,3,11,29,39,212,45,31,20,310,45,32,30,265,47,1*56
$GPGSV,3,1,10,02,40,097,,03,01,349,23,06,26,049,18,12,67,073,44,6*65
$GPGSV,3,2,10,19,00,045,,24,27,154,45,25,74,295,46,29,39,212,39,6*6A
$GPGSV,3,3,10,31,20,310,40,32,30,265,44,6*67
$GAGSV,3,1,10,01,49,093,33,04,03,208,22,05,21,308,46,09,23,255,46,7*7C
$GAGSV,3,2,10,13,13,031,24,21,03,100,,24,21,284,46,26,45,082,39,7*7A
$GAGSV,3,3,10,31,71,298,40,33,35,148,43,7*7D
$GAGSV,3,1,10,01,49,093,43,04,03,208,21,05,21,308,44,09,23,255,48,2*71
$GAGSV,3,2,10,13,13,031,24,21,03,100,,24,21,284,49,26,45,082,36,2*7F
$GAGSV,3,3,10,31,71,298,48,33,35,148,42,2*71
$GBGSV,3,1,10,02,04,106,,05,18,128,,10,05,082,19,12,33,190,41,1*7B
$GBGSV,3,2,10,13,31,087,27,24,79,279,42,25,21,301,48,26,48,129,42,1*70
$GBGSV,3,3,10,29,06,039,24,35,50,066,41,1*70
$GBGSV,3,1,10,02,04,106,,05,18,128,,10,05,082,,12,33,190,48,3*78
$GBGSV,3,2,10,13,31,087,27,24,79,279,,25,21,301,,26,48,129,,3*7E
$GBGSV,3,3,10,29,06,039,,35,50,066,,3*71
$GNGLL,5025.4465873,N,01411.3824747,E,213457.00,A,A*70
$GNRMC,213458.00,A,5025.4465775,N,01411.3824646,E,0.003,,241021,,,A,V*12
$GNVTG,,T,,M,0.003,N,0.005,K,A*3B
$GNGGA,213458.00,5025.4465775,N,01411.3824646,E,1,12,0.62,214.591,M,44.078,M,,*41
$GNGSA,A,3,24,25,29,31,32,12,02,06,,,,,1.22,0.62,1.05,1*0E
$GNGSA,A,3,33,31,24,26,01,09,05,13,,,,,1.22,0.62,1.05,3*0D
$GNGSA,A,3,13,12,24,26,25,35,,,,,,,1.22,0.62,1.05,4*07
$GPGSV,3,1,11,02,40,097,39,03,01,349,20,06,26,049,,11,,,32,1*54
$GPGSV,3,2,11,12,67,073,46,19,00,045,28,24,27,154,47,25,74,295,42,1*6E
$GPGSV,3,3,11,29,39,212,45,31,20,310,46,32,30,265,47,1*55
$GPGSV,3,1,10,02,40,097,,03,01,349,23,06,26,049,17,12,67,073,43,6*6D
$GPGSV,3,2,10,19,00,045,,24,27,154,45,25,74,295,46,29,39,212,39,6*6A
$GPGSV,3,3,10,31,20,310,40,32,30,265,44,6*67
$GAGSV,3,1,10,01,49,093,33,04,03,208,22,05,21,308,46,09,23,255,46,7*7C
$GAGSV,3,2,10,13,13,031,24,21,03,100,,24,21,284,46,26,45,082,39,7*7A
$GAGSV,3,3,10,31,71,298,40,33,35,148,43,7*7D
$GAGSV,3,1,10,01,49,093,43,04,03,208,21,05,21,308,44,09,23,255,48,2*71
$GAGSV,3,2,10,13,13,031,24,21,03,100,,24,21,284,49,26,45,082,36,2*7F
$GAGSV,3,3,10,31,71,298,47,33,35,148,43,2*7F
$GBGSV,3,1,10,02,04,106,,05,18,128,,10,05,082,19,12,33,190,41,1*7B
$GBGSV,3,2,10,13,31,087,27,24,79,279,42,25,21,301,48,26,48,129,42,1*70
$GBGSV,3,3,10,29,06,039,25,35,50,066,41,1*71
$GBGSV,3,1,10,02,04,106,,05,18,128,,10,05,082,,12,33,190,48,3*78
$GBGSV,3,2,10,13,31,087,27,24,79,279,,25,21,301,,26,48,129,,3*7E
$GBGSV,3,3,10,29,06,039,,35,50,066,,3*71
$GNGLL,5025.4465775,N,01411.3824646,E,213458.00,A,A*76
$GNRMC,213459.00,A,5025.4465672,N,01411.3824507,E,0.005,,241021,,,A,V*15
$GNVTG,,T,,M,0.005,N,0.010,K,A*39
$GNGGA,213459.00,5025.4465672,N,01411.3824507,E,1,12,0.62,214.584,M,44.078,M,,*44
$GNGSA,A,3,24,25,29,31,32,12,02,06,,,,,1.22,0.62,1.05,1*0E
$GNGSA,A,3,33,31,24,26,01,09,05,13,,,,,1.22,0.62,1.05,3*0D
$GNGSA,A,3,13,12,24,26,25,35,,,,,,,1.22,0.62,1.05,4*07
$GPGSV,3,1,11,02,40,097,39,03,01,349,20,06,26,049,,11,,,31,1*57
$GPGSV,3,2,11,12,67,073,46,19,00,045,28,24,27,154,47,25,74,295,41,1*6D
$GPGSV,3,3,11,29,39,212,45,31,20,310,46,32,30,265,47,1*55
$GPGSV,3,1,10,02,40,097,,03,01,349,23,06,26,049,18,12,67,073,44,6*65
$GPGSV,3,2,10,19,00,045,,24,27,154,45,25,74,295,46,29,39,212,39,6*6A
$GPGSV,3,3,10,31,20,310,40,32,30,265,44,6*67
$GAGSV,3,1,10,01,49,093,33,04,03,208,22,05,21,308,46,09,23,255,46,7*7C
$GAGSV,3,2,10,13,13,031,24,21,03,100,,24,21,284,46,26,45,082,39,7*7A
$GAGSV,3,3,10,31,71,298,40,33,35,148,43,7*7D
$GAGSV,3,1,10,01,49,093,43,04,03,208,21,05,21,308,44,09,23,255,48,2*71
$GAGSV,3,2,10,13,13,031,24,21,03,100,,24,21,284,49,26,45,082,36,2*7F
$GAGSV,3,3,10,31,71,298,47,33,35,148,42,2*7E
$GBGSV,3,1,10,02,04,106,,05,18,128,,10,05,082,18,12,33,190,41,1*7A
$GBGSV,3,2,10,13,31,087,27,24,79,279,42,25,21,301,48,26,48,129,42,1*70
$GBGSV,3,3,10,29,06,039,25,35,50,066,41,1*71
$GBGSV,3,1,10,02,04,106,,05,18,128,,10,05,082,,12,33,190,48,3*78
$GBGSV,3,2,10,13,31,087,28,24,79,279,,25,21,301,,26,48,129,,3*71
$GBGSV,3,3,10,29,06,039,,35,50,066,,3*71
$GNGLL,5025.4465672,N,01411.3824507,E,213459.00,A,A*77
$GNRMC,213500.00,A,5025.4465588,N,01411.3824493,E,0.008,,241021,,,A,V*1F
$GNVTG,,T,,M,0.008,N,0.014,K,A*30
$GNGGA,213500.00,5025.4465588,N,01411.3824493,E,1,12,0.62,214.567,M,44.078,M,,*4E
$GNGSA,A,3,24,25,29,31,32,12,02,06,,,,,1.22,0.62,1.05,1*0E
$GNGSA,A,3,33,31,24,26,01,09,05,13,,,,,1.22,0.62,1.05,3*0D
$GNGSA,A,3,13,12,24,26,25,35,,,,,,,1.22,0.62,1.05,4*07
$GPGSV,3,1,11,02,40,097,38,03,01,349,21,06,26,049,,11,,,30,1*56
$GPGSV,3,2,11,12,67,073,46,19,00,045,27,24,27,154,47,25,74,295,41,1*62
$GPGSV,3,3,11,29,40,212,45,31,20,310,46,32,30,265,47,1*5B
$GPGSV,3,1,10,02,40,097,,03,01,349,25,06,26,049,19,12,67,073,43,6*65
$GPGSV,3,2,10,19,00,045,,24,27,154,45,25,74,295,46,29,40,212,39,6*64
$GPGSV,3,3,10,31,20,310,40,32,30,265,43,6*60
$GAGSV,3,1,10,01,49,093,32,04,03,208,22,05,21,308,46,09,23,255,46,7*7D
$GAGSV,3,2,10,13,13,031,24,21,03,100,,24,21,284,46,26,45,082,39,7*7A
$GAGSV,3,3,10,31,71,298,40,33,35,148,43,7*7D
$GAGSV,3,1,10,01,49,093,43,04,03,208,21,05,21,308,44,09,23,255,48,2*71
$GAGSV,3,2,10,13,13,031,24,21,03,100,,24,21,284,49,26,45,082,36,2*7F
$GAGSV,3,3,10,31,71,298,48,33,35,148,42,2*71
$GBGSV,3,1,10,02,04,106,,05,18,128,,10,05,082,19,12,33,190,41,1*7B
$GBGSV,3,2,10,13,31,087,27,24,79,279,42,25,21,301,48,26,48,129,42,1*70
$GBGSV,3,3,10,29,06,039,25,35,50,066,41,1*71
$GBGSV,3,1,10,02,04,106,,05,18,128,,10,05,082,,12,33,190,48,3*78
$GBGSV,3,2,10,13,31,087,27,24,79,279,,25,21,301,,26,48,129,,3*7E
$GBGSV,3,3,10,29,06,039,,35,50,066,,3*71
$GNGLL,5025.4465588,N,01411.3824493,E,213500.00,A,A*70
$GNRMC,213501.00,A,5025.4465509,N,01411.3824525,E,0.003,,241021,,,A,V*10
$GNVTG,,T,,M,0.003,N,0.006,K,A*38
$GNGGA,213501.00,5025.4465509,N,01411.3824525,E,1,12,0.62,214.536,M,44.078,M,,*4E
$GNGSA,A,3,24,25,29,31,32,12,02,06,,,,,1.22,0.62,1.05,1*0E
$GNGSA,A,3,33,31,24,26,01,09,05,13,,,,,1.22,0.62,1.05,3*0D
$GNGSA,A,3,13,12,24,26,25,35,,,,,,,1.22,0.62,1.05,4*07
$GPGSV,3,1,11,02,40,097,38,03,01,349,21,06,26,049,,11,,,29,1*5E
$GPGSV,3,2,11,12,67,073,46,19,00,045,27,24,27,154,47,25,74,295,42,1*61
$GPGSV,3,3,11,29,40,212,45,31,20,310,46,32,30,265,47,1*5B
$GPGSV,3,1,10,02,40,097,,03,01,349,26,06,26,049,19,12,67,073,43,6*66
$GPGSV,3,2,10,19,00,045,,24,27,154,45,25,74,295,46,29,40,212,39,6*64
$GPGSV,3,3,10,31,20,310,40,32,30,265,43,6*60
$GAGSV,3,1,10,01,49,093,32,04,03,208,22,05,21,308,46,09,23,255,46,7*7D
$GAGSV,3,2,10,13,13,031,24,21,03,100,,24,21,284,46,26,45,082,39,7*7A
$GAGSV,3,3,10,31,71,298,40,33,35,148,44,7*7A
$GAGSV,3,1,10,01,49,093,43,04,03,208,21,05,21,308,44,09,23,255,48,2*71
$GAGSV,3,2,10,13,13,031,24,21,03,100,,24,21,284,49,26,45,082,36,2*7F
$GAGSV,3,3,10,31,71,298,48,33,35,148,42,2*71
$GBGSV,3,1,10,02,04,106,,05,18,128,,10,05,082,18,12,33,190,41,1*7A
$GBGSV,3,2,10,13,31,087,27,24,79,279,42,25,21,301,48,26,48,129,42,1*70
$GBGSV,3,3,10,29,06,039,25,35,50,066,41,1*71
$GBGSV,3,1,10,02,04,106,,05,18,128,,10,05,082,,12,33,190,48,3*78
$GBGSV,3,2,10,13,31,087,27,24,79,279,,25,21,301,,26,48,129,,3*7E
$GBGSV,3,3,10,29,06,039,,35,50,066,,3*71
$GNGLL,5025.4465509,N,01411.3824525,E,213501.00,A,A*74
$GNRMC,213502.00,A,5025.4465410,N,01411.3824504,E,0.006,,241021,,,A,V*1C
$GNVTG,,T,,M,0.006,N,0.011,K,A*3B
$GNGGA,213502.00,5025.4465410,N,01411.3824504,E,1,12,0.62,214.524,M,44.078,M,,*44
$GNGSA,A,3,24,25,29,31,32,12,02,06,,,,,1.22,0.62,1.05,1*0E
$GNGSA,A,3,33,31,24,26,01,09,05,13,,,,,1.22,0.62,1.05,3*0D
$GNGSA,A,3,13,12,24,26,25,35,,,,,,,1.22,0.62,1.05,4*07
$GPGSV,3,1,11,02,40,097,38,03,01,349,21,06,26,049,,11,,,30,1*56
$GPGSV,3,2,11,12,67,073,46,19,00,045,26,24,27,154,47,25,74,295,42,1*60
$GPGSV,3,3,11,29,40,212,45,31,20,310,46,32,30,265,47,1*5B
$GPGSV,3,1,10,02,40,097,,03,01,349,26,06,26,049,20,12,67,073,43,6*6C
$GPGSV,3,2,10,19,00,045,,24,27,154,45,25,74,295,46,29,40,212,39,6*64
$GPGSV,3,3,10,31,20,310,40,32,30,265,43,6*60
$GAGSV,3,1,10,01,49,093,32,04,03,208,22,05,21,308,46,09,23,255,46,7*7D
$GAGSV,3,2,10,13,13,031,24,21,03,100,,24,21,284,46,26,45,082,39,7*7A
$GAGSV,3,3,10,31,71,298,40,33,35,148,44,7*7A
$GAGSV,3,1,10,01,49,093,43,04,03,208,20,05,21,308,44,09,23,255,48,2*70
$GAGSV,3,2,10,13,13,031,24,21,03,100,,24,21,284,49,26,45,082,36,2*7F
$GAGSV,3,3,10,31,71,298,47,33,35,148,42,2*7E
$GBGSV,3,1,10,02,04,106,,05,18,128,,10,05,082,16,12,33,190,41,1*74
$GBGSV,3,2,10,13,31,087,27,24,79,279,42,25,21,301,48,26,48,129,42,1*70
$GBGSV,3,3,10,29,06,039,25,35,50,066,41,1*71
$GBGSV,3,1,10,02,04,106,,05,18,128,,10,05,082,,12,33,190,48,3*78
$GBGSV,3,2,10,13,31,087,27,24,79,279,,25,21,301,,26,48,129,,3*7E
$GBGSV,3,3,10,29,06,039,,35,50,066,,3*71
$GNGLL,5025.4465410,N,01411.3824504,E,213502.00,A,A*7D
$GNRMC,213503.00,A,5025.4465317,N,01411.3824508,E,0.001,,241021,,,A,V*16
$GNVTG,,T,,M,0.001,N,0.002,K,A*3E
$GNGGA,213503.00,5025.4465317,N,01411.3824508,E,1,12,0.62,214.512,M,44.078,M,,*4C
$GNGSA,A,3,24,25,29,31,32,12,02,06,,,,,1.22,0.62,1.05,1*0E
$GNGSA,A,3,33,31,24,26,01,09,05,13,,,,,1.22,0.62,1.05,3*0D
$GNGSA,A,3,13,12,24,26,25,35,,,,,,,1.22,0.62,1.05,4*07
$GPGSV,3,1,11,02,40,097,38,03,01,349,22,06,26,049,27,11,,,30,1*50
$GPGSV,3,2,11,12,67,073,46,19,00,045,26,24,27,154,47,25,74,295,41,1*63
$GPGSV,3,3,11,29,40,212,45,31,20,310,46,32,30,265,47,1*5B
$GPGSV,3,1,10,02,40,097,,03,01,349,26,06,26,049,20,12,67,073,43,6*6C
$GPGSV,3,2,10,19,00,045,,24,27,154,45,25,74,295,46,29,40,212,39,6*64
$GPGSV,3,3,10,31,20,310,40,32,30,265,44,6*67
$GAGSV,3,1,10,01,49,093,32,04,03,208,22,05,21,308,46,09,23,255,46,7*7D
$GAGSV,3,2,10,13,13,031,25,21,03,100,,24,21,284,46,26,45,082,40,7*75
$GAGSV,3,3,10,31,71,298,40,33,35,148,44,7*7A
$GAGSV,3,1,10,01,49,093,43,04,03,208,19,05,21,308,44,09,23,255,48,2*7A
$GAGSV,3,2,10,13,13,031,24,21,03,100,,24,21,284,49,26,45,082,36,2*7F
$GAGSV,3,3,10,31,71,298,47,33,35,148,42,2*7E
$GBGSV,3,1,10,02,04,106,,05,18,128,,10,05,082,17,12,33,190,41,1*75
$GBGSV,3,2,10,13,31,087,27,24,79,279,42,25,21,301,48,26,48,129,41,1*73
$GBGSV,3,3,10,29,06,039,25,35,50,066,41,1*71
$GBGSV,3,1,10,02,04,106,,05,18,128,,10,05,082,,12,33,190,48,3*78
$GBGSV,3,2,10,13,31,087,27,24,79,279,,25,21,301,,26,48,129,,3*7E
$GBGSV,3,3,10,29,06,039,,35,50,066,,3*71
$GNGLL,5025.4465317,N,01411.3824508,E,213503.00,A,A*70
$GNRMC,213504.00,A,5025.4465215,N,01411.3824502,E,0.009,,241021,,,A,V*10
$GNVTG,,T,,M,0.009,N,0.016,K,A*33
$GNGGA,213504.00,5025.4465215,N,01411.3824502,E,1,12,0.60,214.495,M,44.078,M,,*4E
$GNGSA,A,3,24,25,29,31,32,12,02,06,,,,,1.19,0.60,1.03,1*02
$GNGSA,A,3,33,31,24,26,01,09,05,13,,,,,1.19,0.60,1.03,3*01
$GNGSA,A,3,13,12,24,26,25,35,,,,,,,1.19,0.60,1.03,4*0B
$GPGSV,3,1,11,02,40,097,38,03,01,349,22,06,26,049,27,11,,,30,1*50
$GPGSV,3,2,11,12,67,073,47,19,00,045,26,24,27,154,47,25,74,295,41,1*62
$GPGSV,3,3,11,29,40,212,45,31,20,310,46,32,30,265,47,1*5B
$GPGSV,3,1,10,02,40,097,,03,01,349,26,06,26,049,20,12,67,073,43,6*6C
$GPGSV,3,2,10,19,00,045,,24,27,154,46,25,74,295,46,29,40,212,39,6*67
$GPGSV,3,3,10,31,20,310,40,32,30,265,44,6*67
$GAGSV,3,1,10,01,49,093,31,04,03,208,22,05,21,308,46,09,23,255,46,7*7E
$GAGSV,3,2,10,13,13,031,24,21,03,100,,24,21,284,46,26,45,082,40,7*74
$GAGSV,3,3,10,31,71,298,40,33,35,148,44,7*7A
$GAGSV,3,1,10,01,49,093,43,04,03,208,19,05,21,308,44,09,23,255,48,2*7A
$GAGSV,3,2,10,13,13,031,24,21,03,100,,24,21,284,49,26,45,082,36,2*7F
$GAGSV,3,3,10,31,71,298,47,33,35,148,42,2*7E
$GBGSV,3,1,10,02,04,106,,05,18,128,,10,05,082,18,12,33,190,41,1*7A
$GBGSV,3,2,10,13,31,087,27,24,79,279,42,25,21,301,48,26,48,129,41,1*73
$GBGSV,3,3,10,29,06,039,25,35,50,066,41,1*71
$GBGSV,3,1,10,02,04,106,,05,18,128,,10,05,082,,12,33,190,48,3*78
$GBGSV,3,2,10,13,31,087,27,24,79,279,,25,21,301,,26,48,129,,3*7E
$GBGSV,3,3,10,29,06,039,,35,50,066,,3*71
$GNGLL,5025.4465215,N,01411.3824502,E,213504.00,A,A*7E
$GNRMC,213505.00,A,5025.4464066,N,01411.3824836,E,0.050,,241021,,,D,V*15
$GNVTG,,T,,M,0.050,N,0.092,K,D*36
$GNGGA,213505.00,5025.4464066,N,01411.3824836,E,2,12,0.70,214.587,M,44.078,M,1.0,0084*61
$GNGSA,A,3,24,25,29,31,32,12,02,06,,,,,1.37,0.70,1.18,1*05
$GNGSA,A,3,33,31,24,26,01,09,05,13,,,,,1.37,0.70,1.18,3*06
$GNGSA,A,3,13,12,24,26,25,35,,,,,,,1.37,0.70,1.18,4*0C
$GPGSV,3,1,11,02,40,097,38,03,01,349,21,06,26,049,27,11,,,29,1*5B
$GPGSV,3,2,11,12,67,073,47,19,00,045,25,24,27,154,47,25,74,295,41,1*61
$GPGSV,3,3,11,29,40,212,45,31,20,310,46,32,30,265,47,1*5B
$GPGSV,3,1,10,02,40,097,,03,01,349,26,06,26,049,20,12,67,073,43,6*6C
$GPGSV,3,2,10,19,00,045,,24,27,154,45,25,74,295,45,29,40,212,39,6*67
$GPGSV,3,3,10,31,20,310,40,32,30,265,43,6*60
$GAGSV,3,1,10,01,49,093,31,04,03,208,22,05,21,308,46,09,23,255,46,7*7E
$GAGSV,3,2,10,13,13,031,24,21,03,100,,24,21,284,46,26,45,082,40,7*74
$GAGSV,3,3,10,31,71,298,40,33,35,148,44,7*7A
$GAGSV,3,1,10,01,49,093,43,04,03,208,18,05,21,308,44,09,23,255,48,2*7B
$GAGSV,3,2,10,13,13,031,24,21,03,100,,24,21,284,49,26,45,082,36,2*7F
$GAGSV,3,3,10,31,71,298,47,33,35,148,42,2*7E
$GBGSV,3,1,10,02,04,106,,05,18,128,,10,05,082,18,12,33,190,41,1*7A
$GBGSV,3,2,10,13,31,087,27,24,79,279,42,25,21,301,48,26,48,129,41,1*73
$GBGSV,3,3,10,29,06,039,25,35,50,066,41,1*71
$GBGSV,3,1,10,02,04,106,,05,18,128,,10,05,082,,12,33,190,48,3*78
$GBGSV,3,2,10,13,31,087,27,24,79,279,,25,21,301,,26,48,129,,3*7E
$GBGSV,3,3,10,29,06,039,,35,50,066,,3*71
$GNGLL,5025.4464066,N,01411.3824836,E,213505.00,A,D*77
$GNRMC,213506.00,A,5025.4447596,N,01411.3818104,E,0.007,,241021,,,R,V*0E
$GNVTG,,T,,M,0.007,N,0.012,K,D*3C
$GNGGA,213506.00,5025.4447596,N,01411.3818104,E,4,12,0.70,217.752,M,44.078,M,1.0,0084*61
$GNGSA,A,3,24,25,29,31,32,12,02,06,,,,,1.37,0.70,1.18,1*05
$GNGSA,A,3,33,31,24,26,01,09,05,13,,,,,1.37,0.70,1.18,3*06
$GNGSA,A,3,13,12,24,26,25,35,,,,,,,1.37,0.70,1.18,4*0C
$GPGSV,3,1,11,02,40,097,38,03,01,349,19,06,26,049,27,11,,,29,1*50
$GPGSV,3,2,11,12,67,073,47,19,00,045,25,24,27,154,47,25,74,295,40,1*60
$GPGSV,3,3,11,29,40,212,45,31,20,310,46,32,30,265,47,1*5B
$GPGSV,3,1,10,02,40,097,,03,01,349,27,06,26,049,21,12,67,073,43,6*6C
$GPGSV,3,2,10,19,00,045,,24,27,154,46,25,74,295,45,29,40,212,39,6*64
$GPGSV,3,3,10,31,20,310,40,32,30,265,43,6*60
$GAGSV,3,1,10,01,49,093,31,04,03,208,22,05,21,308,45,09,23,255,46,7*7D
$GAGSV,3,2,10,13,13,031,24,21,03,100,,24,21,284,46,26,45,082,40,7*74
$GAGSV,3,3,10,31,71,298,40,33,35,148,44,7*7A
$GAGSV,3,1,10,01,49,093,43,04,03,208,18,05,21,308,44,09,23,255,48,2*7B
$GAGSV,3,2,10,13,13,031,23,21,03,100,,24,21,284,49,26,45,082,36,2*78
$GAGSV,3,3,10,31,71,298,47,33,35,148,42,2*7E
$GBGSV,3,1,10,02,04,106,,05,18,128,,10,05,082,17,12,33,190,41,1*75
$GBGSV,3,2,10,13,31,087,28,24,79,279,42,25,21,301,48,26,48,129,41,1*7C
$GBGSV,3,3,10,29,06,039,25,35,50,066,41,1*71
$GBGSV,3,1,10,02,04,106,,05,18,128,,10,05,082,,12,33,190,48,3*78
$GBGSV,3,2,10,13,31,087,27,24,79,279,,25,21,301,,26,48,129,,3*7E
$GBGSV,3,3,10,29,06,039,,35,50,066,,3*71
$GNGLL,5025.4447596,N,01411.3818104,E,213506.00,A,D*78
$GNRMC,213507.00,A,5025.4447593,N,01411.3818096,E,0.004,,241021,,,R,V*03
$GNVTG,,T,,M,0.004,N,0.008,K,D*34
$GNGGA,213507.00,5025.4447593,N,01411.3818096,E,4,12,0.70,217.758,M,44.078,M,1.0,0084*65
$GNGSA,A,3,24,25,29,31,32,12,02,06,,,,,1.37,0.70,1.18,1*05
$GNGSA,A,3,33,31,24,26,01,09,05,13,,,,,1.37,0.70,1.18,3*06
$GNGSA,A,3,13,12,24,26,25,35,,,,,,,1.37,0.70,1.18,4*0C
$GPGSV,3,1,11,02,40,097,38,03,01,349,18,06,26,049,28,11,,,28,1*5F
$GPGSV,3,2,11,12,67,073,47,19,00,045,25,24,27,154,47,25,74,295,40,1*60
$GPGSV,3,3,11,29,40,212,45,31,20,310,46,32,30,265,47,1*5B
$GPGSV,3,1,10,02,40,097,,03,01,349,27,06,26,049,21,12,67,073,43,6*6C
$GPGSV,3,2,10,19,00,045,,24,27,154,46,25,74,295,45,29,40,212,39,6*64
$GPGSV,3,3,10,31,20,310,40,32,30,265,43,6*60
$GAGSV,3,1,10,01,49,093,31,04,03,208,22,05,21,308,45,09,23,255,46,7*7D
$GAGSV,3,2,10,13,13,031,25,21,03,100,,24,21,284,46,26,45,082,40,7*75
$GAGSV,3,3,10,31,71,298,40,33,35,148,44,7*7A
$GAGSV,3,1,10,01,49,093,43,04,03,208,17,05,21,308,44,09,23,255,48,2*74
$GAGSV,3,2,10,13,13,031,23,21,03,100,,24,21,284,49,26,45,082,36,2*78
$GAGSV,3,3,10,31,71,298,47,33,35,148,42,2*7E
$GBGSV,3,1,10,02,04,106,,05,18,128,,10,05,082,15,12,33,190,41,1*77
$GBGSV,3,2,10,13,31,087,28,24,79,279,42,25,21,301,48,26,48,129,41,1*7C
$GBGSV,3,3,10,29,06,039,25,35,50,066,41,1*71
$GBGSV,3,1,10,02,04,106,,05,18,128,,10,05,082,,12,33,190,48,3*78
$GBGSV,3,2,10,13,31,087,27,24,79,279,,25,21,301,,26,48,129,,3*7E
$GBGSV,3,3,10,29,06,039,,35,50,066,,3*71
$GNGLL,5025.4447593,N,01411.3818096,E,213507.00,A,D*76
$GNRMC,213508.00,A,5025.4447573,N,01411.3818073,E,0.007,,241021,,,R,V*0A
$GNVTG,,T,,M,0.007,N,0.013,K,D*3D
$GNGGA,213508.00,5025.4447573,N,01411.3818073,E,4,12,0.70,217.761,M,44.078,M,1.0,0084*65
$GNGSA,A,3,24,25,29,31,32,12,02,06,,,,,1.37,0.70,1.18,1*05
$GNGSA,A,3,33,31,24,26,01,09,05,13,,,,,1.37,0.70,1.18,3*06
$GNGSA,A,3,13,12,24,26,25,35,,,,,,,1.37,0.70,1.18,4*0C
$GPGSV,3,1,11,02,40,097,38,03,01,349,18,06,26,049,28,11,,,26,1*51
$GPGSV,3,2,11,12,67,073,47,19,00,045,25,24,27,154,47,25,74,295,40,1*60
$GPGSV,3,3,11,29,40,212,45,31,20,310,46,32,30,265,47,1*5B
$GPGSV,3,1,10,02,40,097,,03,01,349,27,06,26,049,21,12,67,073,43,6*6C
$GPGSV,3,2,10,19,00,045,,24,27,154,46,25,74,295,45,29,40,212,39,6*64
$GPGSV,3,3,10,31,20,310,40,32,30,265,43,6*60
$GAGSV,3,1,10,01,49,093,30,04,03,208,21,05,21,308,45,09,23,255,46,7*7F
$GAGSV,3,2,10,13,13,031,25,21,03,100,,24,21,284,46,26,45,082,40,7*75
$GAGSV,3,3,10,31,71,298,40,33,35,148,44,7*7A
$GAGSV,3,1,10,01,49,093,43,04,03,208,18,05,21,308,44,09,23,255,48,2*7B
$GAGSV,3,2,10,13,13,031,23,21,03,100,,24,21,284,49,26,45,082,36,2*78
$GAGSV,3,3,10,31,71,298,47,33,35,148,42,2*7E
$GBGSV,3,1,10,02,04,106,,05,18,128,,10,05,082,13,12,33,190,40,1*70
$GBGSV,3,2,10,13,31,087,28,24,79,279,42,25,21,301,48,26,48,129,41,1*7C
$GBGSV,3,3,10,29,06,039,24,35,50,066,41,1*70
$GBGSV,3,1,10,02,04,106,,05,18,128,,10,05,082,,12,33,190,48,3*78
$GBGSV,3,2,10,13,31,087,27,24,79,279,,25,21,301,,26,48,129,,3*7E
$GBGSV,3,3,10,29,06,039,,35,50,066,,3*71
$GNGLL,5025.4447573,N,01411.3818073,E,213508.00,A,D*7C
$GNRMC,213509.00,A,5025.4447597,N,01411.3818103,E,0.020,,241021,,,R,V*02
$GNVTG,,T,,M,0.020,N,0.037,K,D*3E
$GNGGA,213509.00,5025.4447597,N,01411.3818103,E,4,12,0.70,217.755,M,44.078,M,1.0,0084*6F
$GNGSA,A,3,24,25,29,31,32,12,02,06,,,,,1.37,0.70,1.18,1*05
$GNGSA,A,3,33,31,24,26,01,09,05,13,,,,,1.37,0.70,1.18,3*06
$GNGSA,A,3,13,12,24,26,25,35,,,,,,,1.37,0.70,1.18,4*0C
$GPGSV,3,1,11,02,40,097,38,03,01,349,17,06,26,049,28,11,,,24,1*5C
$GPGSV,3,2,11,12,67,073,47,19,00,045,25,24,27,154,48,25,74,295,40,1*6F
$GPGSV,3,3,11,29,40,212,45,31,20,310,46,32,30,265,47,1*5B
$GPGSV,3,1,10,02,40,097,,03,01,349,27,06,26,049,21,12,67,073,43,6*6C
$GPGSV,3,2,10,19,00,045,,24,27,154,46,25,74,295,45,29,40,212,39,6*64
$GPGSV,3,3,10,31,20,310,40,32,30,265,43,6*60
$GAGSV,3,1,10,01,49,093,30,04,03,208,22,05,21,308,45,09,23,255,46,7*7C
$GAGSV,3,2,10,13,13,031,25,21,03,100,,24,21,284,46,26,45,082,40,7*75
$GAGSV,3,3,10,31,71,298,41,33,35,148,44,7*7B
$GAGSV,3,1,10,01,49,093,43,04,03,208,17,05,21,308,44,09,23,255,48,2*74
$GAGSV,3,2,10,13,13,031,22,21,03,100,,24,21,284,49,26,45,082,36,2*79
$GAGSV,3,3,10,31,71,298,47,33,35,148,42,2*7E
$GBGSV,3,1,10,02,04,106,,05,18,128,,10,05,082,12,12,33,190,40,1*71
$GBGSV,3,2,10,13,31,087,28,24,79,279,42,25,21,301,48,26,48,129,40,1*7D
$GBGSV,3,3,10,29,06,039,24,35,50,066,41,1*70
$GBGSV,3,1,10,02,04,106,,05,18,128,,10,05,082,,12,33,190,48,3*78
$GBGSV,3,2,10,13,31,087,27,24,79,279,,25,21,301,,26,48,129,,3*7E
$GBGSV,3,3,10,29,06,039,,35,50,066,,3*71
$GNGLL,5025.4447597,N,01411.3818103,E,213509.00,A,D*71
$GNRMC,213510.00,A,5025.4447570,N,01411.3818072,E,0.015,,241021,,,R,V*02
$GNVTG,,T,,M,0.015,N,0.028,K,D*36
$GNGGA,213510.00,5025.4447570,N,01411.3818072,E,4,12,0.70,217.757,M,44.078,M,1.0,0084*6B
$GNGSA,A,3,24,25,29,31,32,12,02,06,,,,,1.37,0.70,1.18,1*05
$GNGSA,A,3,33,31,24,26,01,09,05,13,,,,,1.37,0.70,1.18,3*06
$GNGSA,A,3,13,12,24,26,25,35,,,,,,,1.37,0.70,1.18,4*0C
$GPGSV,3,1,11,02,40,097,38,03,01,349,17,06,26,049,29,11,,,21,1*58
$GPGSV,3,2,11,12,67,073,47,19,00,045,25,24,27,154,48,25,74,295,40,1*6F
$GPGSV,3,3,11,29,40,212,46,31,20,310,46,32,30,265,47,1*58
$GPGSV,3,1,10,02,40,097,,03,01,349,28,06,26,049,21,12,67,073,43,6*63
$GPGSV,3,2,10,19,00,045,,24,27,154,46,25,74,295,45,29,40,212,39,6*64
$GPGSV,3,3,10,31,20,310,40,32,30,265,43,6*60
$GAGSV,3,1,10,01,49,093,30,04,03,208,22,05,21,308,45,09,23,255,46,7*7C
$GAGSV,3,2,10,13,13,031,25,21,03,100,,24,21,284,46,26,45,082,40,7*75
$GAGSV,3,3,10,31,71,298,41,33,35,148,44,7*7B
$GAGSV,3,1,10,01,49,093,43,04,03,208,17,05,21,308,44,09,23,255,48,2*74
$GAGSV,3,2,10,13,13,031,22,21,03,100,,24,21,284,49,26,45,082,36,2*79
$GAGSV,3,3,10,31,71,298,47,33,35,148,42,2*7E
$GBGSV,3,1,10,02,04,106,,05,18,128,,10,05,082,12,12,33,190,40,1*71
$GBGSV,3,2,10,13,31,087,28,24,79,279,43,25,21,301,48,26,48,129,40,1*7C
$GBGSV,3,3,10,29,06,039,24,35,50,066,41,1*70
$GBGSV,3,1,10,02,04,106,,05,18,128,,10,05,082,,12,33,190,48,3*78
$GBGSV,3,2,10,13,31,087,27,24,79,279,,25,21,301,,26,48,129,,3*7E
$GBGSV,3,3,10,29,06,039,,35,50,066,,3*71
$GNGLL,5025.4447570,N,01411.3818072,E,213510.00,A,D*77
$GNRMC,213511.00,A,5025.4447576,N,01411.3818090,E,0.002,,241021,,,R,V*0F
$GNVTG,,T,,M,0.002,N,0.003,K,D*39
$GNGGA,213511.00,5025.4447576,N,01411.3818090,E,4,12,0.70,217.755,M,44.078,M,1.0,0084*62
$GNGSA,A,3,24,25,29,31,32,12,02,06,,,,,1.37,0.70,1.18,1*05
$GNGSA,A,3,33,31,24,26,01,09,05,13,,,,,1.37,0.70,1.18,3*06
$GNGSA,A,3,13,12,24,26,25,35,,,,,,,1.37,0.70,1.18,4*0C
$GPGSV,3,1,11,02,40,097,38,03,01,349,17,06,26,049,29,11,,,19,1*53
$GPGSV,3,2,11,12,67,073,47,19,00,045,24,24,27,154,48,25,74,295,40,1*6E
$GPGSV,3,3,11,29,40,212,46,31,20,310,46,32,30,265,47,1*58
$GPGSV,3,1,10,02,40,097,,03,01,349,28,06,26,049,21,12,67,073,43,6*63
$GPGSV,3,2,10,19,00,045,,24,27,154,46,25,74,295,45,29,40,212,39,6*64
$GPGSV,3,3,10,31,20,310,40,32,30,265,43,6*60
$GAGSV,3,1,10,01,49,093,29,04,03,208,22,05,21,308,45,09,23,255,46,7*74
$GAGSV,3,2,10,13,13,031,25,21,03,100,,24,21,284,46,26,45,082,40,7*75
$GAGSV,3,3,10,31,71,298,41,33,35,148,44,7*7B
$GAGSV,3,1,10,01,49,093,43,04,03,208,16,05,21,308,44,09,23,255,48,2*75
$GAGSV,3,2,10,13,13,031,21,21,03,100,,24,21,284,49,26,45,082,36,2*7A
$GAGSV,3,3,10,31,71,298,47,33,35,148,42,2*7E
$GBGSV,3,1,10,02,04,106,,05,18,128,,10,05,082,12,12,33,190,40,1*71
$GBGSV,3,2,10,13,31,087,28,24,79,279,43,25,21,301,48,26,48,129,40,1*7C
$GBGSV,3,3,10,29,06,039,24,35,50,066,41,1*70
$GBGSV,3,1,10,02,04,106,,05,18,128,,10,05,082,,12,33,190,48,3*78
$GBGSV,3,2,10,13,31,087,27,24,79,279,,25,21,301,,26,48,129,,3*7E
$GBGSV,3,3,10,29,06,039,,35,50,066,,3*71
$GNGLL,5025.4447576,N,01411.3818090,E,213511.00,A,D*7C
$GNRMC,213512.00,A,5025.4447576,N,01411.3818088,E,0.014,,241021,,,R,V*02
$GNVTG,,T,,M,0.014,N,0.027,K,D*38
$GNGGA,213512.00,5025.4447576,N,01411.3818088,E,4,12,0.70,217.755,M,44.078,M,1.0,0084*68
$GNGSA,A,3,24,25,29,31,32,12,02,06,,,,,1.37,0.70,1.18,1*05
$GNGSA,A,3,33,31,24,26,01,09,05,13,,,,,1.37,0.70,1.18,3*06
$GNGSA,A,3,13,12,24,26,25,35,,,,,,,1.37,0.70,1.18,4*0C
$GPGSV,3,1,11,02,40,097,39,03,01,349,18,06,26,049,29,11,,,19,1*5D
$GPGSV,3,2,11,12,67,073,47,19,00,045,23,24,27,154,48,25,74,295,40,1*69
$GPGSV,3,3,11,29,40,212,46,31,20,310,46,32,30,265,47,1*58
$GPGSV,3,1,10,02,40,097,,03,01,349,28,06,26,049,21,12,67,073,43,6*63
$GPGSV,3,2,10,19,00,045,,24,27,154,46,25,74,295,45,29,40,212,39,6*64
$GPGSV,3,3,10,31,20,310,40,32,30,265,43,6*60
$GAGSV,3,1,10,01,49,093,29,04,03,208,22,05,21,308,45,09,23,255,46,7*74
$GAGSV,3,2,10,13,13,031,25,21,03,100,,24,21,284,46,26,45,082,40,7*75
$GAGSV,3,3,10,31,71,298,40,33,35,148,44,7*7A
$GAGSV,3,1,10,01,49,093,43,04,03,208,16,05,21,308,44,09,23,255,48,2*75
$GAGSV,3,2,10,13,13,031,21,21,03,100,,24,21,284,49,26,45,082,36,2*7A
$GAGSV,3,3,10,31,71,298,47,33,35,148,42,2*7E
$GBGSV,3,1,10,02,04,106,,05,18,128,,10,05,082,11,12,33,190,40,1*72
$GBGSV,3,2,10,13,31,087,28,24,79,279,43,25,21,301,48,26,48,129,40,1*7C
$GBGSV,3,3,10,29,06,039,25,35,50,066,41,1*71
$GBGSV,3,1,10,02,04,106,,05,18,128,,10,05,082,,12,33,190,48,3*78
$GBGSV,3,2,10,13,31,087,27,24,79,279,,25,21,301,,26,48,129,,3*7E
$GBGSV,3,3,10,29,06,039,,35,50,066,,3*71
$GNGLL,5025.4447576,N,01411.3818088,E,213512.00,A,D*76
$GNRMC,213513.00,A,5025.4447570,N,01411.3818079,E,0.014,,241021,,,R,V*0B
$GNVTG,,T,,M,0.014,N,0.025,K,D*3A
$GNGGA,213513.00,5025.4447570,N,01411.3818079,E,4,12,0.70,217.762,M,44.078,M,1.0,0084*65
$GNGSA,A,3,24,25,29,31,32,12,02,06,,,,,1.37,0.70,1.18,1*05
$GNGSA,A,3,33,31,24,26,01,09,05,13,,,,,1.37,0.70,1.18,3*06
$GNGSA,A,3,13,12,24,26,25,35,,,,,,,1.37,0.70,1.18,4*0C
$GPGSV,3,1,11,02,40,097,39,03,01,349,20,06,26,049,29,11,,,19,1*56
$GPGSV,3,2,11,12,67,073,47,19,00,045,23,24,27,154,48,25,74,295,39,1*67
$GPGSV,3,3,11,29,40,212,46,31,20,310,46,32,30,265,47,1*58
