$GNGGA,212413.00,5025.4447544,N,01411.3818160,E,4,12,0.76,217.772,M,44.078,M,1.0,0084*6C
$GNGSA,A,3,33,05,24,26,31,01,13,09,,,,,1.47,0.76,1.26,3*0A
$GNGSA,A,3,12,13,24,25,26,35,,,,,,,1.47,0.76,1.26,4*00
$GAGSV,3,1,10,01,53,090,38,04,07,209,20,05,20,312,45,09,26,258,41,7*7E
$GAGSV,3,2,10,13,16,033,24,21,05,097,11,24,18,281,46,26,44,088,37,7*7E
$GAGSV,3,3,10,31,67,294,42,33,31,150,44,7*7E
$GAGSV,3,1,10,01,53,090,41,04,07,209,28,05,20,312,43,09,26,258,45,2*7F
$GAGSV,3,2,10,13,16,033,29,21,05,097,29,24,18,281,44,26,44,088,38,2*70
$GAGSV,3,3,10,31,67,294,50,33,31,150,40,2*7C
$GBGSV,3,1,11,02,04,106,,05,18,128,,10,06,080,,12,29,190,43,1*7A
$GBGSV,3,2,11,13,29,088,26,24,75,289,40,25,17,300,49,26,52,126,39,1*7A
$GBGSV,3,3,11,29,10,039,22,33,01,259,,35,53,072,43,1*4B
$GBGSV,3,1,11,02,04,106,,05,18,128,,10,06,080,27,12,29,190,49,3*77
$GBGSV,3,2,11,13,29,088,28,24,75,289,,25,17,300,,26,52,126,,3*75
$GBGSV,3,3,11,29,10,039,,33,01,259,,35,53,072,,3*4E
$GNGLL,5025.4447544,N,01411.3818160,E,212413.00,A,D*71
$GNTXT,01,01,02,Starting GNSS*5A
$GNRMC,212413.15,V,,,,,,,241021,,,N,V*1E
$GNVTG,,,,,,,,,N*2E
$GNGGA,212413.15,,,,,0,00,99.99,,,,,,*7B
$GNGSA,A,1,,,,,,,,,,,,,99.99,99.99,99.99,1*33
$GNGSA,A,1,,,,,,,,,,,,,99.99,99.99,99.99,2*30
$GNGSA,A,1,,,,,,,,,,,,,99.99,99.99,99.99,4*36
$GPGSV,1,1,00,1*64
$GPGSV,1,1,00,6*63
$GLGSV,1,1,00,1*78
$GLGSV,1,1,00,3*7A
$GBGSV,1,1,00,1*76
$GBGSV,1,1,00,3*74
$GNGLL,,,,,212413.15,V,N*57
$GNRMC,212414.00,A,5025.4467985,N,01411.3846670,E,0.054,,241021,,,A,V*1B
$GNVTG,,T,,M,0.054,N,0.100,K,A*3D
$GNGGA,212414.00,5025.4467985,N,01411.3846670,E,1,12,0.80,214.586,M,44.078,M,,*40
$GNGSA,A,3,24,12,32,25,02,31,29,,,,,,1.46,0.80,1.22,1*03
$GNGSA,A,3,81,87,88,69,79,78,,,,,,,1.46,0.80,1.22,2*00
$GNGSA,A,3,26,25,24,12,35,,,,,,,,1.46,0.80,1.22,4*0E
$GPGSV,3,1,10,02,38,102,30,03,02,353,25,06,27,054,27,12,72,066,45,1*6D
$GPGSV,3,2,10,19,05,044,,24,31,153,45,25,70,288,38,29,35,210,38,1*67
$GPGSV,3,3,10,31,16,310,45,32,32,270,45,1*67
$GPGSV,3,1,10,02,38,102,,03,02,353,,06,27,054,21,12,72,066,43,5*6D
$GPGSV,3,2,10,19,05,044,,24,31,153,45,25,70,288,45,29,35,210,40,5*66
$GPGSV,3,3,10,31,16,310,40,32,32,270,42,5*61
$GLGSV,3,1,09,68,04,242,34,69,21,288,44,70,12,347,,77,31,107,,1*74
$GLGSV,3,2,09,78,77,020,47,79,32,306,44,81,15,183,36,87,52,054,46,1*7D
$GLGSV,3,3,09,88,57,140,44,1*46
$GLGSV,3,1,09,68,04,242,31,69,21,288,39,70,12,347,,77,31,107,,3*79
$GLGSV,3,2,09,78,77,020,42,79,32,306,40,81,15,183,39,87,52,054,,3*73
$GLGSV,3,3,09,88,57,140,42,3*42
$GBGSV,3,1,11,02,04,106,,05,18,128,,10,06,080,,12,29,190,44,1*7D
$GBGSV,3,2,11,13,29,088,27,24,75,288,40,25,18,300,49,26,52,127,39,1*74
$GBGSV,3,3,11,29,10,039,22,33,01,259,,35,52,071,43,1*49
$GBGSV,3,1,11,02,04,106,,05,18,128,,10,06,080,26,12,29,190,48,3*77
$GBGSV,3,2,11,13,29,088,27,24,75,288,,25,18,300,,26,52,127,,3*75
$GBGSV,3,3,11,29,10,039,,33,01,259,,35,52,071,,3*4C
$GNGLL,5025.4467985,N,01411.3846670,E,212414.00,A,A*7D
$GNRMC,212415.00,A,5025.4464655,N,01411.3830372,E,0.075,,241021,,,A,V*1E
$GNVTG,,T,,M,0.075,N,0.138,K,A*35
$GNGGA,212415.00,5025.4464655,N,01411.3830372,E,1,12,0.64,218.049,M,44.078,M,,*46
$GNGSA,A,3,24,12,32,25,02,31,29,06,,,,,1.21,0.64,1.03,1*0D
$GNGSA,A,3,81,87,88,69,79,78,,,,,,,1.21,0.64,1.03,2*08
$GNGSA,A,3,26,25,24,13,12,35,,,,,,,1.21,0.64,1.03,4*04
$GPGSV,3,1,11,02,38,102,29,03,02,353,26,06,27,054,27,11,,,31,1*52
$GPGSV,3,2,11,12,72,066,46,19,05,044,,24,31,153,46,25,70,288,39,1*65
$GPGSV,3,3,11,29,35,210,39,31,16,310,45,32,32,270,46,1*51
$GPGSV,3,1,10,02,38,102,,03,02,353,,06,27,054,21,12,72,066,43,6*6E
$GPGSV,3,2,10,19,05,044,,24,31,153,45,25,70,288,44,29,35,210,40,6*64
$GPGSV,3,3,10,31,16,310,40,32,32,270,42,6*62
$GLGSV,3,1,09,68,04,242,34,69,21,288,45,70,12,347,,77,31,107,20,1*77
$GLGSV,3,2,09,78,77,020,47,79,32,306,45,81,15,183,37,87,52,054,46,1*7D
$GLGSV,3,3,09,88,57,140,45,1*47
$GLGSV,3,1,09,68,04,242,30,69,21,288,39,70,12,347,,77,31,107,,3*78
$GLGSV,3,2,09,78,77,020,42,79,32,306,40,81,15,183,39,87,52,054,,3*73
$GLGSV,3,3,09,88,57,140,42,3*42
$GBGSV,3,1,11,02,04,106,,05,18,128,,10,06,080,,12,29,190,43,1*7A
$GBGSV,3,2,11,13,29,088,27,24,75,288,40,25,18,300,49,26,52,127,39,1*74
$GBGSV,3,3,11,29,10,039,22,33,01,259,,35,52,071,43,1*49
$GBGSV,3,1,11,02,04,106,,05,18,128,,10,06,080,26,12,29,190,48,3*77
$GBGSV,3,2,11,13,29,088,27,24,75,288,,25,18,300,,26,52,127,,3*75
$GBGSV,3,3,11,29,10,039,,33,01,259,,35,52,071,,3*4C
$GNGLL,5025.4464655,N,01411.3830372,E,212415.00,A,A*7B
$GNRMC,212416.00,A,5025.4463227,N,01411.3824608,E,0.010,,241021,,,A,V*15
$GNVTG,,T,,M,0.010,N,0.018,K,A*35
$GNGGA,212416.00,5025.4463227,N,01411.3824608,E,1,12,0.64,219.433,M,44.078,M,,*46
$GNGSA,A,3,24,12,32,25,02,31,29,06,,,,,1.21,0.64,1.03,1*0D
$GNGSA,A,3,81,87,88,69,79,78,,,,,,,1.21,0.64,1.03,2*08
$GNGSA,A,3,26,25,24,13,12,35,,,,,,,1.21,0.64,1.03,4*04
$GPGSV,3,1,11,02,38,102,28,03,02,353,27,06,27,054,26,11,,,32,1*50
$GPGSV,3,2,11,12,72,066,46,19,05,044,,24,31,153,46,25,70,288,39,1*65
$GPGSV,3,3,11,29,35,210,39,31,16,310,45,32,32,270,46,1*51
$GPGSV,3,1,10,02,38,102,,03,02,353,,06,27,054,20,12,72,066,43,6*6F
$GPGSV,3,2,10,19,05,044,,24,31,153,45,25,70,288,44,29,35,210,40,6*64
$GPGSV,3,3,10,31,16,310,40,32,32,270,42,6*62
$GLGSV,3,1,09,68,04,242,34,69,21,288,45,70,12,347,20,77,31,107,20,1*75
$GLGSV,3,2,09,78,77,020,47,79,32,306,46,81,15,183,38,87,52,054,47,1*70
$GLGSV,3,3,09,88,57,140,46,1*44
$GLGSV,3,1,09,68,04,242,30,69,21,288,40,70,12,347,,77,31,107,,3*76
$GLGSV,3,2,09,78,77,020,42,79,32,306,41,81,15,183,40,87,52,054,,3*7C
$GLGSV,3,3,09,88,57,140,42,3*42
$GBGSV,3,1,11,02,04,106,,05,18,128,,10,06,080,,12,29,190,43,1*7A
$GBGSV,3,2,11,13,29,088,26,24,75,288,40,25,18,300,49,26,52,127,39,1*75
$GBGSV,3,3,11,29,10,039,22,33,01,259,,35,52,071,43,1*49
$GBGSV,3,1,11,02,04,106,,05,18,128,,10,06,080,26,12,29,190,49,3*76
$GBGSV,3,2,11,13,29,088,28,24,75,288,,25,18,300,,26,52,127,,3*7A
$GBGSV,3,3,11,29,10,039,,33,01,259,,35,52,071,,3*4C
$GNGLL,5025.4463227,N,01411.3824608,E,212416.00,A,A*73
$GNRMC,212417.00,A,5025.4463470,N,01411.3822813,E,0.024,,241021,,,A,V*15
$GNVTG,,T,,M,0.024,N,0.044,K,A*3B
$GNGGA,212417.00,5025.4463470,N,01411.3822813,E,1,12,0.64,220.214,M,44.078,M,,*48
$GNGSA,A,3,24,12,32,25,02,31,29,06,,,,,1.21,0.64,1.03,1*0D
$GNGSA,A,3,81,87,88,69,79,78,,,,,,,1.21,0.64,1.03,2*08
$GNGSA,A,3,26,25,24,13,12,35,,,,,,,1.21,0.64,1.03,4*04
$GPGSV,3,1,11,02,38,102,28,03,02,353,26,06,27,054,25,11,,,32,1*52
$GPGSV,3,2,11,12,72,066,46,19,05,044,,24,31,153,46,25,70,288,39,1*65
$GPGSV,3,3,11,29,35,210,40,31,16,310,45,32,32,270,46,1*5F
$GPGSV,3,1,10,02,38,102,,03,02,353,,06,27,054,20,12,72,066,43,6*6F
$GPGSV,3,2,10,19,05,044,,24,31,153,45,25,70,288,44,29,35,210,40,6*64
$GPGSV,3,3,10,31,16,310,40,32,32,270,42,6*62
$GLGSV,3,1,09,68,04,242,34,69,21,288,45,70,12,347,20,77,31,107,20,1*75
$GLGSV,3,2,09,78,77,020,47,79,32,306,46,81,15,183,38,87,52,054,47,1*70
$GLGSV,3,3,09,88,57,140,45,1*47
$GLGSV,3,1,09,68,04,242,31,69,21,288,40,70,12,347,,77,31,107,,3*77
$GLGSV,3,2,09,78,77,020,42,79,32,306,41,81,15,183,40,87,52,054,,3*7C
$GLGSV,3,3,09,88,57,140,43,3*43
$GBGSV,3,1,11,02,04,106,,05,18,128,,10,06,080,,12,29,190,43,1*7A
$GBGSV,3,2,11,13,29,088,26,24,75,288,40,25,18,300,49,26,52,127,39,1*75
$GBGSV,3,3,11,29,10,039,22,33,01,259,,35,52,071,43,1*49
$GBGSV,3,1,11,02,04,106,,05,18,128,,10,06,080,26,12,29,190,49,3*76
$GBGSV,3,2,11,13,29,088,28,24,75,288,,25,18,300,,26,52,127,,3*7A
$GBGSV,3,3,11,29,10,039,,33,01,259,,35,52,071,,3*4C
$GNGLL,5025.4463470,N,01411.3822813,E,212417.00,A,A*74
$GNRMC,212418.00,A,5025.4464189,N,01411.3820788,E,0.019,,241021,,,A,V*1F
$GNVTG,,T,,M,0.019,N,0.035,K,A*33
$GNGGA,212418.00,5025.4464189,N,01411.3820788,E,1,12,0.63,220.426,M,44.078,M,,*4C
$GNGSA,A,3,24,12,32,25,02,31,29,06,,,,,1.18,0.63,1.01,1*02
$GNGSA,A,3,81,87,88,69,79,77,78,,,,,,1.18,0.63,1.01,2*07
$GNGSA,A,3,26,25,24,13,12,35,,,,,,,1.18,0.63,1.01,4*0B
$GPGSV,3,1,12,02,38,102,28,03,02,353,26,06,27,054,26,11,,,32,1*52
$GPGSV,3,2,12,12,72,066,46,19,05,044,,24,31,153,46,25,70,288,39,1*66
$GPGSV,3,3,12,28,,,25,29,35,210,40,31,16,310,45,32,32,270,47,1*50
$GPGSV,3,1,10,02,38,102,,03,02,353,,06,27,054,19,12,72,066,43,6*65
$GPGSV,3,2,10,19,05,044,,24,31,153,45,25,70,288,44,29,35,210,40,6*64
$GPGSV,3,3,10,31,16,310,40,32,32,270,42,6*62
$GLGSV,3,1,09,68,04,242,34,69,21,288,46,70,12,347,20,77,31,107,20,1*76
$GLGSV,3,2,09,78,77,020,48,79,32,306,46,81,15,183,38,87,52,054,47,1*7F
$GLGSV,3,3,09,88,57,140,46,1*44
$GLGSV,3,1,09,68,04,242,31,69,21,288,40,70,12,347,,77,31,107,,3*77
$GLGSV,3,2,09,78,77,020,42,79,32,306,41,81,15,183,41,87,52,054,,3*7D
$GLGSV,3,3,09,88,57,140,43,3*43
$GBGSV,3,1,11,02,04,106,,05,18,128,,10,06,080,,12,29,190,44,1*7D
$GBGSV,3,2,11,13,29,088,27,24,75,288,40,25,18,300,49,26,52,127,40,1*7A
$GBGSV,3,3,11,29,10,039,23,33,01,259,,35,52,071,43,1*48
$GBGSV,3,1,11,02,04,106,,05,18,128,,10,06,080,26,12,29,190,48,3*77
$GBGSV,3,2,11,13,29,088,27,24,75,288,,25,18,300,,26,52,127,,3*75
$GBGSV,3,3,11,29,10,039,,33,01,259,,35,52,071,,3*4C
$GNGLL,5025.4464189,N,01411.3820788,E,212418.00,A,A*70
$GNRMC,212419.00,A,5025.4464311,N,01411.3819414,E,0.011,,241021,,,A,V*19
$GNVTG,,T,,M,0.011,N,0.020,K,A*3F
$GNGGA,212419.00,5025.4464311,N,01411.3819414,E,1,12,0.59,220.473,M,44.078,M,,*4B
$GNGSA,A,3,24,12,32,25,02,31,29,06,,,,,1.11,0.59,0.94,1*0F
$GNGSA,A,3,81,87,88,69,79,77,78,70,,,,,1.11,0.59,0.94,2*0D
$GNGSA,A,3,26,25,24,13,12,35,,,,,,,1.11,0.59,0.94,4*06
$GPGSV,3,1,11,02,38,102,28,03,02,353,26,06,27,054,26,11,,,32,1*51
$GPGSV,3,2,11,12,72,066,46,19,05,044,,24,31,153,46,25,70,288,40,1*6B
$GPGSV,3,3,11,29,35,210,40,31,16,310,46,32,32,270,47,1*5D
$GPGSV,3,1,10,02,38,102,,03,02,353,,06,27,054,19,12,72,066,43,6*65
$GPGSV,3,2,10,19,05,044,,24,31,153,45,25,70,288,44,29,35,210,40,6*64
$GPGSV,3,3,10,31,16,310,40,32,32,270,42,6*62
$GLGSV,3,1,09,68,04,242,35,69,21,288,46,70,12,347,20,77,31,107,19,1*7D
$GLGSV,3,2,09,78,77,020,48,79,32,306,47,81,15,183,39,87,52,054,47,1*7F
$GLGSV,3,3,09,88,57,140,46,1*44
$GLGSV,3,1,09,68,04,242,31,69,21,288,40,70,12,347,,77,31,107,,3*77
$GLGSV,3,2,09,78,77,020,42,79,32,306,41,81,15,183,41,87,52,054,,3*7D
$GLGSV,3,3,09,88,57,140,43,3*43
$GBGSV,3,1,11,02,04,106,,05,18,128,,10,06,080,,12,29,190,44,1*7D
$GBGSV,3,2,11,13,29,088,27,24,75,288,40,25,18,300,49,26,52,127,40,1*7A
$GBGSV,3,3,11,29,10,039,23,33,01,259,,35,52,071,43,1*48
$GBGSV,3,1,11,02,04,106,,05,18,128,,10,06,080,26,12,29,190,48,3*77
$GBGSV,3,2,11,13,29,088,27,24,75,288,,25,18,300,,26,52,127,,3*75
$GBGSV,3,3,11,29,10,039,,33,01,259,,35,52,071,,3*4C
$GNGLL,5025.4464311,N,01411.3819414,E,212419.00,A,A*7E
$GNRMC,212420.00,A,5025.4464532,N,01411.3817894,E,0.016,,241021,,,A,V*19
$GNVTG,,T,,M,0.016,N,0.030,K,A*39
$GNGGA,212420.00,5025.4464532,N,01411.3817894,E,1,12,0.59,220.515,M,44.078,M,,*4D
$GNGSA,A,3,24,12,32,25,02,31,29,06,,,,,1.11,0.59,0.94,1*0F
$GNGSA,A,3,81,87,88,69,79,77,78,70,,,,,1.11,0.59,0.94,2*0D
$GNGSA,A,3,26,25,24,13,12,35,,,,,,,1.11,0.59,0.94,4*06
$GPGSV,3,1,11,02,38,102,28,03,02,353,24,06,27,054,25,11,,,32,1*50
$GPGSV,3,2,11,12,72,066,46,19,05,044,,24,31,153,46,25,70,288,40,1*6B
$GPGSV,3,3,11,29,35,210,40,31,16,310,46,32,32,270,47,1*5D
$GPGSV,3,1,10,02,38,102,,03,02,353,22,06,27,054,19,12,72,066,43,6*65
$GPGSV,3,2,10,19,05,044,,24,31,153,45,25,70,288,44,29,35,210,40,6*64
$GPGSV,3,3,10,31,16,310,41,32,32,270,42,6*63
$GLGSV,3,1,09,68,04,242,35,69,21,288,46,70,12,347,21,77,31,107,19,1*7C
$GLGSV,3,2,09,78,77,020,48,79,32,306,46,81,15,183,39,87,52,054,47,1*7E
$GLGSV,3,3,09,88,57,140,46,1*44
$GLGSV,3,1,09,68,04,242,31,69,21,288,40,70,12,347,,77,31,107,,3*77
$GLGSV,3,2,09,78,77,020,42,79,32,306,41,81,15,183,41,87,52,054,,3*7D
$GLGSV,3,3,09,88,57,140,43,3*43
$GBGSV,3,1,11,02,04,106,,05,18,128,,10,06,080,,12,29,190,44,1*7D
$GBGSV,3,2,11,13,29,088,27,24,75,288,40,25,18,300,49,26,52,127,40,1*7A
$GBGSV,3,3,11,29,10,039,22,33,01,259,,35,52,071,43,1*49
$GBGSV,3,1,11,02,04,106,,05,18,128,,10,06,080,26,12,29,190,48,3*77
$GBGSV,3,2,11,13,29,088,27,24,75,288,,25,18,300,,26,52,127,,3*75
$GBGSV,3,3,11,29,10,039,,33,01,259,,35,52,071,,3*4C
$GNGLL,5025.4464532,N,01411.3817894,E,212420.00,A,A*79
$GNRMC,212421.00,A,5025.4464451,N,01411.3817198,E,0.002,,241021,,,A,V*1C
$GNVTG,,T,,M,0.002,N,0.004,K,A*3B
$GNGGA,212421.00,5025.4464451,N,01411.3817198,E,1,12,0.59,220.488,M,44.078,M,,*48
$GNGSA,A,3,24,12,32,25,02,31,29,06,,,,,1.11,0.59,0.94,1*0F
$GNGSA,A,3,81,87,88,69,79,77,78,70,,,,,1.11,0.59,0.94,2*0D
$GNGSA,A,3,26,25,24,13,12,35,,,,,,,1.11,0.59,0.94,4*06
$GPGSV,3,1,11,02,38,102,29,03,02,353,23,06,27,054,26,11,,,31,1*56
$GPGSV,3,2,11,12,72,066,46,19,05,044,21,24,31,153,46,25,70,288,40,1*68
$GPGSV,3,3,11,29,35,210,41,31,16,310,46,32,32,270,47,1*5C
$GPGSV,3,1,10,02,38,102,,03,02,353,21,06,27,054,19,12,72,066,43,6*66
$GPGSV,3,2,10,19,05,044,,24,31,153,45,25,70,288,44,29,35,210,40,6*64
$GPGSV,3,3,10,31,16,310,40,32,32,270,42,6*62
$GLGSV,3,1,09,68,04,242,35,69,21,288,46,70,12,347,21,77,31,107,19,1*7C
$GLGSV,3,2,09,78,77,020,48,79,32,306,46,81,15,183,39,87,52,054,47,1*7E
$GLGSV,3,3,09,88,57,140,46,1*44
$GLGSV,3,1,09,68,04,242,31,69,21,288,40,70,12,347,,77,31,107,,3*77
$GLGSV,3,2,09,78,77,020,42,79,32,306,41,81,15,183,41,87,52,054,,3*7D
$GLGSV,3,3,09,88,57,140,43,3*43
$GBGSV,3,1,11,02,04,106,,05,18,128,,10,06,080,,12,29,190,44,1*7D
$GBGSV,3,2,11,13,29,088,27,24,75,288,40,25,18,300,49,26,52,127,40,1*7A
$GBGSV,3,3,11,29,10,039,22,33,01,259,,35,52,071,43,1*49
$GBGSV,3,1,11,02,04,106,,05,18,128,,10,06,080,26,12,29,190,48,3*77
$GBGSV,3,2,11,13,29,088,27,24,75,288,,25,18,300,,26,52,127,,3*75
$GBGSV,3,3,11,29,10,039,,33,01,259,,35,52,071,,3*4C
$GNGLL,5025.4464451,N,01411.3817198,E,212421.00,A,A*79
$GNRMC,212422.00,A,5025.4464276,N,01411.3816443,E,0.006,,241021,,,A,V*1A
$GNVTG,,T,,M,0.006,N,0.012,K,A*38
$GNGGA,212422.00,5025.4464276,N,01411.3816443,E,1,12,0.59,220.438,M,44.078,M,,*41
$GNGSA,A,3,24,12,32,25,02,31,29,06,,,,,1.11,0.59,0.94,1*0F
$GNGSA,A,3,81,87,88,69,79,77,78,70,,,,,1.11,0.59,0.94,2*0D
$GNGSA,A,3,26,25,24,13,12,35,,,,,,,1.11,0.59,0.94,4*06
$GPGSV,3,1,11,02,38,102,28,03,02,353,21,06,27,054,26,11,,,31,1*55
$GPGSV,3,2,11,12,72,066,46,19,05,044,21,24,31,153,46,25,70,288,39,1*66
$GPGSV,3,3,11,29,35,210,41,31,16,310,45,32,32,270,47,1*5F
$GPGSV,3,1,10,02,38,102,,03,02,353,21,06,27,054,18,12,72,066,43,6*67
$GPGSV,3,2,10,19,05,044,,24,31,153,45,25,70,288,44,29,35,210,40,6*64
$GPGSV,3,3,10,31,16,310,40,32,32,270,42,6*62
$GLGSV,3,1,09,68,04,242,35,69,21,288,46,70,12,347,21,77,31,107,19,1*7C
$GLGSV,3,2,09,78,77,020,48,79,32,306,46,81,15,183,39,87,52,054,47,1*7E
$GLGSV,3,3,09,88,57,140,46,1*44
$GLGSV,3,1,09,68,04,242,31,69,21,288,41,70,12,347,,77,31,107,,3*76
$GLGSV,3,2,09,78,77,020,43,79,32,306,42,81,15,183,41,87,52,054,,3*7F
$GLGSV,3,3,09,88,57,140,43,3*43
$GBGSV,3,1,11,02,04,106,,05,18,128,,10,06,080,,12,29,190,44,1*7D
$GBGSV,3,2,11,13,29,088,27,24,75,288,40,25,18,300,49,26,52,127,40,1*7A
$GBGSV,3,3,11,29,10,039,22,33,01,259,,35,52,071,43,1*49
$GBGSV,3,1,11,02,04,106,,05,18,128,,10,06,080,26,12,29,190,48,3*77
$GBGSV,3,2,11,13,29,088,27,24,75,288,,25,18,300,,26,52,127,,3*75
$GBGSV,3,3,11,29,10,039,,33,01,259,,35,52,071,,3*4C
$GNGLL,5025.4464276,N,01411.3816443,E,212422.00,A,A*7B
$GNRMC,212423.00,A,5025.4464145,N,01411.3816037,E,0.006,,241021,,,A,V*1F
$GNVTG,,T,,M,0.006,N,0.011,K,A*3B
$GNGGA,212423.00,5025.4464145,N,01411.3816037,E,1,12,0.59,220.373,M,44.078,M,,*4C
$GNGSA,A,3,24,12,32,25,02,31,29,06,,,,,1.11,0.59,0.94,1*0F
$GNGSA,A,3,81,87,88,69,79,77,78,70,,,,,1.11,0.59,0.94,2*0D
$GNGSA,A,3,26,25,24,13,12,35,,,,,,,1.11,0.59,0.94,4*06
$GPGSV,3,1,11,02,38,102,28,03,02,353,19,06,27,054,26,11,,,31,1*5E
$GPGSV,3,2,11,12,72,066,46,19,05,044,21,24,31,153,46,25,70,288,38,1*67
$GPGSV,3,3,11,29,35,210,41,31,16,310,45,32,32,270,47,1*5F
$GPGSV,3,1,10,02,38,102,,03,02,353,22,06,27,054,18,12,72,066,43,6*64
$GPGSV,3,2,10,19,05,044,,24,31,153,46,25,70,288,44,29,35,210,40,6*67
$GPGSV,3,3,10,31,16,310,41,32,32,270,42,6*63
$GLGSV,3,1,09,68,04,242,35,69,21,288,46,70,12,347,21,77,31,107,18,1*7D
$GLGSV,3,2,09,78,77,020,48,79,32,306,46,81,15,183,39,87,52,054,47,1*7E
$GLGSV,3,3,09,88,57,140,46,1*44
$GLGSV,3,1,09,68,04,242,31,69,21,288,40,70,12,347,,77,31,107,,3*77
$GLGSV,3,2,09,78,77,020,43,79,32,306,42,81,15,183,41,87,52,054,,3*7F
$GLGSV,3,3,09,88,57,140,43,3*43
$GBGSV,3,1,11,02,04,106,,05,18,128,,10,06,080,,12,29,190,44,1*7D
$GBGSV,3,2,11,13,29,088,27,24,75,288,39,25,18,300,49,26,52,127,40,1*74
$GBGSV,3,3,11,29,10,039,22,33,01,259,,35,52,071,43,1*49
$GBGSV,3,1,11,02,04,106,,05,18,128,,10,06,080,26,12,29,190,48,3*77
$GBGSV,3,2,11,13,29,088,27,24,75,288,,25,18,300,,26,52,127,,3*75
$GBGSV,3,3,11,29,10,039,,33,01,259,,35,52,071,,3*4C
$GNGLL,5025.4464145,N,01411.3816037,E,212423.00,A,A*7E
$GNRMC,212424.00,A,5025.4464035,N,01411.3815711,E,0.016,,241021,,,A,V*1F
$GNVTG,,T,,M,0.016,N,0.030,K,A*39
$GNGGA,212424.00,5025.4464035,N,01411.3815711,E,1,12,0.59,220.273,M,44.078,M,,*4C
$GNGSA,A,3,24,12,32,25,02,31,29,06,,,,,1.11,0.59,0.94,1*0F
$GNGSA,A,3,81,87,88,69,79,77,78,70,,,,,1.11,0.59,0.94,2*0D
$GNGSA,A,3,26,25,24,13,12,35,,,,,,,1.11,0.59,0.94,4*06
$GPGSV,3,1,11,02,38,102,28,03,02,353,17,06,27,054,26,11,,,31,1*50
$GPGSV,3,2,11,12,72,066,46,19,05,044,21,24,31,153,46,25,70,288,38,1*67
$GPGSV,3,3,11,29,35,210,41,31,16,310,45,32,32,270,47,1*5F
$GPGSV,3,1,10,02,38,102,,03,02,353,22,06,27,054,18,12,72,066,43,6*64
$GPGSV,3,2,10,19,05,044,,24,31,153,46,25,70,288,44,29,35,210,40,6*67
$GPGSV,3,3,10,31,16,310,41,32,32,270,42,6*63
$GLGSV,3,1,09,68,04,242,35,69,21,288,46,70,12,347,21,77,31,107,17,1*72
$GLGSV,3,2,09,78,77,020,48,79,32,306,46,81,15,183,39,87,52,054,47,1*7E
$GLGSV,3,3,09,88,57,140,46,1*44
$GLGSV,3,1,09,68,04,242,31,69,21,288,41,70,12,347,,77,31,107,,3*76
$GLGSV,3,2,09,78,77,020,43,79,32,306,42,81,15,183,41,87,52,054,,3*7F
$GLGSV,3,3,09,88,57,140,43,3*43
$GBGSV,3,1,11,02,04,106,,05,18,128,,10,06,080,,12,29,190,44,1*7D
$GBGSV,3,2,11,13,29,088,27,24,75,288,39,25,18,300,49,26,52,127,40,1*74
$GBGSV,3,3,11,29,10,039,21,33,01,259,,35,52,071,44,1*4D
$GBGSV,3,1,11,02,04,106,,05,18,128,,10,06,080,26,12,29,190,48,3*77
$GBGSV,3,2,11,13,29,088,27,24,75,288,,25,18,300,,26,52,127,,3*75
$GBGSV,3,3,11,29,10,039,,33,01,259,,35,52,071,,3*4C
$GNGLL,5025.4464035,N,01411.3815711,E,212424.00,A,A*7F
$GNRMC,212425.00,A,5025.4463908,N,01411.3815668,E,0.014,,241021,,,A,V*13
$GNVTG,,T,,M,0.014,N,0.027,K,A*3D
$GNGGA,212425.00,5025.4463908,N,01411.3815668,E,1,12,0.59,220.156,M,44.078,M,,*46
$GNGSA,A,3,24,12,32,25,02,31,29,06,,,,,1.11,0.59,0.94,1*0F
$GNGSA,A,3,81,87,88,69,79,77,78,70,,,,,1.11,0.59,0.94,2*0D
$GNGSA,A,3,26,25,24,13,12,35,,,,,,,1.11,0.59,0.94,4*06
$GPGSV,3,1,11,02,38,102,28,03,02,353,14,06,27,054,26,11,,,31,1*53
$GPGSV,3,2,11,12,72,066,46,19,05,044,20,24,31,153,46,25,70,288,38,1*66
$GPGSV,3,3,11,29,35,210,41,31,16,310,45,32,32,270,47,1*5F
$GPGSV,3,1,10,02,38,102,,03,02,353,23,06,27,054,17,12,72,066,43,6*6A
$GPGSV,3,2,10,19,05,044,,24,31,153,46,25,70,288,44,29,35,210,40,6*67
$GPGSV,3,3,10,31,16,310,41,32,32,270,42,6*63
$GLGSV,3,1,09,68,04,242,35,69,21,288,46,70,12,347,21,77,31,107,17,1*72
$GLGSV,3,2,09,78,77,020,48,79,32,306,46,81,15,183,39,87,52,054,46,1*7F
$GLGSV,3,3,09,88,57,140,46,1*44
$GLGSV,3,1,09,68,04,242,30,69,21,288,41,70,12,347,,77,31,107,17,3*71
$GLGSV,3,2,09,78,77,020,43,79,32,306,42,81,15,183,41,87,52,054,,3*7F
$GLGSV,3,3,09,88,57,140,43,3*43
$GBGSV,3,1,11,02,04,106,,05,18,128,,10,06,080,,12,29,190,44,1*7D
$GBGSV,3,2,11,13,29,088,27,24,75,288,39,25,18,300,49,26,52,127,40,1*74
$GBGSV,3,3,11,29,10,039,21,33,01,259,,35,52,071,43,1*4A
$GBGSV,3,1,11,02,04,106,,05,18,128,,10,06,080,26,12,29,190,48,3*77
$GBGSV,3,2,11,13,29,088,27,24,75,288,,25,18,300,,26,52,127,,3*75
$GBGSV,3,3,11,29,10,039,,33,01,259,,35,52,071,,3*4C
$GNGLL,5025.4463908,N,01411.3815668,E,212425.00,A,A*71
$GNRMC,212426.00,A,5025.4463709,N,01411.3815610,E,0.021,,241021,,,A,V*16
$GNVTG,,T,,M,0.021,N,0.038,K,A*35
$GNGGA,212426.00,5025.4463709,N,01411.3815610,E,1,12,0.59,220.056,M,44.078,M,,*44
$GNGSA,A,3,24,12,32,25,02,31,29,06,,,,,1.11,0.59,0.94,1*0F
$GNGSA,A,3,81,87,88,69,79,77,78,70,,,,,1.11,0.59,0.94,2*0D
$GNGSA,A,3,26,25,24,13,12,35,,,,,,,1.11,0.59,0.94,4*06
$GPGSV,3,1,11,02,38,102,28,03,02,353,11,06,27,054,26,11,,,32,1*55
$GPGSV,3,2,11,12,72,066,46,19,05,044,19,24,31,153,46,25,70,288,38,1*6C
$GPGSV,3,3,11,29,35,210,41,31,16,310,45,32,32,270,47,1*5F
$GPGSV,3,1,10,02,38,102,,03,02,353,23,06,27,054,16,12,72,066,43,6*6B
$GPGSV,3,2,10,19,05,044,,24,31,153,46,25,70,288,44,29,35,210,40,6*67
$GPGSV,3,3,10,31,16,310,41,32,32,270,42,6*63
$GLGSV,3,1,09,68,04,242,35,69,21,288,46,70,12,347,21,77,31,107,16,1*73
$GLGSV,3,2,09,78,77,020,48,79,32,306,46,81,15,183,39,87,52,054,46,1*7F
$GLGSV,3,3,09,88,57,140,46,1*44
$GLGSV,3,1,09,68,04,242,30,69,21,288,41,70,12,347,,77,31,107,16,3*70
$GLGSV,3,2,09,78,77,020,43,79,32,306,42,81,15,183,41,87,52,054,,3*7F
$GLGSV,3,3,09,88,57,140,43,3*43
$GBGSV,3,1,11,02,04,106,,05,18,128,,10,06,080,,12,29,190,43,1*7A
$GBGSV,3,2,11,13,29,088,27,24,75,288,39,25,18,300,49,26,52,127,41,1*75
$GBGSV,3,3,11,29,10,039,22,33,01,259,,35,52,071,43,1*49
$GBGSV,3,1,11,02,04,106,,05,18,128,,10,06,080,26,12,29,190,48,3*77
$GBGSV,3,2,11,13,29,088,27,24,75,288,,25,18,300,,26,52,127,,3*75
$GBGSV,3,3,11,29,10,039,,33,01,259,,35,52,071,,3*4C
$GNGLL,5025.4463709,N,01411.3815610,E,212426.00,A,A*72
$GNRMC,212427.00,A,5025.4463563,N,01411.3815580,E,0.018,,241021,,,A,V*19
$GNVTG,,T,,M,0.018,N,0.033,K,A*34
$GNGGA,212427.00,5025.4463563,N,01411.3815580,E,1,12,0.59,219.982,M,44.078,M,,*4B
$GNGSA,A,3,24,12,32,25,02,31,29,06,,,,,1.11,0.59,0.94,1*0F
$GNGSA,A,3,81,87,88,69,79,77,78,70,,,,,1.11,0.59,0.94,2*0D
$GNGSA,A,3,26,25,24,13,12,35,,,,,,,1.11,0.59,0.94,4*06
$GPGSV,3,1,11,02,38,102,28,03,02,353,08,06,27,054,26,11,,,33,1*5C
$GPGSV,3,2,11,12,72,066,46,19,05,044,19,24,31,153,46,25,70,288,39,1*6D
$GPGSV,3,3,11,29,35,210,41,31,16,310,45,32,32,270,47,1*5F
$GPGSV,3,1,10,02,38,102,,03,02,353,23,06,27,054,16,12,72,066,43,6*6B
$GPGSV,3,2,10,19,05,044,,24,31,153,46,25,70,288,44,29,35,210,40,6*67
$GPGSV,3,3,10,31,16,310,41,32,32,270,42,6*63
$GLGSV,3,1,09,68,04,242,34,69,21,288,46,70,12,347,21,77,31,107,15,1*71
$GLGSV,3,2,09,78,77,020,48,79,32,306,45,81,15,183,39,87,52,054,46,1*7C
$GLGSV,3,3,09,88,57,140,46,1*44
$GLGSV,3,1,09,68,04,242,30,69,21,288,41,70,12,347,,77,31,107,16,3*70
$GLGSV,3,2,09,78,77,020,42,79,32,306,42,81,15,183,41,87,52,054,,3*7E
$GLGSV,3,3,09,88,57,140,43,3*43
$GBGSV,3,1,11,02,04,106,,05,18,128,,10,06,080,,12,29,190,44,1*7D
$GBGSV,3,2,11,13,29,088,28,24,75,288,39,25,18,300,48,26,52,127,41,1*7B
$GBGSV,3,3,11,29,10,039,21,33,01,259,23,35,52,071,43,1*4B
$GBGSV,3,1,11,02,04,106,,05,18,128,,10,06,080,25,12,29,190,48,3*74
$GBGSV,3,2,11,13,29,088,27,24,75,288,,25,18,300,,26,52,127,,3*75
$GBGSV,3,3,11,29,10,039,,33,01,259,,35,52,071,,3*4C
$GNGLL,5025.4463563,N,01411.3815580,E,212427.00,A,A*77
$GNRMC,212428.00,A,5025.4463389,N,01411.3815463,E,0.013,,241021,,,A,V*13
$GNVTG,,T,,M,0.013,N,0.023,K,A*3E
$GNGGA,212428.00,5025.4463389,N,01411.3815463,E,1,12,0.59,219.926,M,44.078,M,,*44
$GNGSA,A,3,24,12,32,25,02,31,29,06,,,,,1.11,0.59,0.94,1*0F
$GNGSA,A,3,81,87,88,69,79,77,78,70,,,,,1.11,0.59,0.94,2*0D
$GNGSA,A,3,26,25,24,13,12,35,,,,,,,1.11,0.59,0.94,4*06
$GPGSV,3,1,11,02,38,102,28,03,02,353,07,06,27,054,27,11,,,33,1*52
$GPGSV,3,2,11,12,72,066,46,19,04,044,20,24,31,153,46,25,70,288,39,1*66
$GPGSV,3,3,11,29,35,210,41,31,16,310,45,32,32,270,47,1*5F
$GPGSV,3,1,10,02,38,102,,03,02,353,23,06,27,054,18,12,72,066,43,6*65
$GPGSV,3,2,10,19,04,044,,24,31,153,46,25,70,288,44,29,35,210,40,6*66
$GPGSV,3,3,10,31,16,310,41,32,32,270,42,6*63
$GLGSV,3,1,09,68,04,242,34,69,21,288,46,70,12,347,22,77,31,107,12,1*75
$GLGSV,3,2,09,78,77,020,48,79,32,306,45,81,15,183,39,87,52,054,46,1*7C
$GLGSV,3,3,09,88,57,140,46,1*44
$GLGSV,3,1,09,68,04,242,30,69,21,288,41,70,12,347,,77,31,107,16,3*70
$GLGSV,3,2,09,78,77,020,42,79,32,306,42,81,15,183,42,87,52,054,,3*7D
$GLGSV,3,3,09,88,57,140,43,3*43
$GBGSV,3,1,11,02,04,106,,05,18,128,,10,06,080,,12,29,190,43,1*7A
$GBGSV,3,2,11,13,29,088,28,24,75,288,39,25,18,300,48,26,52,127,41,1*7B
$GBGSV,3,3,11,29,10,039,,33,01,259,24,35,52,071,43,1*4F
$GBGSV,3,1,11,02,04,106,,05,18,128,,10,06,080,25,12,29,190,48,3*74
$GBGSV,3,2,11,13,29,088,27,24,75,288,,25,18,300,,26,52,127,,3*75
$GBGSV,3,3,11,29,10,039,,33,01,259,17,35,52,071,,3*4A
$GNGLL,5025.4463389,N,01411.3815463,E,212428.00,A,A*76
$GNRMC,212429.00,A,5025.4463249,N,01411.3815340,E,0.013,,241021,,,A,V*19
$GNVTG,,T,,M,0.013,N,0.025,K,A*38
$GNGGA,212429.00,5025.4463249,N,01411.3815340,E,1,12,0.59,219.863,M,44.078,M,,*4E
$GNGSA,A,3,24,12,32,25,02,31,29,06,,,,,1.11,0.59,0.94,1*0F
$GNGSA,A,3,81,87,88,69,79,77,78,70,,,,,1.11,0.59,0.94,2*0D
$GNGSA,A,3,26,25,24,13,12,35,,,,,,,1.11,0.59,0.94,4*06
$GPGSV,3,1,11,02,38,102,28,03,02,353,08,06,27,054,27,11,,,34,1*5A
$GPGSV,3,2,11,12,72,066,46,19,04,044,21,24,31,153,45,25,70,288,39,1*64
$GPGSV,3,3,11,29,35,210,41,31,16,310,45,32,32,270,47,1*5F
$GPGSV,3,1,10,02,38,102,,03,02,353,23,06,27,054,18,12,72,066,43,6*65
$GPGSV,3,2,10,19,04,044,,24,31,153,46,25,70,288,44,29,35,210,40,6*66
$GPGSV,3,3,10,31,16,310,41,32,32,270,42,6*63
$GLGSV,3,1,09,68,04,242,34,69,21,288,46,70,12,347,22,77,31,107,12,1*75
$GLGSV,3,2,09,78,77,020,48,79,32,306,45,81,15,183,39,87,52,054,46,1*7C
$GLGSV,3,3,09,88,57,140,46,1*44
$GLGSV,3,1,09,68,04,242,29,69,21,288,41,70,12,347,,77,31,107,16,3*78
$GLGSV,3,2,09,78,77,020,42,79,32,306,42,81,15,183,42,87,52,054,,3*7D
$GLGSV,3,3,09,88,57,140,43,3*43
$GBGSV,3,1,11,02,04,106,,05,18,128,,10,06,080,,12,29,190,43,1*7A
$GBGSV,3,2,11,13,29,088,28,24,75,288,39,25,18,300,48,26,52,127,41,1*7B
$GBGSV,3,3,11,29,10,039,23,33,01,259,24,35,52,071,43,1*4E
$GBGSV,3,1,11,02,04,106,,05,18,128,,10,06,080,25,12,29,190,48,3*74
$GBGSV,3,2,11,13,29,088,27,24,75,288,,25,18,300,,26,52,127,,3*75
$GBGSV,3,3,11,29,10,039,,33,01,259,13,35,52,071,,3*4E
$GNGLL,5025.4463249,N,01411.3815340,E,212429.00,A,A*7C
$GNRMC,212430.00,A,5025.4463102,N,01411.3815266,E,0.019,,241021,,,A,V*12
$GNVTG,,T,,M,0.019,N,0.035,K,A*33
$GNGGA,212430.00,5025.4463102,N,01411.3815266,E,1,12,0.59,219.801,M,44.078,M,,*4B
$GNGSA,A,3,24,12,32,25,02,31,29,06,,,,,1.11,0.59,0.94,1*0F
$GNGSA,A,3,81,87,88,69,79,77,78,70,,,,,1.11,0.59,0.94,2*0D
$GNGSA,A,3,26,25,24,13,12,35,,,,,,,1.11,0.59,0.94,4*06
$GPGSV,3,1,11,02,38,102,29,03,02,353,09,06,27,054,28,11,,,34,1*55
$GPGSV,3,2,11,12,72,066,46,19,04,044,21,24,31,153,45,25,70,288,38,1*65
$GPGSV,3,3,11,29,35,210,41,31,16,310,45,32,32,270,47,1*5F
$GPGSV,3,1,10,02,38,102,,03,02,353,23,06,27,054,18,12,72,066,43,6*65
$GPGSV,3,2,10,19,04,044,,24,31,153,46,25,70,288,44,29,35,210,40,6*66
$GPGSV,3,3,10,31,16,310,41,32,32,270,42,6*63
$GLGSV,3,1,09,68,04,242,34,69,21,288,46,70,12,347,23,77,31,107,12,1*74
$GLGSV,3,2,09,78,77,020,48,79,32,306,45,81,15,183,40,87,52,054,46,1*72
$GLGSV,3,3,09,88,57,140,46,1*44
$GLGSV,3,1,09,68,04,242,29,69,21,288,41,70,12,347,,77,31,107,16,3*78
$GLGSV,3,2,09,78,77,020,42,79,32,306,42,81,15,183,42,87,52,054,,3*7D
$GLGSV,3,3,09,88,57,140,43,3*43
$GBGSV,3,1,11,02,04,106,,05,18,128,,10,06,080,,12,29,190,43,1*7A
$GBGSV,3,2,11,13,29,088,28,24,75,288,39,25,18,300,48,26,52,127,41,1*7B
$GBGSV,3,3,11,29,10,039,22,33,01,259,24,35,52,071,43,1*4F
$GBGSV,3,1,11,02,04,106,,05,18,128,,10,06,080,25,12,29,190,48,3*74
$GBGSV,3,2,11,13,29,088,27,24,75,288,,25,18,300,,26,52,127,,3*75
$GBGSV,3,3,11,29,10,039,,33,01,259,10,35,52,071,,3*4D
$GNGLL,5025.4463102,N,01411.3815266,E,212430.00,A,A*7D
$GNRMC,212431.00,A,5025.4462983,N,01411.3815173,E,0.004,,241021,,,A,V*18
$GNVTG,,T,,M,0.004,N,0.007,K,A*3E
$GNGGA,212431.00,5025.4462983,N,01411.3815173,E,1,12,0.61,219.751,M,44.078,M,,*4C
$GNGSA,A,3,24,12,32,25,02,31,29,06,,,,,1.13,0.61,0.96,1*04
$GNGSA,A,3,81,87,88,69,79,77,78,70,,,,,1.13,0.61,0.96,2*06
$GNGSA,A,3,26,25,24,13,12,35,,,,,,,1.13,0.61,0.96,4*0D
$GPGSV,3,1,11,02,38,102,28,03,02,353,09,06,27,054,28,11,,,34,1*54
$GPGSV,3,2,11,12,72,066,46,19,04,044,20,24,31,153,45,25,70,288,38,1*64
$GPGSV,3,3,11,29,35,210,41,31,16,310,45,32,32,270,47,1*5F
$GPGSV,3,1,10,02,38,102,,03,02,353,23,06,27,054,18,12,72,066,43,6*65
$GPGSV,3,2,10,19,04,044,,24,31,153,46,25,70,288,44,29,35,210,41,6*67
$GPGSV,3,3,10,31,16,310,41,32,32,270,42,6*63
$GLGSV,3,1,09,68,04,242,34,69,21,288,46,70,12,347,23,77,31,107,04,1*73
$GLGSV,3,2,09,78,77,020,48,79,32,306,45,81,15,183,40,87,52,054,46,1*72
$GLGSV,3,3,09,88,57,140,46,1*44
$GLGSV,3,1,09,68,04,242,29,69,21,288,41,70,12,347,,77,31,107,17,3*79
$GLGSV,3,2,09,78,77,020,42,79,32,306,42,81,15,183,42,87,52,054,,3*7D
$GLGSV,3,3,09,88,57,140,43,3*43
$GBGSV,3,1,11,02,04,106,,05,18,128,,10,06,080,,12,29,190,44,1*7D
$GBGSV,3,2,11,13,29,088,28,24,75,288,39,25,18,300,48,26,52,127,41,1*7B
$GBGSV,3,3,11,29,10,039,20,33,01,259,24,35,52,071,43,1*4D
$GBGSV,3,1,11,02,04,106,,05,18,128,,10,06,080,26,12,29,190,48,3*77
$GBGSV,3,2,11,13,29,088,27,24,75,288,,25,18,300,,26,52,127,,3*75
$GBGSV,3,3,11,29,10,039,,33,01,259,08,35,52,071,,3*44
$GNGLL,5025.4462983,N,01411.3815173,E,212431.00,A,A*7B
$GNRMC,212432.00,A,5025.4462879,N,01411.3815019,E,0.005,,241021,,,A,V*13
$GNVTG,,T,,M,0.005,N,0.009,K,A*31
$GNGGA,212432.00,5025.4462879,N,01411.3815019,E,1,12,0.61,219.717,M,44.078,M,,*44
$GNGSA,A,3,24,12,32,25,02,31,29,06,,,,,1.13,0.61,0.96,1*04
$GNGSA,A,3,81,87,88,69,79,77,78,70,,,,,1.13,0.61,0.96,2*06
$GNGSA,A,3,26,25,24,13,12,35,,,,,,,1.13,0.61,0.96,4*0D
$GPGSV,3,1,11,02,38,102,28,03,02,353,12,06,27,054,28,11,,,34,1*5E
$GPGSV,3,2,11,12,72,066,46,19,04,044,18,24,31,153,45,25,70,288,38,1*6F
$GPGSV,3,3,11,29,35,210,41,31,16,310,45,32,32,270,47,1*5F
$GPGSV,3,1,10,02,38,102,,03,02,353,23,06,27,054,19,12,72,066,43,6*64
$GPGSV,3,2,10,19,04,044,,24,31,153,46,25,70,288,44,29,35,210,40,6*66
$GPGSV,3,3,10,31,16,310,41,32,32,270,42,6*63
$GLGSV,3,1,09,68,04,242,35,69,21,288,46,70,12,347,24,77,31,107,07,1*76
$GLGSV,3,2,09,78,77,020,48,79,32,306,45,81,15,183,40,87,52,054,46,1*72
$GLGSV,3,3,09,88,57,140,46,1*44
$GLGSV,3,1,09,68,04,242,28,69,21,288,41,70,12,347,,77,31,107,18,3*77
$GLGSV,3,2,09,78,77,020,42,79,32,306,42,81,15,183,42,87,52,054,,3*7D
$GLGSV,3,3,09,88,57,140,43,3*43
$GBGSV,3,1,11,02,04,106,,05,18,128,,10,06,080,,12,29,190,43,1*7A
$GBGSV,3,2,11,13,29,088,28,24,75,288,39,25,18,300,48,26,52,127,41,1*7B
$GBGSV,3,3,11,29,10,039,21,33,01,259,24,35,52,071,43,1*4C
$GBGSV,3,1,11,02,04,106,,05,18,128,,10,06,080,26,12,29,190,48,3*77
$GBGSV,3,2,11,13,29,088,27,24,75,288,,25,18,300,,26,52,127,,3*75
$GBGSV,3,3,11,29,10,039,,33,01,259,07,35,52,071,,3*4B
$GNGLL,5025.4462879,N,01411.3815019,E,212432.00,A,A*71
$GNRMC,212433.00,A,5025.4462808,N,01411.3814863,E,0.014,,241021,,,A,V*10
$GNVTG,,T,,M,0.014,N,0.025,K,A*3F
$GNGGA,212433.00,5025.4462808,N,01411.3814863,E,1,12,0.61,219.689,M,44.078,M,,*41
$GNGSA,A,3,24,12,32,25,02,31,29,06,,,,,1.13,0.61,0.96,1*04
$GNGSA,A,3,81,87,88,69,79,77,78,70,,,,,1.13,0.61,0.96,2*06
$GNGSA,A,3,26,25,24,13,12,35,,,,,,,1.13,0.61,0.96,4*0D
$GPGSV,3,1,11,02,38,102,28,03,02,353,14,06,27,054,29,11,,,34,1*59
$GPGSV,3,2,11,12,72,066,46,19,04,044,17,24,31,153,45,25,70,288,38,1*60
$GPGSV,3,3,11,29,35,210,41,31,16,310,45,32,32,270,47,1*5F
$GPGSV,3,1,10,02,38,102,,03,02,353,23,06,27,054,19,12,72,066,43,6*64
$GPGSV,3,2,10,19,04,044,,24,31,153,46,25,70,288,44,29,35,210,41,6*67
$GPGSV,3,3,10,31,16,310,41,32,32,270,42,6*63
$GLGSV,3,1,09,68,04,242,35,69,21,288,46,70,12,347,25,77,31,107,08,1*78
$GLGSV,3,2,09,78,77,020,48,79,32,306,45,81,15,183,40,87,52,054,46,1*72
$GLGSV,3,3,09,88,57,140,47,1*45
$GLGSV,3,1,09,68,04,242,28,69,21,288,42,70,12,347,,77,31,107,18,3*74
$GLGSV,3,2,09,78,77,020,43,79,32,306,43,81,15,183,42,87,52,054,,3*7D
$GLGSV,3,3,09,88,57,140,43,3*43
$GBGSV,3,1,11,02,04,106,,05,18,128,,10,06,080,,12,29,190,43,1*7A
$GBGSV,3,2,11,13,29,088,28,24,75,288,40,25,18,300,48,26,52,127,41,1*75
$GBGSV,3,3,11,29,10,039,22,33,01,259,24,35,52,071,43,1*4F
$GBGSV,3,1,11,02,04,106,,05,18,128,,10,06,080,25,12,29,190,48,3*74
$GBGSV,3,2,11,13,29,088,27,24,75,288,,25,18,300,,26,52,127,,3*75
$GBGSV,3,3,11,29,10,039,,33,01,259,07,35,52,071,,3*4B
$GNGLL,5025.4462808,N,01411.3814863,E,212433.00,A,A*72
$GNRMC,212434.00,A,5025.4462752,N,01411.3814766,E,0.009,,241021,,,A,V*11
$GNVTG,,T,,M,0.009,N,0.017,K,A*32
$GNGGA,212434.00,5025.4462752,N,01411.3814766,E,1,12,0.61,219.658,M,44.078,M,,*40
$GNGSA,A,3,24,12,32,25,02,31,29,06,,,,,1.13,0.61,0.96,1*04
$GNGSA,A,3,81,87,88,69,79,77,78,70,,,,,1.13,0.61,0.96,2*06
$GNGSA,A,3,26,25,24,13,12,35,,,,,,,1.13,0.61,0.96,4*0D
$GPGSV,3,1,11,02,38,102,28,03,02,353,17,06,27,054,29,11,,,34,1*5A
$GPGSV,3,2,11,12,72,066,46,19,04,044,16,24,31,153,45,25,70,288,38,1*61
$GPGSV,3,3,11,29,35,210,42,31,16,310,45,32,32,270,47,1*5C
$GPGSV,3,1,10,02,38,102,,03,02,353,24,06,27,054,19,12,72,066,43,6*63
$GPGSV,3,2,10,19,04,044,,24,31,153,46,25,70,288,44,29,35,210,41,6*67
$GPGSV,3,3,10,31,16,310,41,32,32,270,42,6*63
$GLGSV,3,1,09,68,04,242,35,69,21,288,46,70,12,347,25,77,31,107,07,1*77
$GLGSV,3,2,09,78,77,020,48,79,32,306,45,81,15,183,40,87,52,054,46,1*72
$GLGSV,3,3,09,88,57,140,47,1*45
$GLGSV,3,1,09,68,04,242,28,69,21,288,42,70,12,347,,77,31,107,18,3*74
$GLGSV,3,2,09,78,77,020,43,79,32,306,43,81,15,183,42,87,52,054,,3*7D
$GLGSV,3,3,09,88,57,140,43,3*43
$GBGSV,3,1,11,02,04,106,,05,18,128,,10,06,080,,12,29,190,44,1*7D
$GBGSV,3,2,11,13,29,088,28,24,75,288,40,25,18,300,48,26,52,127,41,1*75
$GBGSV,3,3,11,29,10,039,22,33,01,259,24,35,52,071,43,1*4F
$GBGSV,3,1,11,02,04,106,,05,18,128,,10,06,080,25,12,29,190,48,3*74
$GBGSV,3,2,11,13,29,088,27,24,75,288,,25,18,300,,26,52,127,,3*75
$GBGSV,3,3,11,29,10,039,,33,01,259,07,35,52,071,,3*4B
$GNGLL,5025.4462752,N,01411.3814766,E,212434.00,A,A*7F
$GNRMC,212435.00,A,5025.4462699,N,01411.3814692,E,0.013,,241021,,,A,V*17
$GNVTG,,T,,M,0.013,N,0.024,K,A*39
$GNGGA,212435.00,5025.4462699,N,01411.3814692,E,1,12,0.59,219.631,M,44.078,M,,*49
$GNGSA,A,3,24,12,32,25,02,31,29,06,,,,,1.11,0.59,0.94,1*0F
$GNGSA,A,3,81,87,88,69,79,77,78,70,,,,,1.11,0.59,0.94,2*0D
$GNGSA,A,3,26,25,24,13,12,35,,,,,,,1.11,0.59,0.94,4*06
$GPGSV,3,1,11,02,38,102,28,03,02,353,19,06,27,054,29,11,,,34,1*54
$GPGSV,3,2,11,12,72,066,46,19,04,044,18,24,31,153,45,25,70,288,38,1*6F
$GPGSV,3,3,11,29,35,210,42,31,16,310,45,32,32,270,47,1*5C
$GPGSV,3,1,10,02,38,102,,03,02,353,23,06,27,054,20,12,72,066,43,6*6E
$GPGSV,3,2,10,19,04,044,,24,31,153,46,25,70,288,44,29,35,210,41,6*67
$GPGSV,3,3,10,31,16,310,41,32,32,270,42,6*63
$GLGSV,3,1,09,68,04,242,35,69,21,288,46,70,12,347,25,77,31,107,08,1*78
$GLGSV,3,2,09,78,77,020,48,79,32,306,45,81,15,183,40,87,52,054,46,1*72
$GLGSV,3,3,09,88,57,140,47,1*45
$GLGSV,3,1,09,68,04,242,27,69,21,288,42,70,12,347,,77,31,107,18,3*7B
$GLGSV,3,2,09,78,77,020,43,79,32,306,43,81,15,183,42,87,52,054,,3*7D
$GLGSV,3,3,09,88,57,140,43,3*43
$GBGSV,3,1,11,02,04,106,,05,18,128,,10,06,080,,12,29,190,44,1*7D
$GBGSV,3,2,11,13,29,088,28,24,75,288,40,25,18,300,48,26,52,127,41,1*75
$GBGSV,3,3,11,29,10,039,21,33,01,259,,35,52,071,43,1*4A
$GBGSV,3,1,11,02,04,106,,05,18,128,,10,06,080,26,12,29,190,48,3*77
$GBGSV,3,2,11,13,29,088,27,24,75,288,,25,18,300,,26,52,127,,3*75
$GBGSV,3,3,11,29,10,039,,33,01,259,08,35,52,071,,3*44
$GNGLL,5025.4462699,N,01411.3814692,E,212435.00,A,A*72
$GNRMC,212436.00,A,5025.4462655,N,01411.3814567,E,0.013,,241021,,,A,V*1D
$GNVTG,,T,,M,0.013,N,0.023,K,A*3E
$GNGGA,212436.00,5025.4462655,N,01411.3814567,E,1,12,0.61,219.615,M,44.078,M,,*4E
$GNGSA,A,3,24,12,32,25,02,31,29,06,,,,,1.13,0.61,0.96,1*04
$GNGSA,A,3,81,87,88,69,79,77,78,70,,,,,1.13,0.61,0.96,2*06
$GNGSA,A,3,26,25,24,13,12,35,,,,,,,1.13,0.61,0.96,4*0D
$GPGSV,3,1,11,02,38,102,28,03,02,353,19,06,27,054,30,11,,,33,1*5B
$GPGSV,3,2,11,12,72,066,46,19,04,044,19,24,31,153,45,25,70,288,38,1*6E
$GPGSV,3,3,11,29,35,210,42,31,16,310,45,32,32,270,47,1*5C
$GPGSV,3,1,10,02,38,102,,03,02,353,23,06,27,054,20,12,72,066,43,6*6E
$GPGSV,3,2,10,19,04,044,,24,31,153,46,25,70,288,44,29,35,210,41,6*67
$GPGSV,3,3,10,31,16,310,41,32,32,270,42,6*63
$GLGSV,3,1,09,68,04,242,35,69,21,288,46,70,12,347,26,77,31,107,08,1*7B
$GLGSV,3,2,09,78,77,020,48,79,32,306,45,81,15,183,40,87,52,054,46,1*72
$GLGSV,3,3,09,88,57,140,47,1*45
$GLGSV,3,1,09,68,04,242,27,69,21,288,42,70,12,347,,77,31,107,17,3*74
$GLGSV,3,2,09,78,77,020,43,79,32,306,43,81,15,183,42,87,52,054,,3*7D
$GLGSV,3,3,09,88,57,140,43,3*43
$GBGSV,3,1,11,02,04,106,,05,18,128,,10,06,080,,12,29,190,44,1*7D
$GBGSV,3,2,11,13,29,088,28,24,75,288,40,25,18,300,48,26,52,127,41,1*75
$GBGSV,3,3,11,29,10,039,21,33,01,259,26,35,52,071,43,1*4E
$GBGSV,3,1,11,02,04,106,,05,18,128,,10,06,080,26,12,29,190,48,3*77
$GBGSV,3,2,11,13,29,088,27,24,75,288,,25,18,300,,26,52,127,,3*75
$GBGSV,3,3,11,29,10,039,,33,01,259,08,35,52,071,,3*44
$GNGLL,5025.4462655,N,01411.3814567,E,212436.00,A,A*78
$GNRMC,212437.00,A,5025.4462605,N,01411.3814455,E,0.007,,241021,,,A,V*1C
$GNVTG,,T,,M,0.007,N,0.012,K,A*39
$GNGGA,212437.00,5025.4462605,N,01411.3814455,E,1,12,0.61,219.596,M,44.078,M,,*42
$GNGSA,A,3,24,12,32,25,02,31,29,06,,,,,1.13,0.61,0.96,1*04
$GNGSA,A,3,81,87,88,69,79,77,78,70,,,,,1.13,0.61,0.96,2*06
$GNGSA,A,3,26,25,24,13,12,35,,,,,,,1.13,0.61,0.96,4*0D
$GPGSV,3,1,11,02,38,102,28,03,02,353,20,06,27,054,30,11,,,33,1*51
$GPGSV,3,2,11,12,72,066,46,19,04,044,19,24,31,153,45,25,70,288,37,1*61
$GPGSV,3,3,11,29,35,210,42,31,16,310,45,32,32,270,47,1*5C
$GPGSV,3,1,10,02,38,102,,03,02,353,23,06,27,054,20,12,72,066,43,6*6E
$GPGSV,3,2,10,19,04,044,,24,31,153,46,25,70,288,44,29,35,210,41,6*67
$GPGSV,3,3,10,31,16,310,41,32,32,270,42,6*63
$GLGSV,3,1,09,68,04,242,34,69,21,288,46,70,12,347,25,77,31,107,08,1*79
$GLGSV,3,2,09,78,77,020,48,79,32,306,45,81,15,183,40,87,52,054,46,1*72
$GLGSV,3,3,09,88,57,140,47,1*45
$GLGSV,3,1,09,68,04,242,27,69,21,288,42,70,12,347,,77,31,107,18,3*7B
$GLGSV,3,2,09,78,77,020,43,79,32,306,43,81,15,183,42,87,52,054,,3*7D
$GLGSV,3,3,09,88,57,140,43,3*43
$GBGSV,3,1,11,02,04,106,,05,18,128,,10,06,080,,12,29,190,44,1*7D
$GBGSV,3,2,11,13,29,088,28,24,75,288,40,25,18,300,49,26,52,127,41,1*74
$GBGSV,3,3,11,29,10,039,21,33,01,259,25,35,52,071,43,1*4D
$GBGSV,3,1,11,02,04,106,,05,18,128,,10,06,080,25,12,29,190,48,3*74
$GBGSV,3,2,11,13,29,088,27,24,75,288,,25,18,300,,26,52,127,,3*75
$GBGSV,3,3,11,29,10,039,,33,01,259,08,35,52,071,,3*44
$GNGLL,5025.4462605,N,01411.3814455,E,212437.00,A,A*7C
$GNRMC,212438.00,A,5025.4462572,N,01411.3814432,E,0.017,,241021,,,A,V*10
$GNVTG,,T,,M,0.017,N,0.032,K,A*3A
$GNGGA,212438.00,5025.4462572,N,01411.3814432,E,1,12,0.64,219.550,M,44.078,M,,*40
$GNGSA,A,3,24,12,32,25,02,31,29,06,,,,,1.21,0.64,1.03,1*0D
$GNGSA,A,3,81,87,88,69,79,77,78,70,,,,,1.21,0.64,1.03,2*0F
$GNGSA,A,3,26,25,24,13,12,35,,,,,,,1.21,0.64,1.03,4*04
$GPGSV,3,1,11,02,38,102,28,03,02,353,21,06,27,054,30,11,,,33,1*50
$GPGSV,3,2,11,12,72,066,46,19,04,044,19,24,31,153,45,25,70,288,36,1*60
$GPGSV,3,3,11,29,35,210,42,31,16,310,45,32,32,270,47,1*5C
$GPGSV,3,1,10,02,38,102,,03,02,353,22,06,27,054,21,12,72,066,43,6*6E
$GPGSV,3,2,10,19,04,044,,24,31,153,46,25,70,288,44,29,35,210,41,6*67
$GPGSV,3,3,10,31,16,310,41,32,32,270,42,6*63
$GLGSV,3,1,09,68,04,242,35,69,21,288,46,70,12,347,25,77,31,107,08,1*78
$GLGSV,3,2,09,78,77,020,49,79,32,306,45,81,15,183,40,87,52,054,46,1*73
$GLGSV,3,3,09,88,57,140,47,1*45
$GLGSV,3,1,09,68,04,242,27,69,21,288,42,70,12,347,,77,31,107,18,3*7B
$GLGSV,3,2,09,78,77,020,42,79,32,306,43,81,15,183,42,87,52,054,,3*7C
$GLGSV,3,3,09,88,57,140,43,3*43
$GBGSV,3,1,11,02,04,106,,05,18,128,,10,06,080,,12,29,190,44,1*7D
$GBGSV,3,2,11,13,29,088,28,24,75,288,40,25,18,300,49,26,52,127,41,1*74
$GBGSV,3,3,11,29,10,039,20,33,01,259,,35,52,071,43,1*4B
$GBGSV,3,1,11,02,04,106,,05,18,128,,10,06,080,25,12,29,190,48,3*74
$GBGSV,3,2,11,13,29,088,27,24,75,288,,25,18,300,,26,52,127,,3*75
$GBGSV,3,3,11,29,10,039,,33,01,259,07,35,52,071,,3*4B
$GNGLL,5025.4462572,N,01411.3814432,E,212438.00,A,A*71
$GNRMC,212439.00,A,5025.4462557,N,01411.3814442,E,0.010,,241021,,,A,V*16
$GNVTG,,T,,M,0.010,N,0.018,K,A*35
$GNGGA,212439.00,5025.4462557,N,01411.3814442,E,1,12,0.63,219.491,M,44.078,M,,*4A
$GNGSA,A,3,24,12,32,25,02,31,29,06,,,,,1.19,0.63,1.01,1*03
$GNGSA,A,3,81,87,88,69,79,77,78,70,,,,,1.19,0.63,1.01,2*01
$GNGSA,A,3,26,25,24,13,12,35,,,,,,,1.19,0.63,1.01,4*0A
$GPGSV,3,1,11,02,38,102,28,03,02,353,21,06,27,054,30,11,,,33,1*50
$GPGSV,3,2,11,12,72,066,46,19,04,044,18,24,31,153,45,25,70,288,34,1*63
$GPGSV,3,3,11,29,35,210,42,31,16,310,46,32,32,270,47,1*5F
$GPGSV,3,1,10,02,38,102,,03,02,353,22,06,27,054,21,12,72,066,43,6*6E
$GPGSV,3,2,10,19,04,044,,24,31,153,46,25,70,288,44,29,35,210,41,6*67
$GPGSV,3,3,10,31,16,310,41,32,32,270,42,6*63
$GLGSV,3,1,09,68,04,242,34,69,21,288,46,70,12,347,25,77,31,107,12,1*72
$GLGSV,3,2,09,78,77,020,49,79,32,306,45,81,15,183,40,87,52,054,46,1*73
$GLGSV,3,3,09,88,57,140,47,1*45
$GLGSV,3,1,09,68,04,242,27,69,21,288,42,70,12,347,,77,31,107,18,3*7B
$GLGSV,3,2,09,78,77,020,42,79,32,306,42,81,15,183,42,87,52,054,,3*7D
$GLGSV,3,3,09,88,57,140,43,3*43
$GBGSV,3,1,11,02,04,106,,05,18,128,,10,06,080,,12,29,190,44,1*7D
$GBGSV,3,2,11,13,29,088,28,24,75,288,40,25,18,300,49,26,52,127,41,1*74
$GBGSV,3,3,11,29,10,039,19,33,01,259,,35,52,071,43,1*41
$GBGSV,3,1,11,02,04,106,,05,18,128,,10,06,080,25,12,29,190,48,3*74
$GBGSV,3,2,11,13,29,088,27,24,75,288,,25,18,300,,26,52,127,,3*75
$GBGSV,3,3,11,29,10,039,,33,01,259,,35,52,071,,3*4C
$GNGLL,5025.4462557,N,01411.3814442,E,212439.00,A,A*70
$GNRMC,212440.00,A,5025.4462511,N,01411.3814352,E,0.006,,241021,,,A,V*1B
$GNVTG,,T,,M,0.006,N,0.011,K,A*3B
$GNGGA,212440.00,5025.4462511,N,01411.3814352,E,1,12,0.63,219.455,M,44.078,M,,*48
$GNGSA,A,3,24,12,32,25,02,31,29,06,,,,,1.19,0.63,1.01,1*03
$GNGSA,A,3,81,87,88,69,79,77,78,70,,,,,1.19,0.63,1.01,2*01
$GNGSA,A,3,26,25,24,13,12,35,,,,,,,1.19,0.63,1.01,4*0A
$GPGSV,3,1,11,02,38,102,28,03,02,353,22,06,27,054,30,11,,,33,1*53
$GPGSV,3,2,11,12,72,066,46,19,04,044,17,24,31,153,45,25,70,288,34,1*6C
$GPGSV,3,3,11,29,35,210,42,31,16,310,46,32,32,270,46,1*5E
$GPGSV,3,1,10,02,38,102,,03,02,353,21,06,27,054,21,12,72,066,43,6*6D
$GPGSV,3,2,10,19,04,044,,24,31,153,46,25,70,288,44,29,35,210,41,6*67
$GPGSV,3,3,10,31,16,310,41,32,32,270,42,6*63
$GLGSV,3,1,09,68,04,242,34,69,21,288,46,70,12,347,25,77,31,107,13,1*73
$GLGSV,3,2,09,78,77,020,49,79,32,306,45,81,15,183,40,87,52,054,46,1*73
$GLGSV,3,3,09,88,57,140,47,1*45
$GLGSV,3,1,09,68,04,242,27,69,21,288,42,70,12,347,,77,31,107,19,3*7A
$GLGSV,3,2,09,78,77,020,42,79,32,306,42,81,15,183,42,87,52,054,,3*7D
$GLGSV,3,3,09,88,57,140,43,3*43
$GBGSV,3,1,11,02,04,106,,05,18,128,,10,06,080,,12,29,190,44,1*7D
$GBGSV,3,2,11,13,29,088,28,24,75,288,40,25,18,300,49,26,52,127,41,1*74
$GBGSV,3,3,11,29,10,039,19,33,01,259,,35,52,071,43,1*41
$GBGSV,3,1,11,02,04,106,,05,18,128,,10,06,080,25,12,29,190,48,3*74
$GBGSV,3,2,11,13,29,088,26,24,75,288,,25,18,300,,26,52,127,,3*74
$GBGSV,3,3,11,29,10,039,,33,01,259,,35,52,071,,3*4C
$GNGLL,5025.4462511,N,01411.3814352,E,212440.00,A,A*7A
$GNRMC,212441.00,A,5025.4462476,N,01411.3814293,E,0.021,,241021,,,A,V*13
$GNVTG,,T,,M,0.021,N,0.038,K,A*35
$GNGGA,212441.00,5025.4462476,N,01411.3814293,E,1,12,0.63,219.410,M,44.078,M,,*44
$GNGSA,A,3,24,12,32,25,02,31,29,06,,,,,1.19,0.63,1.01,1*03
$GNGSA,A,3,81,87,88,69,79,77,78,70,,,,,1.19,0.63,1.01,2*01
$GNGSA,A,3,26,25,24,13,12,35,,,,,,,1.19,0.63,1.01,4*0A
$GPGSV,3,1,11,02,38,102,28,03,02,353,23,06,27,054,31,11,,,33,1*53
$GPGSV,3,2,11,12,72,066,46,19,04,044,18,24,31,153,45,25,70,288,34,1*63
$GPGSV,3,3,11,29,35,210,42,31,16,310,46,32,32,270,46,1*5E
$GPGSV,3,1,10,02,38,102,,03,02,353,20,06,27,054,22,12,72,066,43,6*6F
$GPGSV,3,2,10,19,04,044,,24,31,153,46,25,70,288,44,29,35,210,41,6*67
$GPGSV,3,3,10,31,16,310,41,32,32,270,42,6*63
$GLGSV,3,1,09,68,04,242,34,69,21,288,46,70,12,347,25,77,31,107,13,1*73
$GLGSV,3,2,09,78,77,020,49,79,32,306,45,81,15,183,40,87,52,054,46,1*73
$GLGSV,3,3,09,88,57,140,47,1*45
$GLGSV,3,1,09,68,04,242,28,69,21,288,42,70,12,347,,77,31,107,20,3*7F
$GLGSV,3,2,09,78,77,020,42,79,32,306,42,81,15,183,42,87,52,054,,3*7D
$GLGSV,3,3,09,88,57,140,43,3*43
$GBGSV,3,1,11,02,04,106,,05,18,128,,10,06,080,,12,29,190,44,1*7D
$GBGSV,3,2,11,13,29,088,29,24,75,288,40,25,18,300,49,26,52,127,41,1*75
$GBGSV,3,3,11,29,10,039,20,33,01,259,,35,52,071,43,1*4B
$GBGSV,3,1,11,02,04,106,,05,18,128,,10,06,080,25,12,29,190,48,3*74
$GBGSV,3,2,11,13,29,088,26,24,75,288,,25,18,300,,26,52,127,,3*74
$GBGSV,3,3,11,29,10,039,,33,01,259,,35,52,071,,3*4C
$GNGLL,5025.4462476,N,01411.3814293,E,212441.00,A,A*77
$GNRMC,212442.00,A,5025.4462436,N,01411.3814228,E,0.013,,241021,,,A,V*15
$GNVTG,,T,,M,0.013,N,0.025,K,A*38
$GNGGA,212442.00,5025.4462436,N,01411.3814228,E,1,12,0.63,219.370,M,44.078,M,,*42
$GNGSA,A,3,24,12,32,25,02,31,29,06,,,,,1.19,0.63,1.01,1*03
$GNGSA,A,3,81,87,88,69,79,77,78,70,,,,,1.19,0.63,1.01,2*01
$GNGSA,A,3,26,25,24,13,12,35,,,,,,,1.19,0.63,1.01,4*0A
$GPGSV,3,1,11,02,38,102,27,03,02,353,22,06,27,054,31,11,,,33,1*5D
$GPGSV,3,2,11,12,72,066,46,19,04,044,20,24,31,153,45,25,70,288,35,1*69
$GPGSV,3,3,11,29,35,210,42,31,16,310,46,32,32,270,46,1*5E
$GPGSV,3,1,10,02,38,102,,03,02,353,20,06,27,054,22,12,72,066,43,6*6F
$GPGSV,3,2,10,19,04,044,,24,31,153,46,25,70,288,44,29,35,210,41,6*67
$GPGSV,3,3,10,31,16,310,41,32,32,270,42,6*63
$GLGSV,3,1,09,68,04,242,34,69,21,288,46,70,12,347,25,77,31,107,09,1*78
$GLGSV,3,2,09,78,77,020,48,79,32,306,45,81,15,183,40,87,52,054,46,1*72
$GLGSV,3,3,09,88,57,140,47,1*45
$GLGSV,3,1,09,68,04,242,27,69,21,288,42,70,12,347,,77,31,107,20,3*70
$GLGSV,3,2,09,78,77,020,43,79,32,306,42,81,15,183,42,87,52,054,,3*7C
$GLGSV,3,3,09,88,57,140,43,3*43
$GBGSV,3,1,11,02,04,106,,05,18,128,,10,06,080,,12,29,190,44,1*7D
$GBGSV,3,2,11,13,29,088,29,24,75,288,40,25,18,300,49,26,52,127,41,1*75
$GBGSV,3,3,11,29,10,039,19,33,01,259,24,35,52,071,43,1*47
$GBGSV,3,1,11,02,04,106,,05,18,128,,10,06,080,25,12,29,190,48,3*74
$GBGSV,3,2,11,13,29,088,26,24,75,288,,25,18,300,,26,52,127,,3*74
$GBGSV,3,3,11,29,10,039,,33,01,259,,35,52,071,,3*4C
$GNGLL,5025.4462436,N,01411.3814228,E,212442.00,A,A*70
$GNRMC,212443.00,A,5025.4462389,N,01411.3814138,E,0.014,,241021,,,A,V*12
$GNVTG,,T,,M,0.014,N,0.026,K,A*3C
$GNGGA,212443.00,5025.4462389,N,01411.3814138,E,1,12,0.59,219.344,M,44.078,M,,*4C
$GNGSA,A,3,24,12,32,25,02,31,29,06,,,,,1.11,0.59,0.94,1*0F
$GNGSA,A,3,81,87,88,69,79,77,78,70,,,,,1.11,0.59,0.94,2*0D
$GNGSA,A,3,26,25,24,13,12,35,,,,,,,1.11,0.59,0.94,4*06
$GPGSV,3,1,11,02,38,102,27,03,02,353,22,06,27,054,31,11,,,32,1*5C
$GPGSV,3,2,11,12,72,066,46,19,04,044,21,24,31,153,45,25,70,288,34,1*69
$GPGSV,3,3,11,29,35,210,43,31,16,310,46,32,32,270,46,1*5F
$GPGSV,3,1,10,02,38,102,,03,02,353,20,06,27,054,23,12,72,066,43,6*6E
$GPGSV,3,2,10,19,04,044,,24,31,153,46,25,70,288,44,29,35,210,41,6*67
$GPGSV,3,3,10,31,16,310,41,32,32,270,42,6*63
$GLGSV,3,1,09,68,04,242,34,69,21,288,46,70,12,347,25,77,31,107,09,1*78
$GLGSV,3,2,09,78,77,020,48,79,32,306,45,81,15,183,40,87,52,054,47,1*73
$GLGSV,3,3,09,88,57,140,47,1*45
$GLGSV,3,1,09,68,04,242,27,69,21,288,42,70,12,347,,77,31,107,19,3*7A
$GLGSV,3,2,09,78,77,020,43,79,32,306,42,81,15,183,42,87,52,054,,3*7C
$GLGSV,3,3,09,88,57,140,43,3*43
$GBGSV,3,1,11,02,04,106,,05,18,128,,10,06,080,,12,29,190,44,1*7D
$GBGSV,3,2,11,13,29,088,28,24,75,288,40,25,18,300,48,26,52,127,41,1*75
$GBGSV,3,3,11,29,10,039,19,33,01,259,,35,52,071,43,1*41
$GBGSV,3,1,11,02,04,106,,05,18,128,,10,06,080,25,12,29,190,48,3*74
$GBGSV,3,2,11,13,29,088,26,24,75,288,,25,18,300,,26,52,127,,3*74
$GBGSV,3,3,11,29,10,039,,33,01,259,,35,52,071,,3*4C
$GNGLL,5025.4462389,N,01411.3814138,E,212443.00,A,A*70
$GNRMC,212444.00,A,5025.4461547,N,01411.3813882,E,0.033,,241021,,,D,V*1D
$GNVTG,,T,,M,0.033,N,0.061,K,D*3F
$GNGGA,212444.00,5025.4461547,N,01411.3813882,E,2,12,0.64,219.285,M,44.078,M,1.0,0084*61
$GNGSA,A,3,24,12,32,25,02,31,29,06,,,,,1.21,0.64,1.03,1*0D
$GNGSA,A,3,81,87,88,69,79,77,78,70,,,,,1.21,0.64,1.03,2*0F
$GNGSA,A,3,26,25,24,13,12,35,,,,,,,1.21,0.64,1.03,4*04
$GPGSV,3,1,11,02,38,102,27,03,02,353,23,06,27,054,31,11,,,32,1*5D
$GPGSV,3,2,11,12,72,066,46,19,04,044,22,24,31,153,45,25,70,288,34,1*6A
$GPGSV,3,3,11,29,35,210,43,31,16,310,46,32,32,270,46,1*5F
$GPGSV,3,1,10,02,38,102,,03,02,353,21,06,27,054,23,12,72,066,43,6*6F
$GPGSV,3,2,10,19,04,044,,24,31,153,46,25,70,288,44,29,35,210,41,6*67
$GPGSV,3,3,10,31,16,310,41,32,32,270,42,6*63
$GLGSV,3,1,09,68,04,242,34,69,21,288,46,70,12,347,25,77,31,107,09,1*78
$GLGSV,3,2,09,78,77,020,48,79,32,306,45,81,15,183,40,87,52,054,47,1*73
$GLGSV,3,3,09,88,57,140,47,1*45
$GLGSV,3,1,09,68,04,242,28,69,21,288,42,70,12,347,,77,31,107,18,3*74
$GLGSV,3,2,09,78,77,020,43,79,32,306,42,81,15,183,42,87,52,054,,3*7C
$GLGSV,3,3,09,88,57,140,43,3*43
$GBGSV,3,1,11,02,04,106,,05,18,128,,10,06,080,,12,29,190,44,1*7D
$GBGSV,3,2,11,13,29,088,28,24,75,288,40,25,18,300,49,26,52,127,41,1*74
$GBGSV,3,3,11,29,10,039,20,33,01,259,,35,52,071,43,1*4B
$GBGSV,3,1,11,02,04,106,,05,18,128,,10,06,080,25,12,29,190,48,3*74
$GBGSV,3,2,11,13,29,088,26,24,75,288,,25,18,300,,26,52,127,,3*74
$GBGSV,3,3,11,29,10,039,,33,01,259,,35,52,071,,3*4C
$GNGLL,5025.4461547,N,01411.3813882,E,212444.00,A,D*7A
$GNRMC,212445.00,A,5025.4447565,N,01411.3818173,E,0.007,,241021,,,R,V*05
$GNVTG,,T,,M,0.007,N,0.013,K,D*3D
$GNGGA,212445.00,5025.4447565,N,01411.3818173,E,4,12,0.64,217.777,M,44.078,M,1.0,0084*68
$GNGSA,A,3,24,12,32,25,02,31,29,06,,,,,1.21,0.64,1.03,1*0D
$GNGSA,A,3,81,87,88,69,79,77,78,70,,,,,1.21,0.64,1.03,2*0F
$GNGSA,A,3,26,25,24,13,12,35,,,,,,,1.21,0.64,1.03,4*04
$GPGSV,3,1,11,02,38,102,27,03,02,353,25,06,27,054,31,11,,,31,1*58
$GPGSV,3,2,11,12,72,066,46,19,04,044,22,24,31,153,45,25,70,288,33,1*6D
$GPGSV,3,3,11,29,35,210,43,31,16,310,46,32,32,270,46,1*5F
$GPGSV,3,1,10,02,38,102,,03,02,353,21,06,27,054,24,12,72,066,43,6*68
$GPGSV,3,2,10,19,04,044,,24,31,153,46,25,70,288,44,29,35,210,41,6*67
$GPGSV,3,3,10,31,16,310,41,32,32,270,42,6*63
$GLGSV,3,1,09,68,04,242,34,69,21,288,46,70,12,347,25,77,31,107,09,1*78
$GLGSV,3,2,09,78,77,020,49,79,32,306,45,81,15,183,40,87,52,054,47,1*72
$GLGSV,3,3,09,88,57,140,47,1*45
$GLGSV,3,1,09,68,04,242,27,69,21,288,42,70,12,347,,77,31,107,17,3*74
$GLGSV,3,2,09,78,77,020,43,79,32,306,42,81,15,183,42,87,52,054,,3*7C
$GLGSV,3,3,09,88,57,140,43,3*43
$GBGSV,3,1,11,02,04,106,,05,18,128,,10,06,080,,12,29,190,44,1*7D
$GBGSV,3,2,11,13,29,088,29,24,75,288,40,25,18,300,48,26,52,127,41,1*74
$GBGSV,3,3,11,29,10,039,21,33,01,259,,35,52,071,43,1*4A
$GBGSV,3,1,11,02,04,106,,05,18,128,,10,06,080,25,12,29,190,48,3*74
$GBGSV,3,2,11,13,29,088,26,24,75,288,,25,18,300,,26,52,127,,3*74
$GBGSV,3,3,11,29,10,039,,33,01,259,,35,52,071,,3*4C
$GNGLL,5025.4447565,N,01411.3818173,E,212445.00,A,D*73
$GNRMC,212446.00,A,5025.4447571,N,01411.3818159,E,0.011,,241021,,,R,V*0C
$GNVTG,,T,,M,0.011,N,0.021,K,D*3B
$GNGGA,212446.00,5025.4447571,N,01411.3818159,E,4,12,0.64,217.784,M,44.078,M,1.0,0084*6A
$GNGSA,A,3,24,12,32,25,02,31,29,06,,,,,1.21,0.64,1.03,1*0D
$GNGSA,A,3,81,87,88,69,79,77,78,70,,,,,1.21,0.64,1.03,2*0F
$GNGSA,A,3,26,25,24,13,12,35,,,,,,,1.21,0.64,1.03,4*04
$GPGSV,3,1,11,02,38,102,27,03,02,353,25,06,27,054,31,11,,,31,1*58
$GPGSV,3,2,11,12,72,066,46,19,04,044,21,24,31,153,45,25,70,288,34,1*69
$GPGSV,3,3,11,29,35,210,43,31,16,310,46,32,32,270,46,1*5F
$GPGSV,3,1,10,02,38,102,,03,02,353,21,06,27,054,25,12,72,066,43,6*69
$GPGSV,3,2,10,19,04,044,,24,31,153,46,25,70,288,44,29,35,210,41,6*67
$GPGSV,3,3,10,31,16,310,41,32,32,270,42,6*63
$GLGSV,3,1,09,68,04,242,34,69,21,288,46,70,12,347,26,77,31,107,09,1*7B
$GLGSV,3,2,09,78,77,020,49,79,32,306,45,81,15,183,40,87,52,054,47,1*72
$GLGSV,3,3,09,88,57,140,47,1*45
$GLGSV,3,1,09,68,04,242,27,69,21,288,42,70,12,347,,77,31,107,17,3*74
$GLGSV,3,2,09,78,77,020,43,79,32,306,42,81,15,183,42,87,52,054,,3*7C
$GLGSV,3,3,09,88,57,140,43,3*43
$GBGSV,3,1,11,02,04,106,,05,18,128,,10,06,080,23,12,29,190,44,1*7C
$GBGSV,3,2,11,13,29,088,29,24,75,288,40,25,18,300,48,26,52,127,41,1*74
$GBGSV,3,3,11,29,10,039,19,33,01,259,,35,52,071,43,1*41
$GBGSV,3,1,11,02,04,106,,05,18,128,,10,06,080,25,12,29,190,48,3*74
$GBGSV,3,2,11,13,29,088,26,24,75,288,,25,18,300,,26,52,127,,3*74
$GBGSV,3,3,11,29,10,039,,33,01,259,,35,52,071,,3*4C
$GNGLL,5025.4447571,N,01411.3818159,E,212446.00,A,D*7D
$GNRMC,212447.00,A,5025.4447576,N,01411.3818185,E,0.014,,241021,,,R,V*0E
$GNVTG,,T,,M,0.014,N,0.026,K,D*39
$GNGGA,212447.00,5025.4447576,N,01411.3818185,E,4,12,0.64,217.778,M,44.078,M,1.0,0084*6E
$GNGSA,A,3,24,12,32,25,02,31,29,06,,,,,1.21,0.64,1.03,1*0D
$GNGSA,A,3,81,87,88,69,79,77,78,70,,,,,1.21,0.64,1.03,2*0F
$GNGSA,A,3,26,25,24,13,12,35,,,,,,,1.21,0.64,1.03,4*04
$GPGSV,3,1,11,02,38,102,27,03,02,353,26,06,27,054,31,11,,,30,1*5A
$GPGSV,3,2,11,12,72,066,46,19,04,044,19,24,31,153,45,25,70,288,35,1*63
$GPGSV,3,3,11,29,35,210,43,31,16,310,46,32,32,270,46,1*5F
$GPGSV,3,1,10,02,38,102,,03,02,353,21,06,27,054,25,12,72,066,43,6*69
$GPGSV,3,2,10,19,04,044,,24,31,153,46,25,70,288,44,29,35,210,41,6*67
$GPGSV,3,3,10,31,16,310,41,32,32,270,42,6*63
$GLGSV,3,1,09,68,04,242,34,69,21,288,46,70,12,347,26,77,31,107,08,1*7A
$GLGSV,3,2,09,78,77,020,49,79,32,306,45,81,15,183,40,87,52,054,47,1*72
$GLGSV,3,3,09,88,57,140,47,1*45
$GLGSV,3,1,09,68,04,242,28,69,21,288,42,70,12,347,,77,31,107,17,3*7B
$GLGSV,3,2,09,78,77,020,43,79,32,306,42,81,15,183,42,87,52,054,,3*7C
$GLGSV,3,3,09,88,57,140,43,3*43
$GBGSV,3,1,11,02,04,106,,05,18,128,,10,06,080,22,12,29,190,44,1*7D
$GBGSV,3,2,11,13,29,088,29,24,75,288,40,25,18,300,48,26,52,127,40,1*75
$GBGSV,3,3,11,29,10,039,19,33,01,259,,35,52,071,43,1*41
$GBGSV,3,1,11,02,04,106,,05,18,128,,10,06,080,26,12,29,190,48,3*77
$GBGSV,3,2,11,13,29,088,25,24,75,288,,25,18,300,,26,52,127,,3*77
$GBGSV,3,3,11,29,10,039,,33,01,259,,35,52,071,,3*4C
$GNGLL,5025.4447576,N,01411.3818185,E,212447.00,A,D*7A
$GNRMC,212448.00,A,5025.4447567,N,01411.3818158,E,0.013,,241021,,,R,V*06
$GNVTG,,T,,M,0.013,N,0.024,K,D*3C
$GNGGA,212448.00,5025.4447567,N,01411.3818158,E,4,12,0.64,217.781,M,44.078,M,1.0,0084*67
$GNGSA,A,3,24,12,32,25,02,31,29,06,,,,,1.21,0.64,1.03,1*0D
$GNGSA,A,3,81,87,88,69,79,77,78,70,,,,,1.21,0.64,1.03,2*0F
$GNGSA,A,3,26,25,24,13,12,35,,,,,,,1.21,0.64,1.03,4*04
$GPGSV,3,1,11,02,38,102,27,03,02,353,26,06,27,054,31,11,,,30,1*5A
$GPGSV,3,2,11,12,72,066,46,19,04,044,19,24,31,153,45,25,70,288,36,1*60
$GPGSV,3,3,11,29,35,210,43,31,16,310,46,32,32,270,46,1*5F
$GPGSV,3,1,10,02,38,102,,03,02,353,20,06,27,054,25,12,72,066,43,6*68
$GPGSV,3,2,10,19,04,044,,24,31,153,46,25,70,288,44,29,35,210,41,6*67
$GPGSV,3,3,10,31,16,310,41,32,32,270,42,6*63
$GLGSV,3,1,09,68,04,242,34,69,21,288,46,70,12,347,26,77,31,107,12,1*71
$GLGSV,3,2,09,78,77,020,49,79,32,306,45,81,15,183,40,87,52,054,47,1*72
$GLGSV,3,3,09,88,57,140,47,1*45
$GLGSV,3,1,09,68,04,242,28,69,21,288,42,70,12,347,,77,31,107,16,3*7A
$GLGSV,3,2,09,78,77,020,43,79,32,306,42,81,15,183,42,87,52,054,,3*7C
$GLGSV,3,3,09,88,57,140,43,3*43
$GBGSV,3,1,11,02,04,106,,05,18,128,,10,06,080,22,12,29,190,44,1*7D
$GBGSV,3,2,11,13,29,088,29,24,75,288,40,25,18,300,48,26,52,127,40,1*75
$GBGSV,3,3,11,29,10,039,19,33,01,259,,35,52,071,44,1*46
$GBGSV,3,1,11,02,04,106,,05,18,128,,10,06,080,25,12,29,190,48,3*74
$GBGSV,3,2,11,13,29,088,25,24,75,288,,25,18,300,,26,52,127,,3*77
$GBGSV,3,3,11,29,10,039,,33,01,259,,35,52,071,,3*4C
$GNGLL,5025.4447567,N,01411.3818158,E,212448.00,A,D*75
$GNRMC,212449.00,A,5025.4447577,N,01411.3818160,E,0.016,,241021,,,R,V*08
$GNVTG,,T,,M,0.016,N,0.030,K,D*3C
$GNGGA,212449.00,5025.4447577,N,01411.3818160,E,4,12,0.64,217.780,M,44.078,M,1.0,0084*6D
$GNGSA,A,3,24,12,32,25,02,31,29,06,,,,,1.21,0.64,1.03,1*0D
$GNGSA,A,3,81,87,88,69,79,77,78,70,,,,,1.21,0.64,1.03,2*0F
$GNGSA,A,3,26,25,24,13,12,35,,,,,,,1.21,0.64,1.03,4*04
$GPGSV,3,1,11,02,38,102,27,03,02,353,27,06,27,054,30,11,,,30,1*5A
$GPGSV,3,2,11,12,72,066,46,19,04,044,20,24,31,153,45,25,70,288,37,1*6B
$GPGSV,3,3,11,29,35,210,43,31,16,310,46,32,32,270,46,1*5F
$GPGSV,3,1,10,02,38,102,,03,02,353,19,06,27,054,26,12,72,066,43,6*61
$GPGSV,3,2,10,19,04,044,,24,31,153,46,25,70,288,44,29,35,210,41,6*67
$GPGSV,3,3,10,31,16,310,41,32,32,270,42,6*63
$GLGSV,3,1,09,68,04,242,33,69,21,288,46,70,12,347,27,77,31,107,16,1*73
$GLGSV,3,2,09,78,77,020,49,79,32,306,45,81,15,183,40,87,52,054,47,1*72
$GLGSV,3,3,09,88,57,140,47,1*45
$GLGSV,3,1,09,68,04,242,28,69,21,288,42,70,12,347,,77,31,107,16,3*7A
$GLGSV,3,2,09,78,77,020,43,79,32,306,42,81,15,183,42,87,52,054,,3*7C
$GLGSV,3,3,09,88,57,140,43,3*43
$GBGSV,3,1,11,02,04,106,,05,18,128,,10,06,080,22,12,29,190,44,1*7D
$GBGSV,3,2,11,13,29,088,29,24,75,288,40,25,18,300,48,26,52,127,40,1*75
$GBGSV,3,3,11,29,10,039,20,33,01,259,,35,52,071,43,1*4B
$GBGSV,3,1,11,02,04,106,,05,18,128,,10,06,080,25,12,29,190,48,3*74
$GBGSV,3,2,11,13,29,088,25,24,75,288,,25,18,300,,26,52,127,,3*77
$GBGSV,3,3,11,29,10,039,,33,01,259,,35,52,071,,3*4C
$GNGLL,5025.4447577,N,01411.3818160,E,212449.00,A,D*7E
$GNRMC,212450.00,A,5025.4447575,N,01411.3818166,E,0.013,,241021,,,R,V*01
$GNVTG,,T,,M,0.013,N,0.023,K,D*3B
$GNGGA,212450.00,5025.4447575,N,01411.3818166,E,4,12,0.64,217.777,M,44.078,M,1.0,0084*69
$GNGSA,A,3,24,12,32,25,02,31,29,06,,,,,1.21,0.64,1.03,1*0D
$GNGSA,A,3,81,87,88,69,79,77,78,70,,,,,1.21,0.64,1.03,2*0F
$GNGSA,A,3,26,25,24,13,12,35,,,,,,,1.21,0.64,1.03,4*04
$GPGSV,3,1,11,02,38,102,27,03,02,353,27,06,27,054,30,11,,,29,1*52
$GPGSV,3,2,11,12,72,066,47,19,04,044,20,24,31,153,45,25,70,288,38,1*65
$GPGSV,3,3,11,29,35,210,43,31,16,310,46,32,32,270,45,1*5C
$GPGSV,3,1,10,02,38,102,,03,02,353,18,06,27,054,25,12,72,066,43,6*63
$GPGSV,3,2,10,19,04,044,,24,31,153,46,25,70,288,44,29,35,210,41,6*67
$GPGSV,3,3,10,31,16,310,41,32,32,270,42,6*63
$GLGSV,3,1,09,68,04,242,33,69,21,288,46,70,12,347,26,77,31,107,18,1*7C
$GLGSV,3,2,09,78,77,020,49,79,32,306,45,81,15,183,40,87,52,054,47,1*72
$GLGSV,3,3,09,88,57,140,47,1*45
$GLGSV,3,1,09,68,04,242,28,69,21,288,42,70,12,347,,77,31,107,15,3*79
$GLGSV,3,2,09,78,77,020,43,79,32,306,42,81,15,183,42,87,52,054,,3*7C
$GLGSV,3,3,09,88,57,140,43,3*43
$GBGSV,3,1,11,02,04,106,,05,18,128,,10,06,080,22,12,29,190,44,1*7D
$GBGSV,3,2,11,13,29,088,29,24,75,288,40,25,18,300,48,26,52,127,40,1*75
$GBGSV,3,3,11,29,10,039,19,33,01,259,,35,52,071,44,1*46
$GBGSV,3,1,11,02,04,106,,05,18,128,,10,06,080,25,12,29,190,48,3*74
$GBGSV,3,2,11,13,29,088,25,24,75,288,,25,18,300,,26,52,127,,3*77
$GBGSV,3,3,11,29,10,039,,33,01,259,,35,52,071,,3*4C
$GNGLL,5025.4447575,N,01411.3818166,E,212450.00,A,D*72
$GNRMC,212451.00,A,5025.4447587,N,01411.3818188,E,0.018,,241021,,,R,V*06
$GNVTG,,T,,M,0.018,N,0.032,K,D*30
$GNGGA,212451.00,5025.4447587,N,01411.3818188,E,4,12,0.64,217.772,M,44.078,M,1.0,0084*60
$GNGSA,A,3,24,12,32,25,02,31,29,06,,,,,1.21,0.64,1.03,1*0D
$GNGSA,A,3,81,87,88,69,79,77,78,70,,,,,1.21,0.64,1.03,2*0F
$GNGSA,A,3,26,25,24,13,12,35,,,,,,,1.21,0.64,1.03,4*04
$GPGSV,3,1,11,02,38,102,27,03,02,353,27,06,27,054,30,11,,,29,1*52
$GPGSV,3,2,11,12,72,066,47,19,04,044,20,24,31,153,45,25,70,288,38,1*65
$GPGSV,3,3,11,29,35,210,44,31,16,310,46,32,32,270,45,1*5B
$GPGSV,3,1,10,02,38,102,,03,02,353,18,06,27,054,25,12,72,066,43,6*63
$GPGSV,3,2,10,19,04,044,,24,31,153,46,25,70,288,44,29,35,210,42,6*64
$GPGSV,3,3,10,31,16,310,41,32,32,270,42,6*63
$GLGSV,3,1,09,68,04,242,33,69,21,288,46,70,12,347,27,77,31,107,19,1*7C
$GLGSV,3,2,09,78,77,020,49,79,32,306,45,81,15,183,40,87,52,054,47,1*72
$GLGSV,3,3,09,88,57,140,47,1*45
$GLGSV,3,1,09,68,04,242,28,69,21,288,42,70,12,347,,77,31,107,15,3*79
$GLGSV,3,2,09,78,77,020,43,79,32,306,43,81,15,183,42,87,52,054,,3*7D
$GLGSV,3,3,09,88,57,140,43,3*43
$GBGSV,3,1,11,02,04,106,,05,18,128,,10,06,080,22,12,29,190,44,1*7D
$GBGSV,3,2,11,13,29,088,29,24,75,288,41,25,18,300,48,26,52,127,40,1*74
$GBGSV,3,3,11,29,10,039,19,33,01,259,,35,52,071,44,1*46
$GBGSV,3,1,11,02,04,106,,05,18,128,,10,06,080,25,12,29,190,48,3*74
$GBGSV,3,2,11,13,29,088,24,24,75,288,,25,18,300,,26,52,127,,3*76
$GBGSV,3,3,11,29,10,039,,33,01,259,,35,52,071,,3*4C
$GNGLL,5025.4447587,N,01411.3818188,E,212451.00,A,D*7E
$GNRMC,212452.00,A,5025.4447589,N,01411.3818183,E,0.012,,241021,,,R,V*0A
$GNVTG,,T,,M,0.012,N,0.021,K,D*38
$GNGGA,212452.00,5025.4447589,N,01411.3818183,E,4,12,0.61,217.780,M,44.078,M,1.0,0084*6E
$GNGSA,A,3,24,12,32,25,02,31,29,06,,,,,1.13,0.61,0.96,1*04
$GNGSA,A,3,81,87,88,69,79,77,78,70,,,,,1.13,0.61,0.96,2*06
$GNGSA,A,3,26,25,24,13,12,35,,,,,,,1.13,0.61,0.96,4*0D
$GPGSV,3,1,11,02,38,102,26,03,02,353,26,06,27,054,30,11,,,28,1*53
$GPGSV,3,2,11,12,72,066,47,19,04,044,18,24,31,153,45,25,70,288,38,1*6E
$GPGSV,3,3,11,29,35,210,44,31,16,310,46,32,32,270,45,1*5B
$GPGSV,3,1,10,02,38,102,,03,02,353,18,06,27,054,25,12,72,066,43,6*63
$GPGSV,3,2,10,19,04,044,,24,31,153,46,25,70,288,44,29,35,210,41,6*67
$GPGSV,3,3,10,31,16,310,41,32,32,270,42,6*63
$GLGSV,3,1,09,68,04,242,33,69,21,288,46,70,12,347,27,77,31,107,20,1*76
$GLGSV,3,2,09,78,77,020,49,79,32,306,45,81,15,183,40,87,52,054,47,1*72
$GLGSV,3,3,09,88,57,140,47,1*45
