$GNGGA,212535.00,5025.4447575,N,01411.3818183,E,4,12,0.60,217.767,M,44.078,M,1.0,0084*65
$GNGSA,A,3,24,25,31,32,29,02,12,06,,,,,1.17,0.60,1.01,1*0E
$GNGSA,A,3,33,31,26,24,01,13,05,09,,,,,1.17,0.60,1.01,3*0D
$GNGSA,A,3,12,13,24,25,26,35,,,,,,,1.17,0.60,1.01,4*07
$GPGSV,3,1,11,02,39,102,28,03,02,352,17,06,27,054,32,11,,,29,1*5C
$GPGSV,3,2,11,12,71,067,48,19,04,044,,24,31,153,44,25,70,289,36,1*64
$GPGSV,3,3,11,29,35,210,45,31,16,310,45,32,32,269,44,1*50
$GPGSV,3,1,10,02,39,102,,03,02,352,13,06,27,054,27,12,71,067,44,6*6F
$GPGSV,3,2,10,19,04,044,,24,31,153,45,25,70,289,43,29,35,210,41,6*62
$GPGSV,3,3,10,31,16,310,40,32,32,269,42,6*6A
$GAGSV,3,1,10,01,52,090,37,04,06,209,,05,20,311,44,09,26,257,43,7*7C
$GAGSV,3,2,10,13,16,032,26,21,05,097,27,24,19,282,48,26,44,087,36,7*7A
$GAGSV,3,3,10,31,67,295,42,33,31,149,44,7*77
$GAGSV,3,1,10,01,52,090,41,04,06,209,25,05,20,311,42,09,26,257,46,2*7C
$GAGSV,3,2,10,13,16,032,28,21,05,097,24,24,19,282,46,26,44,087,38,2*72
$GAGSV,3,3,10,31,67,295,49,33,31,149,44,2*79
$GBGSV,3,1,11,02,04,106,,05,18,128,,10,06,080,26,12,29,190,43,1*7E
$GBGSV,3,2,11,13,29,088,28,24,75,288,39,25,18,300,48,26,52,127,43,1*79
$GBGSV,3,3,11,29,09,039,24,33,01,259,27,35,52,071,44,1*45
$GBGSV,3,1,11,02,04,106,,05,18,128,,10,06,080,,12,29,190,50,3*7A
$GBGSV,3,2,11,13,29,088,,24,75,288,,25,18,300,,26,52,127,,3*70
$GBGSV,3,3,11,29,09,039,,33,01,259,,35,52,071,,3*44
$GNGLL,5025.4447575,N,01411.3818183,E,212535.00,A,D*7B
$GNVTG,,T,,M,0.012,N,0.023,K,D*3A
$GNGGA,212536.00,5025.4447576,N,01411.3818170,E,4,12,0.60,217.773,M,44.078,M,1.0,0084*6C
$GNGSA,A,3,24,25,31,32,29,02,12,06,,,,,1.17,0.60,1.01,1*0E
$GNGSA,A,3,33,31,26,24,01,13,05,09,,,,,1.17,0.60,1.01,3*0D
$GNGSA,A,3,12,13,24,25,26,35,,,,,,,1.17,0.60,1.01,4*07
$GPGSV,3,1,11,02,39,102,29,03,02,352,15,06,27,054,31,11,,,28,1*5D
$GPGSV,3,2,11,12,71,067,48,19,04,044,,24,31,153,44,25,70,289,35,1*67
$GPGSV,3,3,11,29,35,210,45,31,16,310,46,32,32,269,44,1*53
$GPGSV,3,1,10,02,39,102,,03,02,352,13,06,27,054,27,12,71,067,44,6*6F
$GPGSV,3,2,10,19,04,044,,24,31,153,45,25,70,289,44,29,35,210,41,6*65
$GPGSV,3,3,10,31,16,310,40,32,32,269,42,6*6A
$GAGSV,3,1,10,01,52,090,37,04,06,209,,05,20,311,44,09,26,257,43,7*7C
$GAGSV,3,2,10,13,16,032,26,21,05,097,27,24,19,282,48,26,44,087,36,7*7A
$GAGSV,3,3,10,31,67,295,42,33,31,149,44,7*77
$GAGSV,3,1,10,01,52,090,41,04,06,209,26,05,20,311,42,09,26,257,46,2*7F
$GAGSV,3,2,10,13,16,032,29,21,05,097,25,24,19,282,47,26,44,087,38,2*73
$GAGSV,3,3,10,31,67,295,49,33,31,149,44,2*79
$GBGSV,3,1,11,02,04,106,,05,18,128,,10,06,080,26,12,29,190,43,1*7E
$GBGSV,3,2,11,13,29,088,28,24,75,288,39,25,18,300,48,26,52,127,43,1*79
$GBGSV,3,3,11,29,09,039,24,33,01,259,27,35,52,071,44,1*45
$GBGSV,3,1,11,02,04,106,,05,18,128,,10,06,080,,12,29,190,50,3*7A
$GBGSV,3,2,11,13,29,088,,24,75,288,,25,18,300,,26,52,127,,3*70
$GBGSV,3,3,11,29,09,039,,33,01,259,,35,52,071,,3*44
$GNGLL,5025.4447576,N,01411.3818170,E,212536.00,A,D*77
$GNRMC,212537.00,A,5025.4447568,N,01411.3818188,E,0.012,,241021,,,R,V*0C
$GNVTG,,T,,M,0.012,N,0.022,K,D*3B
$GNGGA,212537.00,5025.4447568,N,01411.3818188,E,4,12,0.60,217.764,M,44.078,M,1.0,0084*63
$GNGSA,A,3,24,25,31,32,29,02,12,06,,,,,1.17,0.60,1.01,1*0E
$GNGSA,A,3,33,31,26,24,01,13,05,09,,,,,1.17,0.60,1.01,3*0D
$GNGSA,A,3,12,13,24,25,26,35,,,,,,,1.17,0.60,1.01,4*07
$GPGSV,3,1,11,02,39,102,30,03,02,352,13,06,27,054,31,11,,,27,1*5C
$GPGSV,3,2,11,12,71,067,48,19,04,044,,24,31,153,44,25,70,289,35,1*67
$GPGSV,3,3,11,29,35,210,45,31,16,310,45,32,32,269,44,1*50
$GPGSV,3,1,10,02,39,102,,03,02,352,16,06,27,054,27,12,71,067,44,6*6A
$GPGSV,3,2,10,19,04,044,,24,31,153,45,25,70,289,44,29,35,210,41,6*65
$GPGSV,3,3,10,31,16,310,40,32,32,269,42,6*6A
$GAGSV,3,1,10,01,52,090,37,04,06,209,,05,20,311,44,09,26,257,43,7*7C
$GAGSV,3,2,10,13,16,032,26,21,05,097,27,24,19,282,48,26,44,087,36,7*7A
$GAGSV,3,3,10,31,67,295,42,33,31,149,44,7*77
$GAGSV,3,1,10,01,52,090,41,04,06,209,26,05,20,311,42,09,26,257,46,2*7F
$GAGSV,3,2,10,13,16,032,29,21,05,097,25,24,19,282,47,26,44,087,38,2*73
$GAGSV,3,3,10,31,67,295,49,33,31,149,44,2*79
$GBGSV,3,1,11,02,04,106,,05,18,128,,10,06,080,26,12,29,190,42,1*7F
$GBGSV,3,2,11,13,29,088,28,24,75,288,39,25,18,300,49,26,52,127,43,1*78
$GBGSV,3,3,11,29,09,039,24,33,01,259,27,35,52,071,44,1*45
$GBGSV,3,1,11,02,04,106,,05,18,128,,10,06,080,,12,29,190,50,3*7A
$GBGSV,3,2,11,13,29,088,,24,75,288,,25,18,300,,26,52,127,,3*70
$GBGSV,3,3,11,29,09,039,,33,01,259,,35,52,071,,3*44
$GNGLL,5025.4447568,N,01411.3818188,E,212537.00,A,D*7E
$GNRMC,212538.00,A,5025.4447576,N,01411.3818187,E,0.006,,241021,,,R,V*06
$GNVTG,,T,,M,0.006,N,0.011,K,D*3E
$GNGGA,212538.00,5025.4447576,N,01411.3818187,E,4,12,0.60,217.765,M,44.078,M,1.0,0084*6D
$GNGSA,A,3,24,25,31,32,29,02,12,06,,,,,1.17,0.60,1.01,1*0E
$GNGSA,A,3,33,31,26,24,01,13,05,09,,,,,1.17,0.60,1.01,3*0D
$GNGSA,A,3,12,13,24,25,26,35,,,,,,,1.17,0.60,1.01,4*07
$GPGSV,3,1,11,02,39,102,31,03,02,352,09,06,27,054,31,11,,,26,1*57
$GPGSV,3,2,11,12,71,067,48,19,04,044,,24,31,153,44,25,70,289,34,1*66
$GPGSV,3,3,11,29,35,210,45,31,16,310,45,32,32,269,44,1*50
$GPGSV,3,1,10,02,39,102,,03,02,352,17,06,27,054,27,12,71,067,44,6*6B
$GPGSV,3,2,10,19,04,044,,24,31,153,45,25,70,289,44,29,35,210,40,6*64
$GPGSV,3,3,10,31,16,310,40,32,32,269,42,6*6A
$GAGSV,3,1,10,01,52,090,37,04,06,209,,05,20,311,44,09,26,257,43,7*7C
$GAGSV,3,2,10,13,16,032,26,21,05,097,27,24,19,282,48,26,44,087,35,7*79
$GAGSV,3,3,10,31,67,295,42,33,31,149,43,7*70
$GAGSV,3,1,10,01,52,090,41,04,06,209,26,05,20,311,42,09,26,257,46,2*7F
$GAGSV,3,2,10,13,16,032,29,21,05,097,25,24,19,282,47,26,44,087,38,2*73
$GAGSV,3,3,10,31,67,295,49,33,31,149,44,2*79
$GBGSV,3,1,11,02,04,106,,05,18,128,,10,06,080,26,12,29,190,42,1*7F
$GBGSV,3,2,11,13,29,088,28,24,75,288,39,25,18,300,49,26,52,127,44,1*7F
$GBGSV,3,3,11,29,09,039,24,33,01,259,27,35,52,071,44,1*45
$GBGSV,3,1,11,02,04,106,,05,18,128,,10,06,080,,12,29,190,50,3*7A
$GBGSV,3,2,11,13,29,088,,24,75,288,,25,18,300,,26,52,127,,3*70
$GBGSV,3,3,11,29,09,039,,33,01,259,,35,52,071,,3*44
$GNGLL,5025.4447576,N,01411.3818187,E,212538.00,A,D*71
$GNRMC,212539.00,A,5025.4447577,N,01411.3818179,E,0.014,,241021,,,R,V*04
$GNVTG,,T,,M,0.014,N,0.025,K,D*3A
$GNGGA,212539.00,5025.4447577,N,01411.3818179,E,4,12,0.60,217.766,M,44.078,M,1.0,0084*6F
$GNGSA,A,3,24,25,31,32,29,02,12,06,,,,,1.17,0.60,1.01,1*0E
$GNGSA,A,3,33,31,26,24,01,13,05,09,,,,,1.17,0.60,1.01,3*0D
$GNGSA,A,3,12,13,24,25,26,35,,,,,,,1.17,0.60,1.01,4*07
$GPGSV,3,1,11,02,39,102,33,03,02,352,08,06,27,054,31,11,,,26,1*54
$GPGSV,3,2,11,12,71,067,48,19,04,044,,24,31,153,44,25,70,289,35,1*67
$GPGSV,3,3,11,29,35,210,45,31,16,310,46,32,32,269,44,1*53
$GPGSV,3,1,10,02,39,102,,03,02,352,18,06,27,054,27,12,71,067,44,6*64
$GPGSV,3,2,10,19,04,044,,24,31,153,45,25,70,289,44,29,35,210,41,6*65
$GPGSV,3,3,10,31,16,310,40,32,32,269,42,6*6A
$GAGSV,3,1,10,01,52,090,37,04,06,209,,05,20,311,44,09,26,257,43,7*7C
$GAGSV,3,2,10,13,16,032,26,21,05,097,27,24,19,282,48,26,44,087,35,7*79
$GAGSV,3,3,10,31,67,295,42,33,31,149,43,7*70
$GAGSV,3,1,10,01,52,090,41,04,06,209,25,05,20,311,42,09,26,257,46,2*7C
$GAGSV,3,2,10,13,16,032,29,21,05,097,25,24,19,282,47,26,44,087,38,2*73
$GAGSV,3,3,10,31,67,295,49,33,31,149,44,2*79
$GBGSV,3,1,11,02,04,106,,05,18,128,,10,06,080,25,12,29,190,42,1*7C
$GBGSV,3,2,11,13,29,088,28,24,75,288,39,25,18,300,49,26,52,127,44,1*7F
$GBGSV,3,3,11,29,09,039,24,33,01,259,27,35,52,071,44,1*45
$GBGSV,3,1,11,02,04,106,,05,18,128,,10,06,080,,12,29,190,50,3*7A
$GBGSV,3,2,11,13,29,088,,24,75,288,,25,18,300,,26,52,127,,3*70
$GBGSV,3,3,11,29,09,039,,33,01,259,,35,52,071,,3*44
$GNGLL,5025.4447577,N,01411.3818179,E,212539.00,A,D*70
$GNRMC,212540.00,A,5025.4447579,N,01411.3818184,E,0.010,,241021,,,R,V*02
$GNVTG,,T,,M,0.010,N,0.019,K,D*31
$GNGGA,212540.00,5025.4447579,N,01411.3818184,E,4,12,0.60,217.766,M,44.078,M,1.0,0084*6D
$GNGSA,A,3,24,25,31,32,29,02,12,06,,,,,1.17,0.60,1.01,1*0E
$GNGSA,A,3,33,31,26,24,01,13,05,09,,,,,1.17,0.60,1.01,3*0D
$GNGSA,A,3,12,13,24,25,26,35,,,,,,,1.17,0.60,1.01,4*07
$GPGSV,3,1,11,02,39,102,33,03,02,352,08,06,27,054,31,11,,,27,1*55
$GPGSV,3,2,11,12,71,067,48,19,04,044,,24,31,153,44,25,70,289,36,1*64
$GPGSV,3,3,11,29,35,210,45,31,16,310,46,32,32,269,45,1*52
$GPGSV,3,1,10,02,39,102,,03,02,352,18,06,27,054,27,12,71,067,44,6*64
$GPGSV,3,2,10,19,04,044,,24,31,153,45,25,70,289,44,29,35,210,41,6*65
$GPGSV,3,3,10,31,16,310,40,32,32,269,42,6*6A
$GAGSV,3,1,10,01,52,090,37,04,06,209,,05,20,311,44,09,26,257,43,7*7C
$GAGSV,3,2,10,13,16,032,26,21,05,097,27,24,19,282,48,26,44,087,35,7*79
$GAGSV,3,3,10,31,67,295,42,33,31,149,43,7*70
$GAGSV,3,1,10,01,52,090,41,04,06,209,26,05,20,311,42,09,26,257,46,2*7F
$GAGSV,3,2,10,13,16,032,29,21,05,097,25,24,19,282,47,26,44,087,38,2*73
$GAGSV,3,3,10,31,67,295,49,33,31,149,44,2*79
$GBGSV,3,1,11,02,04,106,,05,18,128,,10,06,080,25,12,29,190,42,1*7C
$GBGSV,3,2,11,13,29,088,28,24,75,288,39,25,18,300,49,26,52,127,44,1*7F
$GBGSV,3,3,11,29,09,039,25,33,01,259,27,35,52,071,44,1*44
$GBGSV,3,1,11,02,04,106,,05,18,128,,10,06,080,,12,29,190,50,3*7A
$GBGSV,3,2,11,13,29,088,,24,75,288,,25,18,300,,26,52,127,,3*70
$GBGSV,3,3,11,29,09,039,,33,01,259,,35,52,071,,3*44
$GNGLL,5025.4447579,N,01411.3818184,E,212540.00,A,D*72
$GNRMC,212541.00,A,5025.4447563,N,01411.3818168,E,0.003,,241021,,,R,V*08
$GNVTG,,T,,M,0.003,N,0.006,K,D*3D
$GNGGA,212541.00,5025.4447563,N,01411.3818168,E,4,12,0.60,217.770,M,44.078,M,1.0,0084*62
$GNGSA,A,3,24,25,31,32,29,02,12,06,,,,,1.17,0.60,1.01,1*0E
$GNGSA,A,3,33,31,26,24,01,13,05,09,,,,,1.17,0.60,1.01,3*0D
$GNGSA,A,3,12,13,24,25,26,35,,,,,,,1.17,0.60,1.01,4*07
$GPGSV,3,1,11,02,39,102,34,03,02,352,07,06,27,054,30,11,,,28,1*53
$GPGSV,3,2,11,12,71,067,48,19,04,044,,24,31,153,44,25,70,289,36,1*64
$GPGSV,3,3,11,29,35,210,45,31,16,310,46,32,32,269,44,1*53
$GPGSV,3,1,10,02,39,102,,03,02,352,18,06,27,054,27,12,71,067,44,6*64
$GPGSV,3,2,10,19,04,044,,24,31,153,45,25,70,289,44,29,35,210,41,6*65
$GPGSV,3,3,10,31,16,310,40,32,32,269,42,6*6A
$GAGSV,3,1,10,01,52,090,37,04,06,209,,05,20,311,44,09,26,257,43,7*7C
$GAGSV,3,2,10,13,16,032,26,21,05,097,27,24,19,282,48,26,44,087,35,7*79
$GAGSV,3,3,10,31,68,295,42,33,31,149,43,7*7F
$GAGSV,3,1,10,01,52,090,41,04,06,209,25,05,20,311,42,09,26,257,46,2*7C
$GAGSV,3,2,10,13,16,032,29,21,05,097,25,24,19,282,47,26,44,087,38,2*73
$GAGSV,3,3,10,31,68,295,49,33,31,149,44,2*76
$GBGSV,3,1,11,02,04,106,,05,18,128,,10,06,080,25,12,29,190,42,1*7C
$GBGSV,3,2,11,13,29,088,29,24,75,288,39,25,18,300,49,26,52,127,44,1*7E
$GBGSV,3,3,11,29,09,039,24,33,01,259,27,35,52,071,44,1*45
$GBGSV,3,1,11,02,04,106,,05,18,128,,10,06,080,,12,29,190,50,3*7A
$GBGSV,3,2,11,13,29,088,,24,75,288,,25,18,300,,26,52,127,,3*70
$GBGSV,3,3,11,29,09,039,,33,01,259,,35,52,071,,3*44
$GNGLL,5025.4447563,N,01411.3818168,E,212541.00,A,D*7A
$GNRMC,212542.00,A,5025.4447570,N,01411.3818163,E,0.002,,241021,,,R,V*03
$GNVTG,,T,,M,0.002,N,0.004,K,D*3E
$GNGGA,212542.00,5025.4447570,N,01411.3818163,E,4,12,0.60,217.771,M,44.078,M,1.0,0084*69
$GNGSA,A,3,24,25,31,32,29,02,12,06,,,,,1.17,0.60,1.01,1*0E
$GNGSA,A,3,33,31,26,24,01,13,05,09,,,,,1.17,0.60,1.01,3*0D
$GNGSA,A,3,12,13,24,25,26,35,,,,,,,1.17,0.60,1.01,4*07
$GPGSV,3,1,11,02,39,102,35,03,02,352,09,06,27,054,30,11,,,29,1*5D
$GPGSV,3,2,11,12,71,067,48,19,04,044,,24,31,153,44,25,70,289,37,1*65
$GPGSV,3,3,11,29,35,210,45,31,16,310,46,32,32,269,45,1*52
$GPGSV,3,1,10,02,39,102,,03,02,352,18,06,27,054,27,12,71,067,44,6*64
$GPGSV,3,2,10,19,04,044,,24,31,153,45,25,70,289,45,29,35,210,40,6*65
$GPGSV,3,3,10,31,16,310,40,32,32,269,42,6*6A
$GAGSV,3,1,10,01,52,090,37,04,06,209,,05,20,311,44,09,26,257,43,7*7C
$GAGSV,3,2,10,13,16,032,27,21,05,097,27,24,19,282,48,26,44,087,34,7*79
$GAGSV,3,3,10,31,68,295,42,33,31,149,43,7*7F
$GAGSV,3,1,10,01,52,090,41,04,06,209,25,05,20,311,42,09,26,257,46,2*7C
$GAGSV,3,2,10,13,16,032,29,21,05,097,25,24,19,282,47,26,44,087,38,2*73
$GAGSV,3,3,10,31,68,295,49,33,31,149,44,2*76
$GBGSV,3,1,11,02,04,106,,05,18,128,,10,06,080,25,12,29,190,42,1*7C
$GBGSV,3,2,11,13,29,088,28,24,75,288,39,25,18,300,49,26,52,127,44,1*7F
$GBGSV,3,3,11,29,09,039,24,33,01,259,28,35,52,071,44,1*4A
$GBGSV,3,1,11,02,04,106,,05,18,128,,10,06,080,,12,29,190,50,3*7A
$GBGSV,3,2,11,13,29,088,,24,75,288,,25,18,300,,26,52,127,,3*70
$GBGSV,3,3,11,29,09,039,,33,01,259,,35,52,071,,3*44
$GNGLL,5025.4447570,N,01411.3818163,E,212542.00,A,D*70
$GNRMC,212543.00,A,5025.4447582,N,01411.3818184,E,0.015,,241021,,,R,V*00
$GNVTG,,T,,M,0.015,N,0.027,K,D*39
$GNGGA,212543.00,5025.4447582,N,01411.3818184,E,4,12,0.60,217.767,M,44.078,M,1.0,0084*6B
$GNGSA,A,3,24,25,31,32,29,02,12,06,,,,,1.17,0.60,1.01,1*0E
$GNGSA,A,3,33,31,26,24,01,13,05,09,,,,,1.17,0.60,1.01,3*0D
$GNGSA,A,3,12,13,24,25,26,35,,,,,,,1.17,0.60,1.01,4*07
$GPGSV,3,1,11,02,39,102,35,03,02,352,12,06,27,054,31,11,,,30,1*5E
$GPGSV,3,2,11,12,71,067,48,19,04,044,,24,31,153,44,25,70,289,36,1*64
$GPGSV,3,3,11,29,35,210,45,31,16,310,46,32,32,269,45,1*52
$GPGSV,3,1,10,02,39,102,,03,02,352,18,06,27,054,27,12,71,067,44,6*64
$GPGSV,3,2,10,19,04,044,,24,31,153,45,25,70,289,45,29,35,210,41,6*64
$GPGSV,3,3,10,31,16,310,40,32,32,269,42,6*6A
$GAGSV,3,1,10,01,52,090,37,04,06,209,,05,20,311,44,09,26,257,43,7*7C
$GAGSV,3,2,10,13,16,032,27,21,05,097,27,24,19,282,48,26,44,087,34,7*79
$GAGSV,3,3,10,31,68,295,42,33,31,149,43,7*7F
$GAGSV,3,1,10,01,52,090,41,04,06,209,25,05,20,311,42,09,26,257,46,2*7C
$GAGSV,3,2,10,13,16,032,29,21,05,097,26,24,19,282,47,26,44,087,38,2*70
$GAGSV,3,3,10,31,68,295,49,33,31,149,44,2*76
$GBGSV,3,1,11,02,04,106,,05,18,128,,10,06,080,24,12,29,190,42,1*7D
$GBGSV,3,2,11,13,29,088,28,24,75,288,39,25,18,300,49,26,52,127,44,1*7F
$GBGSV,3,3,11,29,09,039,25,33,01,259,27,35,52,071,44,1*44
$GBGSV,3,1,11,02,04,106,,05,18,128,,10,06,080,,12,29,190,50,3*7A
$GBGSV,3,2,11,13,29,088,,24,75,288,,25,18,300,,26,52,127,,3*70
$GBGSV,3,3,11,29,09,039,,33,01,259,,35,52,071,,3*44
$GNGLL,5025.4447582,N,01411.3818184,E,212543.00,A,D*75
$GNRMC,212544.00,A,5025.4447572,N,01411.3818172,E,0.002,,241021,,,R,V*07
$GNVTG,,T,,M,0.002,N,0.003,K,D*39
$GNGGA,212544.00,5025.4447572,N,01411.3818172,E,4,12,0.60,217.773,M,44.078,M,1.0,0084*6F
$GNGSA,A,3,24,25,31,32,29,02,12,06,,,,,1.17,0.60,1.01,1*0E
$GNGSA,A,3,33,31,26,24,01,13,05,09,,,,,1.17,0.60,1.01,3*0D
$GNGSA,A,3,12,13,24,25,26,35,,,,,,,1.17,0.60,1.01,4*07
$GPGSV,3,1,11,02,39,102,36,03,02,352,13,06,27,054,30,11,,,31,1*5C
$GPGSV,3,2,11,12,71,067,47,19,04,044,,24,31,153,44,25,70,289,37,1*6A
$GPGSV,3,3,11,29,35,210,45,31,16,310,46,32,32,269,44,1*53
$GPGSV,3,1,10,02,39,102,,03,02,352,19,06,27,054,26,12,71,067,44,6*64
$GPGSV,3,2,10,19,04,044,,24,31,153,45,25,70,289,45,29,35,210,41,6*64
$GPGSV,3,3,10,31,16,310,40,32,32,269,42,6*6A
$GAGSV,3,1,10,01,52,090,37,04,06,209,,05,20,311,44,09,26,257,43,7*7C
$GAGSV,3,2,10,13,16,032,27,21,05,097,27,24,19,282,48,26,44,087,34,7*79
$GAGSV,3,3,10,31,68,295,42,33,31,149,43,7*7F
$GAGSV,3,1,10,01,52,090,41,04,06,209,25,05,20,311,42,09,26,257,46,2*7C
$GAGSV,3,2,10,13,16,032,28,21,05,097,26,24,19,282,47,26,44,087,38,2*71
$GAGSV,3,3,10,31,68,295,49,33,31,149,44,2*76
$GBGSV,3,1,11,02,04,106,,05,18,128,,10,06,080,24,12,29,190,42,1*7D
$GBGSV,3,2,11,13,29,088,29,24,75,288,39,25,18,300,49,26,52,127,44,1*7E
$GBGSV,3,3,11,29,09,039,24,33,01,259,27,35,52,071,44,1*45
$GBGSV,3,1,11,02,04,106,,05,18,128,,10,06,080,,12,29,190,50,3*7A
$GBGSV,3,2,11,13,29,088,,24,75,288,,25,18,300,,26,52,127,,3*70
$GBGSV,3,3,11,29,09,039,,33,01,259,,35,52,071,,3*44
$GNGLL,5025.4447572,N,01411.3818172,E,212544.00,A,D*74
$GNRMC,212545.00,A,5025.4447574,N,01411.3818158,E,0.001,,241021,,,R,V*0B
$GNVTG,,T,,M,0.001,N,0.002,K,D*3B
