$GNGGA,213515.00,5025.4447568,N,01411.3818063,E,4,12,0.64,217.763,M,44.078,M,1.0,0084*65
$GNGSA,A,3,24,25,29,31,32,12,02,06,,,,,1.29,0.64,1.12,1*05
$GNGSA,A,3,33,31,24,26,01,09,05,13,,,,,1.29,0.64,1.12,3*06
$GNGSA,A,3,13,12,24,26,25,35,,,,,,,1.29,0.64,1.12,4*0C
$GPGSV,3,1,11,02,40,097,39,03,01,349,19,06,26,049,29,11,,,20,1*56
$GPGSV,3,2,11,12,67,073,47,19,00,045,21,24,27,154,48,25,74,295,40,1*6B
$GPGSV,3,3,11,29,40,212,46,31,20,310,46,32,30,265,47,1*58
$GPGSV,3,1,10,02,40,097,,03,01,349,28,06,26,049,20,12,67,073,43,6*62
$GPGSV,3,2,10,19,00,045,,24,27,154,45,25,74,295,45,29,40,212,39,6*67
$GPGSV,3,3,10,31,20,310,40,32,30,265,43,6*60
$GAGSV,3,1,10,01,49,093,28,04,03,208,22,05,21,308,45,09,23,255,46,7*75
$GAGSV,3,2,10,13,13,030,25,21,03,100,,24,21,284,46,26,45,082,41,7*75
$GAGSV,3,3,10,31,71,298,40,33,35,148,44,7*7A
$GAGSV,3,1,10,01,49,093,43,04,03,208,19,05,21,308,44,09,23,255,48,2*7A
$GAGSV,3,2,10,13,13,030,,21,03,100,,24,21,284,49,26,45,082,36,2*78
$GAGSV,3,3,10,31,71,298,47,33,35,148,42,2*7E
$GBGSV,3,1,10,02,04,106,,05,18,128,,10,05,082,11,12,33,190,40,1*72
$GBGSV,3,2,10,13,31,087,28,24,79,279,43,25,21,301,48,26,48,129,40,1*7C
$GBGSV,3,3,10,29,06,039,25,35,50,066,42,1*72
$GBGSV,3,1,10,02,04,106,,05,18,128,,10,05,082,,12,33,190,48,3*78
$GBGSV,3,2,10,13,31,087,27,24,79,279,,25,21,301,,26,48,129,,3*7E
$GBGSV,3,3,10,29,06,039,,35,50,066,,3*71
$GNGLL,5025.4447568,N,01411.3818063,E,213515.00,A,D*7B
$GNVTG,,T,,M,0.016,N,0.030,K,D*3C
$GNGGA,213516.00,5025.4447568,N,01411.3818071,E,4,12,0.64,217.762,M,44.078,M,1.0,0084*64
$GNGSA,A,3,24,25,29,31,32,12,02,06,,,,,1.29,0.64,1.12,1*05
$GNGSA,A,3,33,31,24,26,01,09,05,13,,,,,1.29,0.64,1.12,3*06
$GNGSA,A,3,13,12,24,26,25,35,,,,,,,1.29,0.64,1.12,4*0C
$GPGSV,3,1,11,02,40,097,39,03,01,349,19,06,26,049,29,11,,,20,1*56
$GPGSV,3,2,11,12,67,073,47,19,00,045,19,24,27,154,48,25,74,295,40,1*60
$GPGSV,3,3,11,29,40,212,46,31,20,310,46,32,30,265,47,1*58
$GPGSV,3,1,10,02,40,097,,03,01,349,28,06,26,049,20,12,67,073,43,6*62
$GPGSV,3,2,10,19,00,045,,24,27,154,45,25,74,295,45,29,40,212,39,6*67
$GPGSV,3,3,10,31,20,310,40,32,30,265,43,6*60
$GAGSV,3,1,10,01,49,093,29,04,03,208,21,05,21,308,45,09,23,255,46,7*77
$GAGSV,3,2,10,13,13,030,25,21,03,100,,24,21,284,46,26,45,082,41,7*75
$GAGSV,3,3,10,31,71,298,40,33,35,148,44,7*7A
$GAGSV,3,1,10,01,49,093,43,04,03,208,19,05,21,308,44,09,23,255,48,2*7A
$GAGSV,3,2,10,13,13,030,,21,03,100,,24,21,284,49,26,45,082,36,2*78
$GAGSV,3,3,10,31,71,298,47,33,35,148,41,2*7D
$GBGSV,3,1,10,02,04,106,,05,18,128,,10,05,082,11,12,33,190,40,1*72
$GBGSV,3,2,10,13,31,087,28,24,79,279,43,25,21,301,48,26,48,129,40,1*7C
$GBGSV,3,3,10,29,06,039,25,35,50,066,42,1*72
$GBGSV,3,1,10,02,04,106,,05,18,128,,10,05,082,,12,33,190,48,3*78
$GBGSV,3,2,10,13,31,087,27,24,79,279,,25,21,301,,26,48,129,,3*7E
$GBGSV,3,3,10,29,06,039,,35,50,066,,3*71
$GNGLL,5025.4447568,N,01411.3818071,E,213516.00,A,D*7B
$GNRMC,213517.00,A,5025.4447553,N,01411.3818060,E,0.005,,241021,,,R,V*06
$GNVTG,,T,,M,0.005,N,0.009,K,D*34
$GNGGA,213517.00,5025.4447553,N,01411.3818060,E,4,12,0.64,217.768,M,44.078,M,1.0,0084*67
$GNGSA,A,3,24,25,29,31,32,12,02,06,,,,,1.29,0.64,1.12,1*05
$GNGSA,A,3,33,31,24,26,01,09,05,13,,,,,1.29,0.64,1.12,3*06
$GNGSA,A,3,13,12,24,26,25,35,,,,,,,1.29,0.64,1.12,4*0C
$GPGSV,3,1,11,02,40,097,39,03,01,349,20,06,26,049,29,11,,,21,1*5D
$GPGSV,3,2,11,12,67,073,47,19,00,045,19,24,27,154,48,25,74,295,40,1*60
$GPGSV,3,3,11,29,40,212,46,31,20,310,46,32,30,265,47,1*58
$GPGSV,3,1,10,02,40,097,,03,01,349,27,06,26,049,19,12,67,073,43,6*67
$GPGSV,3,2,10,19,00,045,,24,27,154,45,25,74,295,45,29,40,212,39,6*67
$GPGSV,3,3,10,31,20,310,40,32,30,265,43,6*60
$GAGSV,3,1,10,01,49,093,29,04,03,208,21,05,21,308,45,09,23,255,46,7*77
$GAGSV,3,2,10,13,13,030,25,21,02,100,,24,21,284,46,26,45,082,41,7*74
$GAGSV,3,3,10,31,71,298,40,33,35,148,44,7*7A
$GAGSV,3,1,10,01,49,093,43,04,03,208,19,05,21,308,44,09,23,255,47,2*75
$GAGSV,3,2,10,13,13,030,,21,02,100,,24,21,284,49,26,45,082,36,2*79
$GAGSV,3,3,10,31,71,298,47,33,35,148,41,2*7D
$GBGSV,3,1,10,02,04,106,,05,18,128,,10,05,082,12,12,33,190,40,1*71
$GBGSV,3,2,10,13,31,087,28,24,79,279,43,25,21,301,48,26,48,129,40,1*7C
$GBGSV,3,3,10,29,06,039,25,35,50,066,42,1*72
$GBGSV,3,1,10,02,04,106,,05,18,128,,10,05,082,,12,33,190,48,3*78
$GBGSV,3,2,10,13,31,087,27,24,79,279,,25,21,301,,26,48,129,,3*7E
$GBGSV,3,3,10,29,06,039,,35,50,066,,3*71
$GNGLL,5025.4447553,N,01411.3818060,E,213517.00,A,D*72
$GNRMC,213518.00,A,5025.4447558,N,01411.3818058,E,0.013,,241021,,,R,V*0E
$GNVTG,,T,,M,0.013,N,0.025,K,D*3D
$GNGGA,213518.00,5025.4447558,N,01411.3818058,E,4,12,0.64,217.764,M,44.078,M,1.0,0084*64
$GNGSA,A,3,24,25,29,31,32,12,02,06,,,,,1.29,0.64,1.12,1*05
$GNGSA,A,3,33,31,24,26,01,09,05,13,,,,,1.29,0.64,1.12,3*06
$GNGSA,A,3,13,12,24,26,25,35,,,,,,,1.29,0.64,1.12,4*0C
$GPGSV,3,1,11,02,40,097,40,03,01,349,21,06,26,049,29,11,,,23,1*50
$GPGSV,3,2,11,12,67,073,47,19,00,045,20,24,27,154,48,25,74,295,40,1*6A
$GPGSV,3,3,11,29,40,212,46,31,20,310,46,32,30,265,47,1*58
$GPGSV,3,1,10,02,40,097,,03,01,349,27,06,26,049,20,12,67,073,43,6*6D
$GPGSV,3,2,10,19,00,045,,24,27,154,45,25,74,295,45,29,40,212,39,6*67
$GPGSV,3,3,10,31,20,310,40,32,30,265,43,6*60
$GAGSV,3,1,10,01,49,093,29,04,03,208,21,05,21,308,45,09,23,255,45,7*74
$GAGSV,3,2,10,13,13,030,25,21,02,100,,24,22,284,46,26,45,082,41,7*77
$GAGSV,3,3,10,31,71,298,40,33,35,148,44,7*7A
$GAGSV,3,1,10,01,49,093,43,04,03,208,19,05,21,308,44,09,23,255,47,2*75
$GAGSV,3,2,10,13,13,030,,21,02,100,,24,22,284,49,26,45,082,36,2*7A
$GAGSV,3,3,10,31,71,298,47,33,35,148,41,2*7D
$GBGSV,3,1,10,02,04,106,,05,18,128,,10,05,082,13,12,33,190,40,1*70
$GBGSV,3,2,10,13,31,087,28,24,79,279,43,25,21,301,48,26,48,129,40,1*7C
$GBGSV,3,3,10,29,06,039,25,35,50,066,42,1*72
$GBGSV,3,1,10,02,04,106,,05,18,128,,10,05,082,,12,33,190,48,3*78
$GBGSV,3,2,10,13,31,087,26,24,79,279,,25,21,301,,26,48,129,,3*7F
$GBGSV,3,3,10,29,06,039,,35,50,066,,3*71
$GNGLL,5025.4447558,N,01411.3818058,E,213518.00,A,D*7D
$GNRMC,213519.00,A,5025.4447549,N,01411.3818047,E,0.009,,241021,,,R,V*0A
$GNVTG,,T,,M,0.009,N,0.016,K,D*36
$GNGGA,213519.00,5025.4447549,N,01411.3818047,E,4,12,0.64,217.765,M,44.078,M,2.0,0084*69
$GNGSA,A,3,24,25,29,31,32,12,02,06,,,,,1.29,0.64,1.12,1*05
$GNGSA,A,3,33,31,24,26,01,09,05,13,,,,,1.29,0.64,1.12,3*06
$GNGSA,A,3,13,12,24,26,25,35,,,,,,,1.29,0.64,1.12,4*0C
$GPGSV,3,1,11,02,40,097,40,03,01,349,21,06,26,049,29,11,,,25,1*56
$GPGSV,3,2,11,12,67,073,47,19,00,045,21,24,27,154,48,25,74,295,40,1*6B
$GPGSV,3,3,11,29,40,212,46,31,20,310,46,32,30,265,47,1*58
$GPGSV,3,1,10,02,40,097,,03,01,349,27,06,26,049,20,12,67,073,43,6*6D
$GPGSV,3,2,10,19,00,045,,24,27,154,45,25,74,295,45,29,40,212,39,6*67
$GPGSV,3,3,10,31,20,310,39,32,30,265,43,6*6E
$GAGSV,3,1,10,01,49,093,29,04,03,208,20,05,21,308,45,09,23,255,45,7*75
$GAGSV,3,2,10,13,13,030,25,21,02,100,,24,22,284,46,26,45,082,41,7*77
$GAGSV,3,3,10,31,71,298,40,33,35,148,44,7*7A
$GAGSV,3,1,10,01,49,093,43,04,03,208,19,05,21,308,44,09,23,255,47,2*75
$GAGSV,3,2,10,13,13,030,,21,02,100,,24,22,284,49,26,45,082,36,2*7A
$GAGSV,3,3,10,31,71,298,47,33,35,148,41,2*7D
$GBGSV,3,1,10,02,04,106,,05,18,128,,10,05,082,14,12,33,190,40,1*77
$GBGSV,3,2,10,13,31,087,28,24,79,279,43,25,21,301,48,26,48,129,40,1*7C
$GBGSV,3,3,10,29,06,039,25,35,50,066,43,1*73
$GBGSV,3,1,10,02,04,106,,05,18,128,,10,05,082,,12,33,190,48,3*78
$GBGSV,3,2,10,13,31,087,27,24,79,279,,25,21,301,,26,48,129,,3*7E
$GBGSV,3,3,10,29,06,039,,35,50,066,,3*71
$GNGLL,5025.4447549,N,01411.3818047,E,213519.00,A,D*72
$GNRMC,213520.00,A,5025.4447562,N,01411.3818058,E,0.013,,241021,,,R,V*0C
$GNVTG,,T,,M,0.013,N,0.025,K,D*3D
$GNGGA,213520.00,5025.4447562,N,01411.3818058,E,4,12,0.64,217.766,M,44.078,M,1.0,0084*64
$GNGSA,A,3,24,25,29,31,32,12,02,06,,,,,1.29,0.64,1.12,1*05
$GNGSA,A,3,33,31,24,26,01,09,05,13,,,,,1.29,0.64,1.12,3*06
$GNGSA,A,3,13,12,24,26,25,35,,,,,,,1.29,0.64,1.12,4*0C
$GPGSV,3,1,11,02,40,097,40,03,01,349,21,06,26,049,30,11,,,26,1*5D
$GPGSV,3,2,11,12,67,073,47,19,00,045,21,24,27,154,48,25,74,295,41,1*6A
$GPGSV,3,3,11,29,40,212,46,31,20,310,46,32,30,265,47,1*58
$GPGSV,3,1,10,02,40,097,,03,01,349,27,06,26,049,20,12,67,073,43,6*6D
$GPGSV,3,2,10,19,00,045,,24,27,154,45,25,74,295,45,29,40,212,39,6*67
$GPGSV,3,3,10,31,20,310,39,32,30,265,43,6*6E
$GAGSV,3,1,10,01,49,093,29,04,03,208,20,05,21,308,45,09,23,255,45,7*75
$GAGSV,3,2,10,13,13,030,26,21,02,100,,24,22,284,46,26,45,082,41,7*74
$GAGSV,3,3,10,31,71,298,40,33,35,148,44,7*7A
$GAGSV,3,1,10,01,49,093,43,04,03,208,20,05,21,308,44,09,23,255,47,2*7F
$GAGSV,3,2,10,13,13,030,,21,02,100,,24,22,284,49,26,45,082,36,2*7A
$GAGSV,3,3,10,31,71,298,47,33,35,148,41,2*7D
$GBGSV,3,1,10,02,04,106,,05,18,128,,10,05,082,14,12,33,190,40,1*77
$GBGSV,3,2,10,13,31,087,28,24,79,279,43,25,21,301,47,26,48,129,40,1*73
$GBGSV,3,3,10,29,06,039,25,35,50,066,43,1*73
$GBGSV,3,1,10,02,04,106,,05,18,128,,10,05,082,,12,33,190,48,3*78
$GBGSV,3,2,10,13,31,087,26,24,79,279,,25,21,301,,26,48,129,,3*7F
$GBGSV,3,3,10,29,06,039,,35,50,066,,3*71
$GNGLL,5025.4447562,N,01411.3818058,E,213520.00,A,D*7F
$GNRMC,213521.00,A,5025.4447539,N,01411.3818039,E,0.012,,241021,,,R,V*05
$GNVTG,,T,,M,0.012,N,0.022,K,D*3B
$GNGGA,213521.00,5025.4447539,N,01411.3818039,E,4,12,0.64,217.767,M,44.078,M,1.0,0084*6D
$GNGSA,A,3,24,25,29,31,32,12,02,06,,,,,1.29,0.64,1.12,1*05
$GNGSA,A,3,33,31,24,26,01,09,05,13,,,,,1.29,0.64,1.12,3*06
$GNGSA,A,3,13,12,24,26,25,35,,,,,,,1.29,0.64,1.12,4*0C
$GPGSV,3,1,11,02,40,097,40,03,01,349,21,06,26,049,31,11,,,28,1*52
$GPGSV,3,2,11,12,67,073,47,19,00,045,22,24,27,154,49,25,74,295,40,1*69
$GPGSV,3,3,11,29,40,212,46,31,20,310,46,32,30,265,47,1*58
$GPGSV,3,1,10,02,40,097,,03,01,349,27,06,26,049,20,12,67,073,43,6*6D
$GPGSV,3,2,10,19,00,045,,24,27,154,45,25,74,295,45,29,40,212,39,6*67
$GPGSV,3,3,10,31,20,310,39,32,30,265,43,6*6E
$GAGSV,3,1,10,01,49,093,29,04,03,208,19,05,21,308,45,09,23,255,45,7*7F
$GAGSV,3,2,10,13,13,030,25,21,02,100,,24,22,284,46,26,45,082,41,7*77
$GAGSV,3,3,10,31,71,298,40,33,35,148,44,7*7A
$GAGSV,3,1,10,01,49,093,43,04,03,208,20,05,21,308,44,09,23,255,47,2*7F
$GAGSV,3,2,10,13,13,030,,21,02,100,,24,22,284,49,26,45,082,36,2*7A
$GAGSV,3,3,10,31,71,298,47,33,35,148,41,2*7D
$GBGSV,3,1,10,02,04,106,,05,18,128,,10,05,082,16,12,33,190,41,1*74
$GBGSV,3,2,10,13,31,087,28,24,79,279,43,25,21,301,47,26,48,129,40,1*73
$GBGSV,3,3,10,29,06,039,25,35,50,066,43,1*73
$GBGSV,3,1,10,02,04,106,,05,18,128,,10,05,082,,12,33,190,48,3*78
$GBGSV,3,2,10,13,31,087,26,24,79,279,,25,21,301,,26,48,129,,3*7F
$GBGSV,3,3,10,29,06,039,,35,50,066,,3*71
$GNGLL,5025.4447539,N,01411.3818039,E,213521.00,A,D*77
$GNRMC,213522.00,A,5025.4447557,N,01411.3818053,E,0.004,,241021,,,R,V*05
$GNVTG,,T,,M,0.004,N,0.007,K,D*3B
$GNGGA,213522.00,5025.4447557,N,01411.3818053,E,4,12,0.64,217.769,M,44.078,M,1.0,0084*64
$GNGSA,A,3,24,25,29,31,32,12,02,06,,,,,1.29,0.64,1.12,1*05
$GNGSA,A,3,33,31,24,26,01,09,05,13,,,,,1.29,0.64,1.12,3*06
$GNGSA,A,3,13,12,24,26,25,35,,,,,,,1.29,0.64,1.12,4*0C
$GPGSV,3,1,11,02,40,097,40,03,01,349,20,06,26,049,31,11,,,30,1*5A
$GPGSV,3,2,11,12,67,073,47,19,00,045,23,24,27,154,49,25,74,295,41,1*69
$GPGSV,3,3,11,29,40,212,46,31,20,310,46,32,30,265,47,1*58
$GPGSV,3,1,10,02,40,097,,03,01,349,27,06,26,049,21,12,67,073,43,6*6C
$GPGSV,3,2,10,19,00,045,,24,27,154,45,25,74,295,45,29,40,212,39,6*67
$GPGSV,3,3,10,31,20,310,39,32,30,265,42,6*6F
$GAGSV,3,1,10,01,49,093,30,04,03,208,20,05,21,308,45,09,23,255,45,7*7D
$GAGSV,3,2,10,13,13,030,25,21,02,100,,24,22,284,46,26,45,082,41,7*77
$GAGSV,3,3,10,31,71,298,40,33,35,148,44,7*7A
$GAGSV,3,1,10,01,49,093,43,04,03,208,20,05,21,308,44,09,23,255,47,2*7F
$GAGSV,3,2,10,13,13,030,,21,02,100,,24,22,284,49,26,45,082,36,2*7A
$GAGSV,3,3,10,31,71,298,47,33,35,148,41,2*7D
$GBGSV,3,1,10,02,04,106,,05,18,128,,10,05,082,16,12,33,190,40,1*75
$GBGSV,3,2,10,13,31,087,28,24,79,279,43,25,21,301,47,26,48,129,40,1*73
$GBGSV,3,3,10,29,06,039,25,35,50,066,43,1*73
$GBGSV,3,1,10,02,04,106,,05,18,128,,10,05,082,,12,33,190,48,3*78
$GBGSV,3,2,10,13,31,087,26,24,79,279,,25,21,301,,26,48,129,,3*7F
$GBGSV,3,3,10,29,06,039,,35,50,066,,3*71
$GNGLL,5025.4447557,N,01411.3818053,E,213522.00,A,D*70
$GNRMC,213523.00,A,5025.4447555,N,01411.3818058,E,0.008,,241021,,,R,V*01
$GNVTG,,T,,M,0.008,N,0.015,K,D*34
$GNGGA,213523.00,5025.4447555,N,01411.3818058,E,4,12,0.64,217.767,M,44.078,M,1.0,0084*62
$GNGSA,A,3,24,25,29,31,32,12,02,06,,,,,1.29,0.64,1.12,1*05
$GNGSA,A,3,33,31,24,26,01,09,05,13,,,,,1.29,0.64,1.12,3*06
$GNGSA,A,3,13,12,24,26,25,35,,,,,,,1.29,0.64,1.12,4*0C
$GPGSV,3,1,11,02,40,097,40,03,01,349,21,06,26,049,31,11,,,32,1*59
$GPGSV,3,2,11,12,67,073,47,19,00,045,25,24,27,154,49,25,74,295,41,1*6F
$GPGSV,3,3,11,29,40,212,46,31,20,310,46,32,30,265,47,1*58
$GPGSV,3,1,10,02,40,097,,03,01,349,27,06,26,049,20,12,67,073,43,6*6D
$GPGSV,3,2,10,19,00,045,,24,27,154,45,25,74,295,46,29,40,212,39,6*64
$GPGSV,3,3,10,31,20,310,39,32,30,265,42,6*6F
$GAGSV,3,1,10,01,49,093,30,04,03,208,19,05,21,308,45,09,23,255,45,7*77
$GAGSV,3,2,10,13,13,030,26,21,02,100,,24,22,284,46,26,45,082,41,7*74
$GAGSV,3,3,10,31,71,299,40,33,35,148,44,7*7B
$GAGSV,3,1,10,01,49,093,43,04,03,208,21,05,21,308,44,09,23,255,47,2*7E
$GAGSV,3,2,10,13,13,030,,21,02,100,,24,22,284,49,26,45,082,36,2*7A
$GAGSV,3,3,10,31,71,299,47,33,35,148,41,2*7C
$GBGSV,3,1,10,02,04,106,,05,18,128,,10,05,082,18,12,33,190,40,1*7B
$GBGSV,3,2,10,13,31,087,28,24,79,279,43,25,21,301,47,26,48,129,40,1*73
$GBGSV,3,3,10,29,06,039,25,35,50,066,43,1*73
$GBGSV,3,1,10,02,04,106,,05,18,128,,10,05,082,,12,33,190,48,3*78
$GBGSV,3,2,10,13,31,087,26,24,79,279,,25,21,301,,26,48,129,,3*7F
$GBGSV,3,3,10,29,06,039,,35,50,066,,3*71
$GNGLL,5025.4447555,N,01411.3818058,E,213523.00,A,D*78
$GNRMC,213524.00,A,5025.4447545,N,01411.3818046,E,0.005,,241021,,,R,V*05
$GNVTG,,T,,M,0.005,N,0.010,K,D*3C
$GNGGA,213524.00,5025.4447545,N,01411.3818046,E,4,12,0.64,217.764,M,44.078,M,1.0,0084*68
$GNGSA,A,3,24,25,29,31,32,12,02,06,,,,,1.29,0.64,1.12,1*05
$GNGSA,A,3,33,31,24,26,01,09,05,13,,,,,1.29,0.64,1.12,3*06
$GNGSA,A,3,13,12,24,26,25,35,,,,,,,1.29,0.64,1.12,4*0C
$GPGSV,3,1,11,02,40,097,40,03,01,349,22,06,26,049,31,11,,,32,1*5A
$GPGSV,3,2,11,12,67,073,47,19,00,045,24,24,27,154,49,25,74,295,41,1*6E
$GPGSV,3,3,11,29,40,212,46,31,20,310,46,32,30,265,47,1*58
$GPGSV,3,1,10,02,40,097,,03,01,349,27,06,26,049,21,12,67,073,43,6*6C
$GPGSV,3,2,10,19,00,045,,24,27,154,45,25,74,295,46,29,40,212,39,6*64
$GPGSV,3,3,10,31,20,310,39,32,30,265,42,6*6F
$GAGSV,3,1,10,01,49,093,29,04,03,208,19,05,21,308,45,09,23,255,45,7*7F
$GAGSV,3,2,10,13,13,030,26,21,02,100,,24,22,284,46,26,45,082,41,7*74
$GAGSV,3,3,10,31,71,299,40,33,35,148,44,7*7B
$GAGSV,3,1,10,01,49,093,43,04,03,208,21,05,21,308,44,09,23,255,47,2*7E
$GAGSV,3,2,10,13,13,030,,21,02,100,,24,22,284,49,26,45,082,36,2*7A
$GAGSV,3,3,10,31,71,299,47,33,35,148,41,2*7C
$GBGSV,3,1,10,02,04,106,,05,18,128,,10,05,082,17,12,33,190,41,1*75
$GBGSV,3,2,10,13,31,087,28,24,79,279,43,25,21,301,47,26,48,129,40,1*73
$GBGSV,3,3,10,29,06,039,25,35,50,066,43,1*73
$GBGSV,3,1,10,02,04,106,,05,18,128,,10,05,082,,12,33,190,48,3*78
$GBGSV,3,2,10,13,31,087,26,24,79,279,,25,21,301,,26,48,129,,3*7F
$GBGSV,3,3,10,29,06,039,,35,50,066,,3*71
$GNGLL,5025.4447545,N,01411.3818046,E,213524.00,A,D*71
$GNRMC,213525.00,A,5025.4447562,N,01411.3818060,E,0.010,,241021,,,R,V*01
$GNVTG,,T,,M,0.010,N,0.019,K,D*31
