$GNTXT,01,01,02,Starting GNSS*5A
$GNRMC,205223.48,V,,,,,,,241021,,,N,V*15
$GNVTG,,,,,,,,,N*2E
$GNGGA,205223.48,,,,,0,00,99.99,,,,,,*70
$GNGSA,A,1,,,,,,,,,,,,,99.99,99.99,99.99,1*33
$GNGSA,A,1,,,,,,,,,,,,,99.99,99.99,99.99,3*31
$GNGSA,A,1,,,,,,,,,,,,,99.99,99.99,99.99,4*36
$GPGSV,1,1,00,1*64
$GPGSV,1,1,00,6*63
$GAGSV,1,1,00,7*73
$GAGSV,1,1,00,2*76
$GBGSV,1,1,00,1*76
$GBGSV,1,1,00,3*74
$GNGLL,,,,,205223.48,V,N*5C
$GNRMC,205224.00,V,,,,,,,241021,,,N,V*1E
$GNVTG,,,,,,,,,N*2E
$GNGGA,205224.00,,,,,0,12,1.06,,,,,,*4F
$GNGSA,A,1,29,25,24,32,12,,,,,,,,1.72,1.06,1.36,1*0C
$GNGSA,A,1,33,05,09,31,01,04,,,,,,,1.72,1.06,1.36,3*0D
$GNGSA,A,1,33,,,,,,,,,,,,1.72,1.06,1.36,4*01
$GPGSV,3,1,11,02,30,116,24,03,02,005,21,06,28,069,,12,83,012,47,1*6B
$GPGSV,3,2,11,19,17,044,25,22,00,345,,24,46,150,45,25,56,274,46,1*68
$GPGSV,3,3,11,29,20,206,35,31,03,308,39,32,35,287,47,1*56
$GPGSV,3,1,11,02,30,116,,03,02,005,,06,28,069,,12,83,012,,6*6A
$GPGSV,3,2,11,19,17,044,,22,00,345,,24,46,150,,25,56,274,,6*6B
$GPGSV,3,3,11,29,20,206,,31,03,308,,32,35,287,,6*5E
$GAGSV,3,1,10,01,63,078,47,04,17,213,38,05,17,322,38,09,33,269,44,7*7E
$GAGSV,3,2,10,13,23,040,28,21,14,089,27,24,09,274,41,26,38,102,27,7*7E
$GAGSV,3,3,10,31,57,283,46,33,19,153,46,7*74
$GAGSV,3,1,10,01,63,078,,04,17,213,,05,17,322,,09,33,269,,2*78
$GAGSV,3,2,10,13,23,040,,21,14,089,,24,09,274,,26,38,102,,2*74
$GAGSV,3,3,10,31,57,283,,33,19,153,,2*71
$GBGSV,2,1,05,24,62,294,47,25,07,295,47,26,65,117,46,33,10,268,45,1*7D
$GBGSV,2,2,05,35,56,093,,1*4C
$GBGSV,2,1,05,24,62,294,,25,07,295,,26,65,117,,33,10,268,,3*7C
$GBGSV,2,2,05,35,56,093,,3*4E
$GNGLL,,,,,205224.00,V,N*57
$GNRMC,205225.00,A,5025.4440412,N,01411.3800900,E,0.099,,241021,,,D,V*11
$GNVTG,,T,,M,0.099,N,0.183,K,D*32
$GNGGA,205225.00,5025.4440412,N,01411.3800900,E,2,12,0.68,222.420,M,44.078,M,1.0,0084*60
$GNGSA,A,3,29,25,24,32,12,,,,,,,,1.13,0.68,0.91,1*0C
$GNGSA,A,3,33,05,09,13,21,31,01,04,,,,,1.13,0.68,0.91,3*0C
$GNGSA,A,3,35,26,24,33,,,,,,,,,1.13,0.68,0.91,4*05
$GPGSV,3,1,11,02,30,116,25,03,02,005,22,06,28,069,21,12,83,012,48,1*65
$GPGSV,3,2,11,19,17,044,24,22,00,345,,24,46,150,46,25,56,274,46,1*6A
$GPGSV,3,3,11,29,20,206,36,31,03,308,40,32,35,287,48,1*54
$GPGSV,3,1,11,02,30,116,,03,02,005,,06,28,069,21,12,83,012,42,6*6F
$GPGSV,3,2,11,19,17,044,,22,00,345,,24,46,150,45,25,56,274,43,6*6D
$GPGSV,3,3,11,29,20,206,39,31,03,308,36,32,35,287,46,6*53
$GAGSV,3,1,10,01,63,078,48,04,17,213,39,05,17,322,39,09,33,269,44,7*71
$GAGSV,3,2,10,13,23,040,28,21,14,089,27,24,09,274,41,26,38,102,29,7*70
$GAGSV,3,3,10,31,57,283,47,33,19,153,46,7*75
$GAGSV,3,1,10,01,63,078,50,04,17,213,48,05,17,322,36,09,33,269,48,2*78
$GAGSV,3,2,10,13,23,040,29,21,14,089,28,24,09,274,44,26,38,102,,2*75
$GAGSV,3,3,10,31,57,283,49,33,19,153,50,2*79
$GBGSV,2,1,05,24,62,294,48,25,07,295,48,26,65,117,47,33,10,268,46,1*7F
$GBGSV,2,2,05,35,56,093,44,1*4C
$GBGSV,2,1,06,12,,,45,24,62,294,,25,07,295,,26,65,117,,3*40
$GBGSV,2,2,06,33,10,268,,35,56,093,,3*70
$GNGLL,5025.4440412,N,01411.3800900,E,205225.00,A,D*76
$GNRMC,205226.00,A,5025.4430354,N,01411.3793629,E,0.015,,241021,,,D,V*15
$GNVTG,,T,,M,0.015,N,0.028,K,D*36
$GNGGA,205226.00,5025.4430354,N,01411.3793629,E,2,12,0.61,222.337,M,44.078,M,1.0,0084*68
$GNGSA,A,3,29,25,24,32,12,02,19,,,,,,1.06,0.61,0.86,1*0D
$GNGSA,A,3,33,05,09,13,21,31,01,04,,,,,1.06,0.61,0.86,3*07
$GNGSA,A,3,35,26,24,33,,,,,,,,,1.06,0.61,0.86,4*0E
$GPGSV,3,1,11,02,30,116,25,03,02,005,22,06,28,069,21,12,83,012,48,1*65
$GPGSV,3,2,11,19,17,044,24,22,00,345,,24,46,150,46,25,56,274,47,1*6B
$GPGSV,3,3,11,29,20,206,36,31,03,308,41,32,35,287,48,1*55
$GPGSV,3,1,11,02,30,116,,03,02,005,20,06,28,069,21,12,83,012,42,6*6D
$GPGSV,3,2,11,19,17,044,,22,00,345,,24,46,150,45,25,56,274,43,6*6D
$GPGSV,3,3,11,29,20,206,39,31,03,308,37,32,35,287,46,6*52
$GAGSV,3,1,10,01,63,078,48,04,17,213,39,05,17,322,39,09,33,269,44,7*71
$GAGSV,3,2,10,13,23,040,28,21,14,089,26,24,09,274,41,26,38,102,29,7*71
$GAGSV,3,3,10,31,57,283,47,33,19,153,46,7*75
$GAGSV,3,1,10,01,63,078,48,04,17,213,46,05,17,322,33,09,33,269,46,2*74
$GAGSV,3,2,10,13,23,040,27,21,14,089,26,24,09,274,42,26,38,102,,2*73
$GAGSV,3,3,10,31,57,283,47,33,19,153,48,2*7E
$GBGSV,2,1,05,24,62,294,48,25,07,295,48,26,65,117,47,33,10,268,46,1*7F
$GBGSV,2,2,05,35,56,093,44,1*4C
$GBGSV,2,1,06,12,,,45,24,62,294,,25,07,295,,26,65,117,,3*40
$GBGSV,2,2,06,33,10,268,,35,56,093,,3*70
$GNGLL,5025.4430354,N,01411.3793629,E,205226.00,A,D*76
$GNRMC,205227.00,A,5025.4434568,N,01411.3790056,E,0.023,,241021,,,D,V*11
$GNVTG,,T,,M,0.023,N,0.042,K,D*3F
$GNGGA,205227.00,5025.4434568,N,01411.3790056,E,2,12,0.60,221.905,M,44.078,M,1.0,0084*60
$GNGSA,A,3,29,25,24,32,12,02,19,06,,,,,1.04,0.60,0.86,1*08
$GNGSA,A,3,33,05,09,13,21,31,01,04,,,,,1.04,0.60,0.86,3*04
$GNGSA,A,3,35,26,24,33,,,,,,,,,1.04,0.60,0.86,4*0D
$GPGSV,3,1,11,02,30,116,26,03,02,004,23,06,28,069,21,12,83,012,48,1*66
$GPGSV,3,2,11,19,17,044,22,22,00,345,,24,46,150,46,25,56,274,47,1*6D
$GPGSV,3,3,11,29,20,206,36,31,03,308,41,32,35,287,48,1*55
$GPGSV,3,1,11,02,30,116,,03,02,004,19,06,28,069,20,12,83,012,41,6*64
$GPGSV,3,2,11,19,17,044,,22,00,345,,24,46,150,45,25,56,274,43,6*6D
$GPGSV,3,3,11,29,20,206,39,31,03,308,36,32,35,287,45,6*50
$GAGSV,3,1,10,01,63,078,48,04,17,213,39,05,17,322,39,09,33,269,44,7*71
$GAGSV,3,2,10,13,23,040,28,21,14,089,27,24,09,274,41,26,38,102,29,7*70
$GAGSV,3,3,10,31,57,283,47,33,19,153,46,7*75
$GAGSV,3,1,10,01,63,078,48,04,17,213,46,05,17,322,33,09,33,269,46,2*74
$GAGSV,3,2,10,13,23,040,27,21,14,089,26,24,09,274,42,26,38,102,,2*73
$GAGSV,3,3,10,31,57,283,47,33,19,153,48,2*7E
$GBGSV,2,1,05,24,62,294,48,25,07,295,48,26,65,117,47,33,10,268,46,1*7F
$GBGSV,2,2,05,35,56,093,44,1*4C
$GBGSV,2,1,06,12,,,45,24,62,294,,25,07,295,,26,65,117,,3*40
$GBGSV,2,2,06,33,10,268,,35,56,093,,3*70
$GNGLL,5025.4434568,N,01411.3790056,E,205227.00,A,D*77
$GNRMC,205228.00,A,5025.4435067,N,01411.3785830,E,0.007,,241021,,,D,V*1F
$GNVTG,,T,,M,0.007,N,0.013,K,D*3D
$GNGGA,205228.00,5025.4435067,N,01411.3785830,E,2,12,0.60,222.373,M,44.078,M,1.0,0084*60
$GNGSA,A,3,29,25,24,32,12,02,19,06,,,,,1.04,0.60,0.86,1*08
$GNGSA,A,3,33,05,09,13,21,31,01,04,,,,,1.04,0.60,0.86,3*04
$GNGSA,A,3,35,26,24,33,,,,,,,,,1.04,0.60,0.86,4*0D
$GPGSV,3,1,11,02,30,116,27,03,02,004,23,06,28,069,20,12,83,012,48,1*66
$GPGSV,3,2,11,19,17,044,22,22,00,345,,24,46,150,46,25,56,274,47,1*6D
$GPGSV,3,3,11,29,20,206,36,31,03,308,41,32,35,287,48,1*55
$GPGSV,3,1,11,02,30,116,,03,02,004,19,06,28,069,19,12,83,012,41,6*6E
$GPGSV,3,2,11,19,17,044,,22,00,345,,24,46,150,45,25,56,274,43,6*6D
$GPGSV,3,3,11,29,20,206,39,31,03,308,37,32,35,287,45,6*51
$GAGSV,3,1,10,01,63,078,48,04,17,213,39,05,17,322,39,09,33,269,44,7*71
$GAGSV,3,2,10,13,23,040,28,21,14,089,27,24,09,274,41,26,38,102,29,7*70
$GAGSV,3,3,10,31,57,283,47,33,19,153,46,7*75
$GAGSV,3,1,10,01,63,078,48,04,17,213,46,05,17,322,33,09,33,269,46,2*74
$GAGSV,3,2,10,13,23,040,27,21,14,089,26,24,09,274,42,26,38,102,,2*73
$GAGSV,3,3,10,31,57,283,47,33,19,153,48,2*7E
$GBGSV,2,1,05,24,62,294,48,25,07,295,48,26,65,117,47,33,10,268,46,1*7F
$GBGSV,2,2,05,35,56,093,44,1*4C
$GBGSV,2,1,06,12,,,45,24,62,294,,25,07,295,,26,65,117,,3*40
$GBGSV,2,2,06,33,10,268,,35,56,093,,3*70
$GNGLL,5025.4435067,N,01411.3785830,E,205228.00,A,D*7F
$GNRMC,205229.00,A,5025.4434847,N,01411.3782074,E,0.015,,241021,,,D,V*19
$GNVTG,,T,,M,0.015,N,0.029,K,D*37
$GNGGA,205229.00,5025.4434847,N,01411.3782074,E,2,12,0.60,222.586,M,44.078,M,1.0,0084*69
$GNGSA,A,3,29,25,24,32,12,02,19,06,,,,,1.04,0.60,0.86,1*08
$GNGSA,A,3,33,05,09,13,21,31,01,04,,,,,1.04,0.60,0.86,3*04
$GNGSA,A,3,35,26,24,33,,,,,,,,,1.04,0.60,0.86,4*0D
$GPGSV,3,1,11,02,30,116,29,03,02,004,23,06,28,069,20,12,83,012,49,1*69
$GPGSV,3,2,11,19,17,044,22,22,00,345,,24,46,150,47,25,56,274,47,1*6C
$GPGSV,3,3,11,29,20,206,36,31,03,308,42,32,35,287,48,1*56
$GPGSV,3,1,11,02,30,116,,03,02,004,19,06,28,069,19,12,83,012,41,6*6E
$GPGSV,3,2,11,19,17,044,,22,00,345,,24,46,150,45,25,56,274,43,6*6D
$GPGSV,3,3,11,29,20,206,39,31,03,308,37,32,35,287,45,6*51
$GAGSV,3,1,10,01,63,078,48,04,17,213,39,05,17,322,39,09,33,269,44,7*71
$GAGSV,3,2,10,13,23,040,28,21,14,089,27,24,09,274,41,26,38,102,29,7*70
$GAGSV,3,3,10,31,57,283,47,33,19,153,46,7*75
$GAGSV,3,1,10,01,63,078,48,04,17,213,46,05,17,322,34,09,33,269,46,2*73
$GAGSV,3,2,10,13,23,040,27,21,14,089,26,24,09,274,42,26,38,102,,2*73
$GAGSV,3,3,10,31,57,283,47,33,19,153,48,2*7E
$GBGSV,2,1,05,24,62,294,48,25,07,295,48,26,65,117,47,33,10,268,46,1*7F
$GBGSV,2,2,05,35,56,093,44,1*4C
$GBGSV,2,1,06,12,,,45,24,62,294,,25,07,295,,26,65,117,,3*40
$GBGSV,2,2,06,33,10,268,,35,56,093,,3*70
$GNGLL,5025.4434847,N,01411.3782074,E,205229.00,A,D*7A

$GNRMC,205230.00,A,5025.4434969,N,01411.3783311,E,0.013,,241021,,,D,V*1B
$GNVTG,,T,,M,0.013,N,0.025,K,D*3D
$GNGGA,205230.00,5025.4434969,N,01411.3783311,E,2,12,0.66,222.352,M,44.078,M,1.0,0084*64
$GNGSA,A,3,29,25,24,32,12,02,19,06,,,,,1.12,0.66,0.90,1*0E
$GNGSA,A,3,33,05,09,13,21,31,01,04,,,,,1.12,0.66,0.90,3*02
$GNGSA,A,3,35,26,24,33,,,,,,,,,1.12,0.66,0.90,4*0B
$GPGSV,3,1,11,02,30,116,29,03,02,004,23,06,28,069,19,12,83,012,48,1*62
$GPGSV,3,2,11,19,17,044,21,22,00,345,,24,46,150,47,25,56,274,47,1*6F
$GPGSV,3,3,11,29,20,206,36,31,03,308,42,32,35,287,48,1*56
$GPGSV,3,1,11,02,30,116,,03,02,004,20,06,28,069,19,12,83,012,41,6*64
$GPGSV,3,2,11,19,17,044,,22,00,345,,24,46,150,45,25,56,274,43,6*6D
$GPGSV,3,3,11,29,20,206,39,31,03,308,37,32,35,287,45,6*51
$GAGSV,3,1,10,01,63,078,48,04,17,213,39,05,17,322,39,09,33,269,44,7*71
$GAGSV,3,2,10,13,23,040,27,21,14,089,28,24,09,274,41,26,38,102,29,7*70
$GAGSV,3,3,10,31,57,283,47,33,19,153,46,7*75
$GAGSV,3,1,10,01,63,078,48,04,17,213,46,05,17,322,34,09,33,269,46,2*73
$GAGSV,3,2,10,13,23,040,27,21,14,089,26,24,09,274,42,26,38,102,,2*73
$GAGSV,3,3,10,31,57,283,47,33,19,153,48,2*7E
$GBGSV,2,1,05,24,62,294,48,25,07,295,48,26,65,117,47,33,10,268,46,1*7F
$GBGSV,2,2,05,35,56,093,44,1*4C
$GBGSV,2,1,06,12,,,45,24,62,294,,25,07,295,,26,65,117,,3*40
$GBGSV,2,2,06,33,10,268,,35,56,093,,3*70
$GNGLL,5025.4434969,N,01411.3783311,E,205230.00,A,D*7E
$GNRMC,205231.00,A,5025.4435620,N,01411.3785186,E,0.012,,241021,,,F,V*10
$GNVTG,,T,,M,0.012,N,0.023,K,D*3A
$GNGGA,205231.00,5025.4435620,N,01411.3785186,E,5,12,0.66,222.403,M,44.078,M,1.0,0084*68
$GNGSA,A,3,29,25,24,32,12,02,19,06,,,,,1.12,0.66,0.90,1*0E
$GNGSA,A,3,33,05,09,13,21,31,01,04,,,,,1.12,0.66,0.90,3*02
$GNGSA,A,3,35,26,24,33,,,,,,,,,1.12,0.66,0.90,4*0B
$GPGSV,3,1,11,02,30,116,29,03,02,004,24,06,28,069,19,12,83,012,48,1*65
$GPGSV,3,2,11,19,17,044,21,22,00,345,,24,46,150,47,25,56,274,47,1*6F
$GPGSV,3,3,11,29,20,206,36,31,03,308,42,32,35,287,48,1*56
$GPGSV,3,1,11,02,30,116,,03,02,004,20,06,28,069,18,12,83,012,41,6*65
$GPGSV,3,2,11,19,17,044,,22,00,345,,24,46,150,45,25,56,274,43,6*6D
$GPGSV,3,3,11,29,20,206,39,31,03,308,37,32,35,287,45,6*51
$GAGSV,3,1,10,01,63,078,47,04,17,213,39,05,17,322,39,09,33,269,43,7*79
$GAGSV,3,2,10,13,23,040,27,21,14,089,28,24,09,274,40,26,38,102,28,7*70
$GAGSV,3,3,10,31,57,283,47,33,19,153,46,7*75
$GAGSV,3,1,10,01,63,078,48,04,17,213,46,05,17,322,34,09,33,269,46,2*73
$GAGSV,3,2,10,13,23,040,26,21,14,089,26,24,09,274,42,26,38,102,,2*72
$GAGSV,3,3,10,31,57,283,47,33,19,153,48,2*7E
$GBGSV,2,1,05,24,62,294,48,25,07,295,48,26,65,117,47,33,10,268,46,1*7F
$GBGSV,2,2,05,35,56,093,44,1*4C
$GBGSV,2,1,06,12,,,45,24,62,294,,25,07,295,,26,65,117,,3*40
$GBGSV,2,2,06,33,10,268,,35,56,093,,3*70
$GNGLL,5025.4435620,N,01411.3785186,E,205231.00,A,D*76
$GNRMC,205232.00,A,5025.4436287,N,01411.3788757,E,0.002,,241021,,,F,V*1F
$GNVTG,,T,,M,0.002,N,0.004,K,D*3E
$GNGGA,205232.00,5025.4436287,N,01411.3788757,E,5,12,0.66,222.009,M,44.078,M,1.0,0084*68
$GNGSA,A,3,29,25,24,32,12,02,06,,,,,,1.12,0.66,0.90,1*06
$GNGSA,A,3,33,05,09,13,21,31,01,04,,,,,1.12,0.66,0.90,3*02
$GNGSA,A,3,35,26,24,33,,,,,,,,,1.12,0.66,0.90,4*0B
$GPGSV,3,1,11,02,30,116,29,03,02,004,23,06,28,069,18,12,83,012,48,1*63
$GPGSV,3,2,11,19,17,044,,22,00,345,,24,46,150,46,25,56,274,48,1*62
$GPGSV,3,3,11,29,20,206,36,31,03,308,42,32,35,287,48,1*56
$GPGSV,3,1,11,02,30,116,,03,02,004,21,06,28,069,17,12,83,012,42,6*68
$GPGSV,3,2,11,19,17,044,,22,00,345,,24,46,150,45,25,56,274,43,6*6D
$GPGSV,3,3,11,29,20,206,39,31,03,308,37,32,35,287,45,6*51
$GAGSV,3,1,10,01,63,078,47,04,17,213,39,05,17,322,39,09,33,269,43,7*79
$GAGSV,3,2,10,13,23,040,28,21,14,089,28,24,09,274,40,26,38,102,28,7*7F
$GAGSV,3,3,10,31,57,283,47,33,19,153,46,7*75
$GAGSV,3,1,10,01,63,078,48,04,17,213,46,05,17,322,34,09,33,269,46,2*73
$GAGSV,3,2,10,13,23,040,26,21,14,089,26,24,09,274,42,26,38,102,,2*72
$GAGSV,3,3,10,31,57,283,47,33,19,153,48,2*7E
$GBGSV,2,1,05,24,62,294,48,25,07,295,48,26,65,117,47,33,10,268,46,1*7F
$GBGSV,2,2,05,35,56,093,44,1*4C
$GBGSV,2,1,06,12,,,45,24,62,294,,25,07,295,,26,65,117,,3*40
$GBGSV,2,2,06,33,10,268,,35,56,093,,3*70
$GNGLL,5025.4436287,N,01411.3788757,E,205232.00,A,D*78
$GNRMC,205233.00,A,5025.4447600,N,01411.3818136,E,0.012,,241021,,,R,V*01
$GNVTG,,T,,M,0.012,N,0.023,K,D*3A
$GNGGA,205233.00,5025.4447600,N,01411.3818136,E,4,12,0.66,217.792,M,44.078,M,1.0,0084*61
$GNGSA,A,3,29,25,24,32,12,02,06,,,,,,1.12,0.66,0.90,1*06
$GNGSA,A,3,33,05,09,13,21,31,01,04,,,,,1.12,0.66,0.90,3*02
$GNGSA,A,3,35,26,24,33,,,,,,,,,1.12,0.66,0.90,4*0B
$GPGSV,3,1,11,02,30,116,29,03,02,004,22,06,28,069,16,12,83,012,49,1*6D
$GPGSV,3,2,11,19,17,044,,22,00,345,,24,46,150,46,25,56,274,48,1*62
$GPGSV,3,3,11,29,20,206,36,31,03,308,42,32,35,287,48,1*56
$GPGSV,3,1,11,02,30,116,,03,02,004,21,06,28,069,16,12,83,012,42,6*69
$GPGSV,3,2,11,19,17,044,,22,00,345,,24,46,150,45,25,56,274,43,6*6D
$GPGSV,3,3,11,29,20,206,39,31,03,308,37,32,35,287,45,6*51
$GAGSV,3,1,10,01,63,078,48,04,17,213,39,05,17,322,39,09,33,269,44,7*71
$GAGSV,3,2,10,13,23,040,28,21,14,089,28,24,09,274,40,26,38,102,28,7*7F
$GAGSV,3,3,10,31,57,283,47,33,19,153,46,7*75
$GAGSV,3,1,10,01,63,078,48,04,17,213,46,05,17,322,34,09,33,269,46,2*73
$GAGSV,3,2,10,13,23,040,26,21,14,089,27,24,09,274,42,26,38,102,,2*73
$GAGSV,3,3,10,31,57,283,47,33,19,153,48,2*7E
$GBGSV,2,1,05,24,62,294,48,25,07,295,48,26,65,117,47,33,10,268,46,1*7F
$GBGSV,2,2,05,35,56,093,44,1*4C
$GBGSV,2,1,06,12,,,45,24,62,294,,25,07,295,,26,65,117,,3*40
$GBGSV,2,2,06,33,10,268,,35,56,093,,3*70
$GNGLL,5025.4447600,N,01411.3818136,E,205233.00,A,D*73
$GNRMC,205234.00,A,5025.4447593,N,01411.3818126,E,0.008,,241021,,,R,V*05
$GNVTG,,T,,M,0.008,N,0.015,K,D*34
$GNGGA,205234.00,5025.4447593,N,01411.3818126,E,4,12,0.66,217.791,M,44.078,M,1.0,0084*6D
$GNGSA,A,3,29,25,24,32,12,02,06,,,,,,1.12,0.66,0.90,1*06
$GNGSA,A,3,33,05,09,13,21,31,01,04,,,,,1.12,0.66,0.90,3*02
$GNGSA,A,3,35,26,24,33,,,,,,,,,1.12,0.66,0.90,4*0B
$GPGSV,3,1,11,02,30,116,28,03,02,004,21,06,28,069,15,12,83,012,49,1*6C
$GPGSV,3,2,11,19,17,044,,22,00,345,,24,46,150,47,25,56,274,48,1*63
$GPGSV,3,3,11,29,20,206,36,31,03,308,42,32,35,287,48,1*56
$GPGSV,3,1,11,02,30,116,,03,02,004,22,06,28,069,14,12,83,012,42,6*68
$GPGSV,3,2,11,19,17,044,,22,00,345,,24,46,150,45,25,56,274,43,6*6D
$GPGSV,3,3,11,29,20,206,39,31,03,308,37,32,35,287,45,6*51
$GAGSV,3,1,10,01,63,078,48,04,17,213,39,05,17,322,39,09,33,269,44,7*71
$GAGSV,3,2,10,13,23,040,28,21,14,089,29,24,09,274,40,26,38,102,28,7*7E
$GAGSV,3,3,10,31,57,283,47,33,19,153,46,7*75
$GAGSV,3,1,10,01,63,078,48,04,17,213,46,05,17,322,34,09,33,269,46,2*73
$GAGSV,3,2,10,13,23,040,26,21,14,089,27,24,09,274,42,26,38,102,,2*73
$GAGSV,3,3,10,31,57,283,47,33,19,153,48,2*7E
$GBGSV,2,1,05,24,62,294,48,25,07,295,48,26,65,117,47,33,10,268,46,1*7F
$GBGSV,2,2,05,35,56,093,44,1*4C
$GBGSV,2,1,06,12,,,45,24,62,294,,25,07,295,,26,65,117,,3*40
$GBGSV,2,2,06,33,10,268,,35,56,093,,3*70
$GNGLL,5025.4447593,N,01411.3818126,E,205234.00,A,D*7C
$GNRMC,205235.00,A,5025.4447597,N,01411.3818146,E,0.033,,241021,,,R,V*0E
$GNVTG,,T,,M,0.033,N,0.060,K,D*3E
$GNGGA,205235.00,5025.4447597,N,01411.3818146,E,4,12,0.66,217.789,M,44.078,M,1.0,0084*67
$GNGSA,A,3,29,25,24,32,12,02,06,,,,,,1.12,0.66,0.90,1*06
$GNGSA,A,3,33,05,09,13,21,31,01,04,,,,,1.12,0.66,0.90,3*02
$GNGSA,A,3,35,26,24,33,,,,,,,,,1.12,0.66,0.90,4*0B
$GPGSV,3,1,11,02,30,116,28,03,02,004,21,06,28,069,13,12,83,012,49,1*6A
$GPGSV,3,2,11,19,17,044,,22,00,345,,24,46,150,47,25,56,274,48,1*63
$GPGSV,3,3,11,29,20,206,36,31,03,308,42,32,35,287,48,1*56
$GPGSV,3,1,11,02,30,116,,03,02,004,22,06,28,069,13,12,83,012,42,6*6F
$GPGSV,3,2,11,19,17,044,,22,00,345,,24,46,150,45,25,56,274,43,6*6D
$GPGSV,3,3,11,29,20,206,39,31,03,308,37,32,35,287,45,6*51
$GAGSV,3,1,10,01,63,078,48,04,17,213,39,05,17,322,39,09,33,269,44,7*71
$GAGSV,3,2,10,13,23,040,28,21,14,089,29,24,09,274,40,26,38,102,28,7*7E
$GAGSV,3,3,10,31,57,283,47,33,19,153,47,7*74
$GAGSV,3,1,10,01,63,078,48,04,17,213,46,05,17,322,34,09,33,269,46,2*73
$GAGSV,3,2,10,13,23,040,26,21,14,089,27,24,09,274,42,26,38,102,,2*73
$GAGSV,3,3,10,31,57,283,47,33,19,153,48,2*7E
$GBGSV,2,1,05,24,62,294,48,25,07,295,48,26,65,117,47,33,10,268,46,1*7F
$GBGSV,2,2,05,35,56,093,44,1*4C
$GBGSV,2,1,06,12,,,45,24,62,294,,25,07,295,,26,65,117,,3*40
$GBGSV,2,2,06,33,10,268,,35,56,093,,3*70
$GNGLL,5025.4447597,N,01411.3818146,E,205235.00,A,D*7F
$GNRMC,205236.00,A,5025.4447608,N,01411.3818142,E,0.003,,241021,,,R,V*0F
$GNVTG,,T,,M,0.003,N,0.005,K,D*3E
$GNGGA,205236.00,5025.4447608,N,01411.3818142,E,4,12,0.66,217.783,M,44.078,M,1.0,0084*6F
$GNGSA,A,3,29,25,24,32,12,02,06,,,,,,1.12,0.66,0.90,1*06
$GNGSA,A,3,33,05,09,13,21,31,01,04,,,,,1.12,0.66,0.90,3*02
$GNGSA,A,3,35,26,24,33,,,,,,,,,1.12,0.66,0.90,4*0B
$GPGSV,3,1,11,02,30,116,28,03,02,004,20,06,28,069,12,12,83,012,48,1*6B
$GPGSV,3,2,11,19,17,044,,22,00,345,,24,46,150,47,25,56,274,48,1*63
$GPGSV,3,3,11,29,20,206,36,31,03,308,42,32,35,287,48,1*56
$GPGSV,3,1,11,02,30,116,,03,02,004,22,06,28,069,14,12,83,012,42,6*68
$GPGSV,3,2,11,19,17,044,,22,00,345,,24,46,150,45,25,56,274,43,6*6D
$GPGSV,3,3,11,29,20,206,39,31,03,308,37,32,35,287,45,6*51
$GAGSV,3,1,10,01,63,078,48,04,17,213,38,05,17,322,39,09,33,269,44,7*70
$GAGSV,3,2,10,13,23,040,28,21,14,089,29,24,09,274,40,26,38,102,28,7*7E
$GAGSV,3,3,10,31,57,283,47,33,19,153,47,7*74
$GAGSV,3,1,10,01,63,078,48,04,17,213,46,05,17,322,34,09,33,269,46,2*73
$GAGSV,3,2,10,13,23,040,26,21,14,089,27,24,09,274,42,26,38,102,,2*73
$GAGSV,3,3,10,31,57,283,47,33,19,153,48,2*7E
$GBGSV,2,1,05,24,62,294,48,25,07,295,48,26,65,117,47,33,10,268,46,1*7F
$GBGSV,2,2,05,35,56,093,44,1*4C
$GBGSV,2,1,06,12,,,45,24,62,294,,25,07,295,,26,65,117,,3*40
$GBGSV,2,2,06,33,10,268,,35,56,093,,3*70
$GNGLL,5025.4447608,N,01411.3818142,E,205236.00,A,D*7D
$GNRMC,205237.00,A,5025.4447590,N,01411.3818129,E,0.008,,241021,,,R,V*0A
$GNVTG,,T,,M,0.008,N,0.015,K,D*34
$GNGGA,205237.00,5025.4447590,N,01411.3818129,E,4,12,0.66,217.795,M,44.078,M,1.0,0084*66
$GNGSA,A,3,29,25,24,32,12,02,06,,,,,,1.12,0.66,0.90,1*06
$GNGSA,A,3,33,05,09,13,21,31,01,04,,,,,1.12,0.66,0.90,3*02
$GNGSA,A,3,35,26,24,33,,,,,,,,,1.12,0.66,0.90,4*0B
$GPGSV,3,1,11,02,30,116,26,03,02,004,19,06,28,069,17,12,83,012,49,1*6B
$GPGSV,3,2,11,19,17,044,,22,00,345,,24,46,150,47,25,56,274,48,1*63
$GPGSV,3,3,11,29,20,206,36,31,03,308,42,32,35,287,48,1*56
$GPGSV,3,1,11,02,30,116,,03,02,004,23,06,28,069,14,12,83,012,41,6*6A
$GPGSV,3,2,11,19,17,044,,22,00,345,,24,46,150,45,25,56,274,43,6*6D
$GPGSV,3,3,11,29,20,206,39,31,03,308,37,32,35,287,45,6*51
$GAGSV,3,1,10,01,63,078,48,04,17,213,39,05,17,322,39,09,33,269,44,7*71
$GAGSV,3,2,10,13,23,040,28,21,14,089,29,24,09,274,40,26,38,102,28,7*7E
$GAGSV,3,3,10,31,57,283,47,33,19,153,47,7*74
$GAGSV,3,1,10,01,63,078,48,04,17,213,46,05,17,322,34,09,33,269,46,2*73
$GAGSV,3,2,10,13,23,040,26,21,14,089,27,24,09,274,41,26,38,102,,2*70
$GAGSV,3,3,10,31,57,283,47,33,19,153,48,2*7E
$GBGSV,2,1,05,24,62,294,48,25,07,295,48,26,65,117,47,33,10,268,46,1*7F
$GBGSV,2,2,05,35,56,093,44,1*4C
$GBGSV,2,1,06,12,,,45,24,62,294,,25,07,295,,26,65,117,,3*40
$GBGSV,2,2,06,33,10,268,,35,56,093,,3*70
$GNGLL,5025.4447590,N,01411.3818129,E,205237.00,A,D*73
$GNRMC,205238.00,A,5025.4447592,N,01411.3818154,E,0.004,,241021,,,R,V*01
$GNVTG,,T,,M,0.004,N,0.008,K,D*34
$GNGGA,205238.00,5025.4447592,N,01411.3818154,E,4,12,0.68,217.786,M,44.078,M,1.0,0084*6D
$GNGSA,A,3,29,25,24,32,12,02,06,,,,,,1.13,0.68,0.91,1*08
$GNGSA,A,3,33,05,09,13,21,31,01,04,,,,,1.13,0.68,0.91,3*0C
$GNGSA,A,3,35,26,24,33,,,,,,,,,1.13,0.68,0.91,4*05
$GPGSV,3,1,11,02,30,116,26,03,02,004,18,06,28,069,19,12,83,012,48,1*65
$GPGSV,3,2,11,19,17,044,,22,00,345,,24,46,150,46,25,56,274,48,1*62
$GPGSV,3,3,11,29,20,206,35,31,03,308,42,32,35,287,48,1*55
$GPGSV,3,1,11,02,30,116,,03,02,004,24,06,28,069,15,12,83,012,42,6*6F
$GPGSV,3,2,11,19,17,044,,22,00,345,,24,46,150,45,25,56,274,43,6*6D
$GPGSV,3,3,11,29,20,206,39,31,03,308,37,32,35,287,45,6*51
$GAGSV,3,1,10,01,63,078,47,04,17,213,39,05,17,322,39,09,33,269,44,7*7E
$GAGSV,3,2,10,13,23,040,28,21,14,089,29,24,09,274,40,26,38,102,28,7*7E
$GAGSV,3,3,10,31,57,283,47,33,19,153,47,7*74
$GAGSV,3,1,10,01,63,078,48,04,17,213,46,05,17,322,34,09,33,269,46,2*73
$GAGSV,3,2,10,13,23,040,26,21,14,089,27,24,09,274,41,26,38,102,,2*70
$GAGSV,3,3,10,31,57,283,47,33,19,153,48,2*7E
$GBGSV,2,1,05,24,62,294,48,25,07,295,48,26,65,117,47,33,10,268,46,1*7F
$GBGSV,2,2,05,35,56,093,44,1*4C
$GBGSV,2,1,06,12,,,45,24,62,294,,25,07,295,,26,65,117,,3*40
$GBGSV,2,2,06,33,10,268,,35,56,093,,3*70
$GNGLL,5025.4447592,N,01411.3818154,E,205238.00,A,D*74
$GNRMC,205239.00,A,5025.4447596,N,01411.3818140,E,0.027,,241021,,,R,V*00
$GNVTG,,T,,M,0.027,N,0.050,K,D*38
$GNGGA,205239.00,5025.4447596,N,01411.3818140,E,4,12,0.68,217.789,M,44.078,M,1.0,0084*62
$GNGSA,A,3,29,25,24,32,12,02,06,,,,,,1.13,0.68,0.91,1*08
$GNGSA,A,3,33,05,09,13,21,31,01,04,,,,,1.13,0.68,0.91,3*0C
$GNGSA,A,3,35,26,24,33,,,,,,,,,1.13,0.68,0.91,4*05
$GPGSV,3,1,11,02,30,116,26,03,02,004,17,06,28,069,20,12,83,012,48,1*60
$GPGSV,3,2,11,19,17,044,22,22,00,345,,24,46,150,46,25,56,274,48,1*62
$GPGSV,3,3,11,29,20,206,35,31,03,308,42,32,35,287,48,1*55
$GPGSV,3,1,11,02,30,116,,03,02,004,24,06,28,069,15,12,83,012,42,6*6F
$GPGSV,3,2,11,19,17,044,,22,00,345,,24,46,150,45,25,56,274,43,6*6D
$GPGSV,3,3,11,29,20,206,39,31,03,308,36,32,35,287,45,6*50
$GAGSV,3,1,10,01,63,078,47,04,17,213,39,05,17,322,39,09,33,269,44,7*7E
$GAGSV,3,2,10,13,23,040,28,21,14,089,30,24,09,274,40,26,38,102,28,7*76
$GAGSV,3,3,10,31,57,283,47,33,19,153,47,7*74
$GAGSV,3,1,10,01,63,078,48,04,17,213,46,05,17,322,34,09,33,269,46,2*73
$GAGSV,3,2,10,13,23,040,26,21,14,089,27,24,09,274,41,26,38,102,,2*70
$GAGSV,3,3,10,31,57,283,47,33,19,153,47,2*71
$GBGSV,2,1,05,24,62,294,48,25,07,295,48,26,65,117,47,33,10,268,46,1*7F
$GBGSV,2,2,05,35,56,093,44,1*4C
$GBGSV,2,1,06,12,,,45,24,62,294,,25,07,295,,26,65,117,,3*40
$GBGSV,2,2,06,33,10,268,,35,56,093,,3*70
$GNGLL,5025.4447596,N,01411.3818140,E,205239.00,A,D*74
$GNRMC,205240.00,A,5025.4447600,N,01411.3818145,E,0.024,,241021,,,R,V*04
$GNVTG,,T,,M,0.024,N,0.044,K,D*3E
$GNGGA,205240.00,5025.4447600,N,01411.3818145,E,4,12,0.68,217.789,M,44.078,M,1.0,0084*65
$GNGSA,A,3,29,25,24,32,12,02,06,,,,,,1.13,0.68,0.91,1*08
$GNGSA,A,3,33,05,09,13,21,31,01,04,,,,,1.13,0.68,0.91,3*0C
$GNGSA,A,3,35,26,24,33,,,,,,,,,1.13,0.68,0.91,4*05
$GPGSV,3,1,11,02,30,116,26,03,02,004,17,06,28,069,20,12,83,012,48,1*60
$GPGSV,3,2,11,19,17,044,20,22,00,345,,24,46,150,46,25,56,274,48,1*60
$GPGSV,3,3,11,29,20,206,36,31,03,308,42,32,35,287,48,1*56
$GPGSV,3,1,11,02,30,116,,03,02,004,24,06,28,069,15,12,83,012,42,6*6F
$GPGSV,3,2,11,19,17,044,,22,00,345,,24,46,150,45,25,56,274,42,6*6C
$GPGSV,3,3,11,29,20,206,39,31,03,308,36,32,35,287,45,6*50
$GAGSV,3,1,10,01,63,078,47,04,17,213,39,05,17,322,39,09,33,269,44,7*7E
$GAGSV,3,2,10,13,23,040,28,21,14,089,30,24,09,274,40,26,38,102,28,7*76
$GAGSV,3,3,10,31,57,283,47,33,19,153,47,7*74
$GAGSV,3,1,10,01,63,078,48,04,17,213,46,05,17,322,34,09,33,269,46,2*73
$GAGSV,3,2,10,13,23,040,26,21,14,089,27,24,09,274,41,26,38,102,,2*70
$GAGSV,3,3,10,31,57,283,47,33,19,153,47,2*71
$GBGSV,2,1,05,24,62,294,48,25,07,295,48,26,65,117,47,33,10,268,46,1*7F
$GBGSV,2,2,05,35,56,093,44,1*4C
$GBGSV,2,1,06,12,,,45,24,62,294,,25,07,295,,26,65,117,,3*40
$GBGSV,2,2,06,33,10,268,,35,56,093,,3*70
$GNGLL,5025.4447600,N,01411.3818145,E,205240.00,A,D*73
$GNRMC,205241.00,A,5025.4447603,N,01411.3818146,E,0.087,,241021,,,R,V*0C
$GNVTG,,T,,M,0.087,N,0.162,K,D*32
$GNGGA,205241.00,5025.4447603,N,01411.3818146,E,4,12,0.66,217.789,M,44.078,M,1.0,0084*6A
$GNGSA,A,3,29,25,24,32,12,02,06,,,,,,1.12,0.66,0.90,1*06
$GNGSA,A,3,33,05,09,13,21,31,01,04,,,,,1.12,0.66,0.90,3*02
$GNGSA,A,3,35,26,24,33,,,,,,,,,1.12,0.66,0.90,4*0B
$GPGSV,3,1,11,02,30,116,26,03,02,004,16,06,28,069,21,12,83,012,48,1*60
$GPGSV,3,2,11,19,17,044,19,22,00,345,,24,46,150,46,25,56,274,48,1*6A
$GPGSV,3,3,11,29,20,206,36,31,03,308,42,32,35,287,48,1*56
$GPGSV,3,1,11,02,30,116,,03,02,004,24,06,28,069,15,12,83,012,42,6*6F
$GPGSV,3,2,11,19,17,044,,22,00,345,,24,46,150,45,25,56,274,42,6*6C
$GPGSV,3,3,11,29,20,206,39,31,03,308,36,32,35,287,45,6*50
$GAGSV,3,1,10,01,63,078,47,04,17,213,38,05,17,322,39,09,33,269,44,7*7F
$GAGSV,3,2,10,13,23,040,28,21,14,089,30,24,09,274,40,26,38,102,28,7*76
$GAGSV,3,3,10,31,57,283,47,33,19,153,47,7*74
$GAGSV,3,1,10,01,63,078,48,04,17,213,46,05,17,322,34,09,33,269,46,2*73
$GAGSV,3,2,10,13,23,040,26,21,14,089,27,24,09,274,41,26,38,102,,2*70
$GAGSV,3,3,10,31,57,283,47,33,19,153,48,2*7E
$GBGSV,2,1,05,24,62,294,48,25,07,295,48,26,65,117,47,33,10,268,46,1*7F
$GBGSV,2,2,05,35,56,093,44,1*4C
$GBGSV,2,1,06,12,,,45,24,62,294,,25,07,295,,26,65,117,,3*40
$GBGSV,2,2,06,33,10,268,,35,56,093,,3*70
$GNGLL,5025.4447603,N,01411.3818146,E,205241.00,A,D*72
$GNRMC,205242.00,A,5025.4447579,N,01411.3818134,E,0.023,,241021,,,R,V*0A
$GNVTG,,T,,M,0.023,N,0.043,K,D*3E
