$GNGGA,211519.00,5025.4447580,N,01411.3818157,E,4,12,0.75,217.754,M,44.078,M,1.0,0084*6F
$GNGSA,A,3,33,31,01,24,05,09,26,13,,,,,1.40,0.75,1.18,3*03
$GNGSA,A,3,35,26,25,24,12,13,,,,,,,1.40,0.75,1.18,4*09
$GAGSV,3,1,10,01,56,086,44,04,09,210,31,05,20,315,43,09,28,261,42,7*77
$GAGSV,3,2,10,13,18,034,27,21,08,095,25,24,16,279,45,26,43,092,27,7*7B
$GAGSV,3,3,10,31,64,291,43,33,27,151,43,7*78
$GAGSV,3,1,10,01,56,086,41,04,09,210,35,05,20,315,39,09,28,261,46,2*7A
$GAGSV,3,2,10,13,18,034,21,21,08,095,28,24,16,279,47,26,43,092,37,2*76
$GAGSV,3,3,10,31,64,291,50,33,27,151,48,2*74
$GBGSV,3,1,11,02,04,106,,05,18,128,,10,07,078,25,12,25,189,44,1*78
$GBGSV,3,2,11,13,27,089,30,24,71,292,43,25,14,299,47,26,56,124,42,1*79
$GBGSV,3,3,11,29,13,040,24,33,04,262,43,35,54,077,44,1*4F
$GBGSV,3,1,11,02,04,106,,05,18,128,,10,07,078,26,12,25,189,48,3*75
$GBGSV,3,2,11,13,27,089,,24,71,292,,25,14,299,,26,56,124,,3*7A
$GBGSV,3,3,11,29,13,040,,33,04,262,,35,54,077,,3*4C
$GNGLL,5025.4447580,N,01411.3818157,E,211519.00,A,D*75
$GNTXT,01,01,02,Starting GNSS*5A
$GNRMC,211519.14,V,,,,,,,241021,,,N,V*17
$GNVTG,,,,,,,,,N*2E
$GNGGA,211519.14,,,,,0,00,99.99,,,,,,*72
$GNGSA,A,1,,,,,,,,,,,,,99.99,99.99,99.99,1*33
$GNGSA,A,1,,,,,,,,,,,,,99.99,99.99,99.99,2*30
$GNGSA,A,1,,,,,,,,,,,,,99.99,99.99,99.99,4*36
$GPGSV,1,1,00,1*64
$GPGSV,1,1,00,6*63
$GLGSV,1,1,00,1*78
$GLGSV,1,1,00,3*7A
$GBGSV,1,1,00,1*76
$GBGSV,1,1,00,3*74
$GNGLL,,,,,211519.14,V,N*5E
$GNRMC,211519.18,V,,,,,,,241021,,,N,V*1B
$GNVTG,,,,,,,,,N*2E
$GNGGA,211519.18,,,,,0,00,99.99,,,,,,*7E
$GNGSA,A,1,,,,,,,,,,,,,99.99,99.99,99.99,1*33
$GNGSA,A,1,,,,,,,,,,,,,99.99,99.99,99.99,2*30
$GNGSA,A,1,,,,,,,,,,,,,99.99,99.99,99.99,4*36
$GPGSV,3,1,10,02,36,107,,03,02,356,,06,28,058,,12,75,059,,1*6B
$GPGSV,3,2,10,19,08,044,,24,35,152,,25,66,283,,29,30,209,,1*6F
$GPGSV,3,3,10,31,12,310,,32,34,275,,1*60
$GPGSV,3,1,10,02,36,107,,03,02,356,,06,28,058,,12,75,059,,6*6C
$GPGSV,3,2,10,19,08,044,,24,35,152,,25,66,283,,29,30,209,,6*68
$GPGSV,3,3,10,31,12,310,,32,34,275,,6*67
$GLGSV,3,1,10,68,08,244,,69,23,292,,70,11,351,,77,35,104,,1*7B
$GLGSV,3,2,10,78,75,001,,79,28,303,,81,11,183,,86,03,019,,1*76
$GLGSV,3,3,10,87,54,061,,88,53,145,,1*76
$GLGSV,3,1,10,68,08,244,,69,23,292,,70,11,351,,77,35,104,,3*79
$GLGSV,3,2,10,78,75,001,,79,28,303,,81,11,183,,86,03,019,,3*74
$GLGSV,3,3,10,87,54,061,,88,53,145,,3*74
$GBGSV,3,1,11,02,04,106,,05,18,128,,10,07,078,,12,25,189,,1*7F
$GBGSV,3,2,11,13,27,089,,24,72,292,,25,15,299,,26,56,124,,1*7A
$GBGSV,3,3,11,29,13,040,,33,04,262,,35,54,077,,1*4E
$GBGSV,3,1,11,02,04,106,,05,18,128,,10,07,078,,12,25,189,,3*7D
$GBGSV,3,2,11,13,27,089,,24,72,292,,25,15,299,,26,56,124,,3*78
$GBGSV,3,3,11,29,13,040,,33,04,262,,35,54,077,,3*4C
$GNGLL,,,,,211519.18,V,N*52
$GNRMC,211520.00,A,5025.4459111,N,01411.3817266,E,0.226,79.14,241021,,,A,V*33
$GNVTG,79.14,T,,M,0.226,N,0.419,K,A*12
$GNGGA,211520.00,5025.4459111,N,01411.3817266,E,1,12,0.73,219.486,M,44.078,M,,*4A
$GNGSA,A,3,24,31,32,29,12,25,06,02,,,,,1.33,0.73,1.12,1*08
$GNGSA,A,3,87,88,69,79,78,,,,,,,,1.33,0.73,1.12,2*04
$GNGSA,A,3,12,24,35,25,26,,,,,,,,1.33,0.73,1.12,4*03
$GPGSV,3,1,10,02,36,107,36,03,02,356,23,06,28,058,31,12,75,059,46,1*6F
$GPGSV,3,2,10,19,08,044,,24,35,152,46,25,66,283,45,29,30,209,46,1*6E
$GPGSV,3,3,10,31,12,310,42,32,34,275,51,1*62
$GPGSV,3,1,10,02,36,107,,03,02,356,25,06,28,058,26,12,75,059,44,6*6F
$GPGSV,3,2,10,19,08,044,,24,35,152,42,25,66,283,45,29,30,209,40,6*6B
$GPGSV,3,3,10,31,12,310,40,32,34,275,43,6*64
$GLGSV,3,1,10,68,08,244,43,69,23,292,45,70,11,351,,77,35,104,,1*7D
$GLGSV,3,2,10,78,75,001,52,79,28,303,47,81,11,183,39,86,03,019,,1*78
$GLGSV,3,3,10,87,54,061,46,88,53,145,45,1*75
$GLGSV,3,1,10,68,08,244,36,69,23,292,41,70,11,351,,77,35,104,,3*79
$GLGSV,3,2,10,78,75,001,44,79,28,303,38,81,11,183,34,86,03,019,,3*78
$GLGSV,3,3,10,87,54,061,,88,53,145,38,3*7F
$GBGSV,3,1,11,02,04,106,,05,18,128,,10,07,078,,12,25,189,44,1*7F
$GBGSV,3,2,11,13,27,089,29,24,72,292,43,25,15,299,47,26,56,124,42,1*73
$GBGSV,3,3,11,29,13,040,25,33,04,262,43,35,54,077,44,1*4E
$GBGSV,3,1,11,02,04,106,,05,18,128,,10,07,078,25,12,25,189,46,3*78
$GBGSV,3,2,11,13,27,089,26,24,72,292,,25,15,299,,26,56,124,,3*7C
$GBGSV,3,3,11,29,13,040,,33,04,262,,35,54,077,,3*4C
$GNGLL,5025.4459111,N,01411.3817266,E,211520.00,A,A*77
$GNRMC,211521.00,A,5025.4464578,N,01411.3822670,E,0.032,,241021,,,A,V*10
$GNVTG,,T,,M,0.032,N,0.059,K,A*30
$GNGGA,211521.00,5025.4464578,N,01411.3822670,E,1,12,0.69,217.682,M,44.078,M,,*48
$GNGSA,A,3,24,31,32,29,12,25,06,02,,,,,1.25,0.69,1.04,1*03
$GNGSA,A,3,87,88,69,79,78,,,,,,,,1.25,0.69,1.04,2*0F
$GNGSA,A,3,12,13,24,35,25,26,,,,,,,1.25,0.69,1.04,4*0A
$GPGSV,3,1,10,02,36,107,36,03,02,356,21,06,28,058,30,12,75,059,46,1*6C
$GPGSV,3,2,10,19,08,044,,24,35,152,45,25,66,283,44,29,30,209,46,1*6C
$GPGSV,3,3,10,31,12,310,42,32,34,275,51,1*62
$GPGSV,3,1,10,02,36,107,,03,02,356,25,06,28,058,27,12,75,059,44,6*6E
$GPGSV,3,2,10,19,08,044,,24,35,152,41,25,66,283,45,29,30,209,40,6*68
$GPGSV,3,3,10,31,12,310,40,32,34,275,42,6*65
$GLGSV,3,1,10,68,08,244,44,69,23,292,46,70,11,351,,77,35,104,,1*79
$GLGSV,3,2,10,78,75,001,52,79,28,303,48,81,11,183,40,86,03,019,,1*79
$GLGSV,3,3,10,87,54,061,47,88,53,145,45,1*74
$GLGSV,3,1,10,68,08,244,36,69,23,292,41,70,11,351,,77,35,104,21,3*7A
$GLGSV,3,2,10,78,75,001,44,79,28,303,38,81,11,183,35,86,03,019,,3*79
$GLGSV,3,3,10,87,54,061,,88,53,145,39,3*7E
$GBGSV,3,1,11,02,04,106,,05,18,128,,10,07,078,26,12,25,189,44,1*7B
$GBGSV,3,2,11,13,27,089,29,24,72,292,43,25,15,299,47,26,56,124,42,1*73
$GBGSV,3,3,11,29,13,040,25,33,04,262,43,35,54,077,44,1*4E
$GBGSV,3,1,11,02,04,106,,05,18,128,,10,07,078,25,12,25,189,47,3*79
$GBGSV,3,2,11,13,27,089,26,24,72,292,,25,15,299,,26,56,124,,3*7C
$GBGSV,3,3,11,29,13,040,,33,04,262,,35,54,077,,3*4C
$GNGLL,5025.4464578,N,01411.3822670,E,211521.00,A,A*76
$GNRMC,211522.00,A,5025.4458435,N,01411.3807781,E,0.008,,241021,,,A,V*15
$GNVTG,,T,,M,0.008,N,0.014,K,A*30
$GNGGA,211522.00,5025.4458435,N,01411.3807781,E,1,12,0.64,220.451,M,44.078,M,,*41
$GNGSA,A,3,24,31,32,29,12,25,06,02,,,,,1.15,0.64,0.95,1*04
$GNGSA,A,3,87,88,69,79,78,,,,,,,,1.15,0.64,0.95,2*08
$GNGSA,A,3,12,13,24,35,25,26,29,,,,,,1.15,0.64,0.95,4*06
$GPGSV,3,1,10,02,36,107,36,03,02,356,18,06,28,058,31,12,75,059,46,1*67
$GPGSV,3,2,10,19,08,044,,24,35,152,46,25,66,283,44,29,30,209,46,1*6F
$GPGSV,3,3,10,31,12,310,42,32,34,275,51,1*62
$GPGSV,3,1,10,02,36,107,,03,02,356,25,06,28,058,27,12,75,059,44,6*6E
$GPGSV,3,2,10,19,08,044,,24,35,152,41,25,66,283,45,29,30,209,40,6*68
$GPGSV,3,3,10,31,12,310,40,32,34,275,42,6*65
$GLGSV,3,1,10,68,08,244,44,69,23,292,47,70,11,351,,77,35,104,,1*78
$GLGSV,3,2,10,78,75,001,52,79,28,303,49,81,11,183,41,86,03,019,,1*79
$GLGSV,3,3,10,87,54,061,48,88,53,145,46,1*78
$GLGSV,3,1,10,68,08,244,36,69,23,292,41,70,11,351,,77,35,104,22,3*79
$GLGSV,3,2,10,78,75,001,44,79,28,303,39,81,11,183,37,86,03,019,,3*7A
$GLGSV,3,3,10,87,54,061,,88,53,145,40,3*70
$GBGSV,3,1,11,02,04,106,,05,18,128,,10,07,078,25,12,25,189,44,1*78
$GBGSV,3,2,11,13,27,089,30,24,72,292,43,25,15,299,47,26,56,124,42,1*7B
$GBGSV,3,3,11,29,13,040,24,33,04,262,43,35,54,077,43,1*48
$GBGSV,3,1,11,02,04,106,,05,18,128,,10,07,078,25,12,25,189,47,3*79
$GBGSV,3,2,11,13,27,089,26,24,72,292,,25,15,299,,26,56,124,,3*7C
$GBGSV,3,3,11,29,13,040,,33,04,262,,35,54,077,,3*4C
$GNGLL,5025.4458435,N,01411.3807781,E,211522.00,A,A*7A
$GNRMC,211523.00,A,5025.4457616,N,01411.3804852,E,0.011,,241021,,,A,V*12
$GNVTG,,T,,M,0.011,N,0.021,K,A*3E
$GNGGA,211523.00,5025.4457616,N,01411.3804852,E,1,12,0.64,220.946,M,44.078,M,,*45
$GNGSA,A,3,24,31,32,29,12,25,06,02,,,,,1.15,0.64,0.95,1*04
$GNGSA,A,3,87,88,69,79,78,,,,,,,,1.15,0.64,0.95,2*08
$GNGSA,A,3,12,13,24,35,25,26,29,,,,,,1.15,0.64,0.95,4*06
$GPGSV,3,1,10,02,36,107,36,03,02,356,12,06,28,058,32,12,75,059,46,1*6E
$GPGSV,3,2,10,19,08,044,,24,35,152,46,25,66,283,44,29,30,209,46,1*6F
$GPGSV,3,3,10,31,12,310,42,32,34,275,51,1*62
$GPGSV,3,1,10,02,36,107,,03,02,356,24,06,28,058,27,12,75,059,44,6*6F
$GPGSV,3,2,10,19,08,044,,24,35,152,41,25,66,283,45,29,30,209,40,6*68
$GPGSV,3,3,10,31,12,310,40,32,34,275,42,6*65
$GLGSV,3,1,10,68,08,244,43,69,23,292,47,70,11,351,,77,35,104,,1*7F
$GLGSV,3,2,10,78,75,001,52,79,28,303,49,81,11,183,41,86,03,019,,1*79
$GLGSV,3,3,10,87,54,061,48,88,53,145,46,1*78
$GLGSV,3,1,10,68,08,244,36,69,23,292,42,70,11,351,,77,35,104,21,3*79
$GLGSV,3,2,10,78,75,001,44,79,28,303,39,81,11,183,37,86,03,019,,3*7A
$GLGSV,3,3,10,87,54,061,,88,53,145,41,3*71
$GBGSV,3,1,11,02,04,106,,05,18,128,,10,07,078,25,12,25,189,44,1*78
$GBGSV,3,2,11,13,27,089,30,24,72,292,43,25,15,299,47,26,56,124,42,1*7B
$GBGSV,3,3,11,29,13,040,24,33,04,262,43,35,54,077,43,1*48
$GBGSV,3,1,11,02,04,106,,05,18,128,,10,07,078,26,12,25,189,47,3*7A
$GBGSV,3,2,11,13,27,089,26,24,72,292,,25,15,299,,26,56,124,,3*7C
$GBGSV,3,3,11,29,13,040,,33,04,262,,35,54,077,,3*4C
$GNGLL,5025.4457616,N,01411.3804852,E,211523.00,A,A*75
$GNRMC,211524.00,A,5025.4456665,N,01411.3803266,E,0.005,,241021,,,A,V*1F
$GNVTG,,T,,M,0.005,N,0.009,K,A*31
$GNGGA,211524.00,5025.4456665,N,01411.3803266,E,1,12,0.63,221.304,M,44.078,M,,*47
$GNGSA,A,3,24,31,32,29,12,25,06,02,,,,,1.13,0.63,0.95,1*05
$GNGSA,A,3,87,88,69,79,77,78,,,,,,,1.13,0.63,0.95,2*09
$GNGSA,A,3,12,13,24,35,25,26,29,,,,,,1.13,0.63,0.95,4*07
$GPGSV,3,1,10,02,36,107,37,03,02,356,08,06,28,058,32,12,75,059,47,1*65
$GPGSV,3,2,10,19,08,044,,24,35,152,46,25,66,283,45,29,30,209,46,1*6E
$GPGSV,3,3,10,31,12,310,43,32,34,275,52,1*60
$GPGSV,3,1,10,02,36,107,,03,02,356,23,06,28,058,27,12,75,059,44,6*68
$GPGSV,3,2,10,19,08,044,,24,35,152,41,25,66,283,46,29,30,209,40,6*6B
$GPGSV,3,3,10,31,12,310,40,32,34,275,42,6*65
$GLGSV,3,1,10,68,08,244,43,69,23,292,48,70,11,351,,77,35,104,,1*70
$GLGSV,3,2,10,78,75,001,52,79,28,303,49,81,11,183,41,86,03,019,,1*79
$GLGSV,3,3,10,87,54,061,48,88,53,145,47,1*79
$GLGSV,3,1,10,68,08,244,36,69,23,292,43,70,11,351,,77,35,104,21,3*78
$GLGSV,3,2,10,78,75,001,44,79,28,303,39,81,11,183,37,86,03,019,,3*7A
$GLGSV,3,3,10,87,54,061,,88,53,145,41,3*71
$GBGSV,3,1,11,02,04,106,,05,18,128,,10,07,078,25,12,25,189,44,1*78
$GBGSV,3,2,11,13,27,089,30,24,72,292,44,25,15,299,47,26,56,124,43,1*7D
$GBGSV,3,3,11,29,13,040,24,33,04,262,43,35,54,077,43,1*48
$GBGSV,3,1,11,02,04,106,,05,18,128,,10,07,078,26,12,25,189,47,3*7A
$GBGSV,3,2,11,13,27,089,26,24,72,292,,25,15,299,,26,56,124,,3*7C
$GBGSV,3,3,11,29,13,040,,33,04,262,,35,54,077,,3*4C
$GNGLL,5025.4456665,N,01411.3803266,E,211524.00,A,A*7D
$GNRMC,211525.00,A,5025.4456671,N,01411.3803265,E,0.008,,241021,,,A,V*15
$GNVTG,,T,,M,0.008,N,0.016,K,A*32
$GNGGA,211525.00,5025.4456671,N,01411.3803265,E,1,12,0.63,221.383,M,44.078,M,,*4F
$GNGSA,A,3,24,31,32,29,12,25,06,02,,,,,1.13,0.63,0.95,1*05
$GNGSA,A,3,87,88,69,79,77,78,,,,,,,1.13,0.63,0.95,2*09
$GNGSA,A,3,12,13,24,35,25,26,29,,,,,,1.13,0.63,0.95,4*07
$GPGSV,3,1,10,02,36,107,38,03,02,356,08,06,28,058,33,12,75,059,47,1*6B
$GPGSV,3,2,10,19,08,044,,24,35,152,46,25,66,283,45,29,30,209,46,1*6E
$GPGSV,3,3,10,31,12,310,43,32,34,275,52,1*60
$GPGSV,3,1,10,02,36,107,,03,02,356,22,06,28,058,27,12,75,059,44,6*69
$GPGSV,3,2,10,19,08,044,,24,35,152,41,25,66,283,46,29,30,209,40,6*6B
$GPGSV,3,3,10,31,12,310,40,32,34,275,43,6*64
$GLGSV,3,1,10,68,08,244,44,69,23,292,48,70,11,351,,77,35,104,,1*77
$GLGSV,3,2,10,78,75,001,52,79,28,303,49,81,11,183,42,86,03,019,23,1*7B
$GLGSV,3,3,10,87,54,061,48,88,53,145,47,1*79
$GLGSV,3,1,10,68,08,244,36,69,23,292,43,70,11,351,,77,35,104,20,3*79
$GLGSV,3,2,10,78,75,001,44,79,28,303,39,81,11,183,37,86,03,019,,3*7A
$GLGSV,3,3,10,87,54,061,,88,53,145,41,3*71
$GBGSV,3,1,11,02,04,106,,05,18,128,,10,07,078,25,12,25,189,44,1*78
$GBGSV,3,2,11,13,27,089,30,24,72,292,44,25,15,299,47,26,56,124,43,1*7D
$GBGSV,3,3,11,29,13,040,24,33,04,262,44,35,54,077,44,1*48
$GBGSV,3,1,11,02,04,106,,05,18,128,,10,07,078,27,12,25,189,47,3*7B
$GBGSV,3,2,11,13,27,089,25,24,72,292,,25,15,299,,26,56,124,,3*7F
$GBGSV,3,3,11,29,13,040,,33,04,262,,35,54,077,,3*4C
$GNGLL,5025.4456671,N,01411.3803265,E,211525.00,A,A*7A
$GNRMC,211526.00,A,5025.4457527,N,01411.3803920,E,0.009,,241021,,,A,V*1C
$GNVTG,,T,,M,0.009,N,0.017,K,A*32
$GNGGA,211526.00,5025.4457527,N,01411.3803920,E,1,12,0.69,221.197,M,44.078,M,,*4A
$GNGSA,A,3,24,31,32,29,12,25,06,02,,,,,1.25,0.69,1.04,1*03
$GNGSA,A,3,87,88,69,79,77,78,,,,,,,1.25,0.69,1.04,2*0F
$GNGSA,A,3,12,13,24,35,25,26,29,,,,,,1.25,0.69,1.04,4*01
$GPGSV,3,1,10,02,36,107,38,03,02,356,07,06,28,058,33,12,75,059,47,1*64
$GPGSV,3,2,10,19,08,044,,24,35,152,47,25,66,283,45,29,30,209,46,1*6F
$GPGSV,3,3,10,31,12,310,43,32,34,275,52,1*60
$GPGSV,3,1,10,02,36,107,,03,02,356,22,06,28,058,27,12,75,059,44,6*69
$GPGSV,3,2,10,19,08,044,,24,35,152,41,25,66,283,46,29,30,209,40,6*6B
$GPGSV,3,3,10,31,12,310,40,32,34,275,43,6*64
$GLGSV,3,1,10,68,08,244,43,69,23,292,48,70,11,351,,77,35,104,,1*70
$GLGSV,3,2,10,78,75,001,52,79,28,303,50,81,11,183,42,86,03,019,23,1*73
$GLGSV,3,3,10,87,54,061,48,88,53,145,47,1*79
$GLGSV,3,1,10,68,08,244,36,69,23,292,43,70,11,351,,77,35,104,19,3*73
$GLGSV,3,2,10,78,75,001,44,79,28,303,39,81,11,183,37,86,03,019,,3*7A
$GLGSV,3,3,10,87,54,061,,88,53,145,42,3*72
$GBGSV,3,1,11,02,04,106,,05,18,128,,10,07,078,25,12,25,189,44,1*78
$GBGSV,3,2,11,13,27,089,30,24,72,292,43,25,15,299,47,26,56,124,43,1*7A
$GBGSV,3,3,11,29,13,040,23,33,04,262,44,35,54,077,44,1*4F
$GBGSV,3,1,11,02,04,106,,05,18,128,,10,07,078,26,12,25,189,47,3*7A
$GBGSV,3,2,11,13,27,089,25,24,72,292,,25,15,299,,26,56,124,,3*7F
$GBGSV,3,3,11,29,13,040,,33,04,262,,35,54,077,,3*4C
$GNGLL,5025.4457527,N,01411.3803920,E,211526.00,A,A*72
$GNRMC,211527.00,A,5025.4457952,N,01411.3803940,E,0.014,,241021,,,A,V*19
$GNVTG,,T,,M,0.014,N,0.027,K,A*3D
$GNGGA,211527.00,5025.4457952,N,01411.3803940,E,1,12,0.69,221.179,M,44.078,M,,*43
$GNGSA,A,3,24,31,32,29,12,25,06,02,,,,,1.25,0.69,1.04,1*03
$GNGSA,A,3,87,88,69,79,77,78,,,,,,,1.25,0.69,1.04,2*0F
$GNGSA,A,3,12,13,24,35,25,26,,,,,,,1.25,0.69,1.04,4*0A
$GPGSV,3,1,10,02,36,107,38,03,02,356,10,06,28,058,34,12,75,059,47,1*65
$GPGSV,3,2,10,19,08,044,,24,35,152,47,25,66,283,45,29,30,209,46,1*6F
$GPGSV,3,3,10,31,12,310,43,32,34,275,52,1*60
$GPGSV,3,1,10,02,36,107,,03,02,356,22,06,28,058,27,12,75,059,44,6*69
$GPGSV,3,2,10,19,08,044,,24,35,152,41,25,66,283,46,29,30,209,40,6*6B
$GPGSV,3,3,10,31,12,310,40,32,34,275,43,6*64
$GLGSV,3,1,10,68,08,244,43,69,23,292,48,70,11,351,,77,35,104,,1*70
$GLGSV,3,2,10,78,75,001,52,79,28,303,50,81,11,183,42,86,03,019,23,1*73
$GLGSV,3,3,10,87,54,061,48,88,53,145,47,1*79
$GLGSV,3,1,10,68,08,244,36,69,23,292,43,70,11,351,,77,35,104,19,3*73
$GLGSV,3,2,10,78,75,001,44,79,28,303,39,81,11,183,37,86,03,019,,3*7A
$GLGSV,3,3,10,87,54,061,,88,53,145,42,3*72
$GBGSV,3,1,11,02,04,106,,05,18,128,,10,07,078,25,12,25,189,44,1*78
$GBGSV,3,2,11,13,27,089,30,24,72,292,44,25,15,299,47,26,56,124,43,1*7D
$GBGSV,3,3,11,29,13,040,25,33,04,262,44,35,54,077,44,1*49
$GBGSV,3,1,11,02,04,106,,05,18,128,,10,07,078,27,12,25,189,47,3*7B
$GBGSV,3,2,11,13,27,089,25,24,72,292,,25,15,299,,26,56,124,,3*7F
$GBGSV,3,3,11,29,13,040,,33,04,262,,35,54,077,,3*4C
$GNGLL,5025.4457952,N,01411.3803940,E,211527.00,A,A*7B
$GNRMC,211528.00,A,5025.4458600,N,01411.3804227,E,0.007,,241021,,,A,V*1E
$GNVTG,,T,,M,0.007,N,0.014,K,A*3F
$GNGGA,211528.00,5025.4458600,N,01411.3804227,E,1,12,0.69,221.168,M,44.078,M,,*46
$GNGSA,A,3,24,31,32,29,12,25,06,02,,,,,1.25,0.69,1.04,1*03
$GNGSA,A,3,87,88,69,79,77,78,,,,,,,1.25,0.69,1.04,2*0F
$GNGSA,A,3,12,13,24,35,25,26,,,,,,,1.25,0.69,1.04,4*0A
$GPGSV,3,1,10,02,36,107,38,03,02,356,16,06,28,058,34,12,75,059,47,1*63
$GPGSV,3,2,10,19,08,044,,24,35,152,47,25,66,283,45,29,30,209,46,1*6F
$GPGSV,3,3,10,31,12,310,43,32,34,275,52,1*60
$GPGSV,3,1,10,02,36,107,,03,02,356,23,06,28,058,27,12,75,059,43,6*6F
$GPGSV,3,2,10,19,08,044,,24,35,152,41,25,66,283,46,29,30,209,40,6*6B
$GPGSV,3,3,10,31,12,310,40,32,34,275,43,6*64
$GLGSV,3,1,10,68,08,244,44,69,23,292,48,70,11,351,,77,35,104,,1*77
$GLGSV,3,2,10,78,75,001,52,79,28,303,50,81,11,183,41,86,03,019,23,1*70
$GLGSV,3,3,10,87,54,061,48,88,53,145,46,1*78
$GLGSV,3,1,10,68,08,244,36,69,23,292,43,70,11,351,,77,35,104,20,3*79
$GLGSV,3,2,10,78,75,001,44,79,28,303,39,81,11,183,37,86,03,019,,3*7A
$GLGSV,3,3,10,87,54,061,,88,53,145,42,3*72
$GBGSV,3,1,11,02,04,106,,05,18,128,,10,07,078,25,12,25,189,44,1*78
$GBGSV,3,2,11,13,27,089,29,24,72,292,44,25,15,299,48,26,56,124,43,1*7A
$GBGSV,3,3,11,29,13,040,24,33,04,262,44,35,54,077,44,1*48
$GBGSV,3,1,11,02,04,106,,05,18,128,,10,07,078,26,12,25,189,47,3*7A
$GBGSV,3,2,11,13,27,089,25,24,72,292,,25,15,299,,26,56,124,,3*7F
$GBGSV,3,3,11,29,13,040,,33,04,262,,35,54,077,,3*4C
$GNGLL,5025.4458600,N,01411.3804227,E,211528.00,A,A*7E
$GNRMC,211529.00,A,5025.4459116,N,01411.3804548,E,0.021,,241021,,,A,V*14
$GNVTG,,T,,M,0.021,N,0.038,K,A*35
$GNGGA,211529.00,5025.4459116,N,01411.3804548,E,1,12,0.69,221.149,M,44.078,M,,*4B
$GNGSA,A,3,24,31,32,29,12,25,06,02,,,,,1.25,0.69,1.04,1*03
$GNGSA,A,3,87,88,69,79,77,78,,,,,,,1.25,0.69,1.04,2*0F
$GNGSA,A,3,12,13,24,35,25,26,,,,,,,1.25,0.69,1.04,4*0A
$GPGSV,3,1,10,02,36,107,38,03,02,356,19,06,28,058,34,12,75,059,47,1*6C
$GPGSV,3,2,10,19,08,044,,24,35,152,47,25,66,283,45,29,30,209,46,1*6F
$GPGSV,3,3,10,31,12,310,43,32,34,275,51,1*63
$GPGSV,3,1,10,02,36,107,,03,02,356,23,06,28,058,27,12,75,059,43,6*6F
$GPGSV,3,2,10,19,08,044,,24,35,152,41,25,66,283,46,29,30,209,40,6*6B
$GPGSV,3,3,10,31,12,310,40,32,34,275,43,6*64
$GLGSV,3,1,10,68,08,244,44,69,23,292,49,70,11,351,,77,35,104,,1*76
$GLGSV,3,2,10,78,75,001,52,79,28,303,50,81,11,183,42,86,03,019,22,1*72
$GLGSV,3,3,10,87,54,061,49,88,53,145,46,1*79
$GLGSV,3,1,10,68,08,244,37,69,23,292,43,70,11,351,,77,35,104,19,3*72
$GLGSV,3,2,10,78,75,001,44,79,28,303,39,81,11,183,37,86,03,019,,3*7A
$GLGSV,3,3,10,87,54,061,,88,53,145,42,3*72
$GBGSV,3,1,11,02,04,106,,05,18,128,,10,07,078,25,12,25,189,44,1*78
$GBGSV,3,2,11,13,27,089,30,24,72,292,44,25,15,299,48,26,56,124,43,1*72
$GBGSV,3,3,11,29,13,040,,33,04,262,44,35,54,077,43,1*49
$GBGSV,3,1,11,02,04,106,,05,18,128,,10,07,078,26,12,25,189,47,3*7A
$GBGSV,3,2,11,13,27,089,25,24,72,292,,25,15,299,,26,56,124,,3*7F
$GBGSV,3,3,11,29,13,040,,33,04,262,,35,54,077,,3*4C
$GNGLL,5025.4459116,N,01411.3804548,E,211529.00,A,A*70
$GNRMC,211530.00,A,5025.4459462,N,01411.3804758,E,0.011,,241021,,,A,V*1A
$GNVTG,,T,,M,0.011,N,0.020,K,A*3F
$GNGGA,211530.00,5025.4459462,N,01411.3804758,E,1,12,0.69,221.134,M,44.078,M,,*4C
$GNGSA,A,3,24,31,32,29,12,25,06,02,,,,,1.25,0.69,1.04,1*03
$GNGSA,A,3,87,88,69,79,77,78,,,,,,,1.25,0.69,1.04,2*0F
$GNGSA,A,3,12,13,24,35,25,26,,,,,,,1.25,0.69,1.04,4*0A
$GPGSV,3,1,10,02,36,107,38,03,02,356,21,06,28,058,34,12,75,059,47,1*67
$GPGSV,3,2,10,19,08,044,,24,35,152,47,25,66,283,45,29,30,209,46,1*6F
$GPGSV,3,3,10,31,12,310,43,32,34,275,51,1*63
$GPGSV,3,1,10,02,36,107,,03,02,356,23,06,28,058,28,12,75,059,43,6*60
$GPGSV,3,2,10,19,08,044,,24,35,152,41,25,66,283,46,29,30,209,41,6*6A
$GPGSV,3,3,10,31,12,310,40,32,34,275,42,6*65
$GLGSV,3,1,10,68,08,244,44,69,23,292,49,70,11,351,,77,35,104,,1*76
$GLGSV,3,2,10,78,75,001,52,79,28,303,50,81,11,183,42,86,03,019,22,1*72
$GLGSV,3,3,10,87,54,061,49,88,53,145,46,1*79
$GLGSV,3,1,10,68,08,244,37,69,23,292,43,70,11,351,,77,35,104,20,3*78
$GLGSV,3,2,10,78,75,001,44,79,28,303,39,81,11,183,37,86,03,019,,3*7A
$GLGSV,3,3,10,87,54,061,,88,53,145,42,3*72
$GBGSV,3,1,11,02,04,106,,05,18,128,,10,07,078,25,12,25,189,44,1*78
$GBGSV,3,2,11,13,27,089,30,24,72,292,44,25,15,299,48,26,56,124,43,1*72
$GBGSV,3,3,11,29,13,040,24,33,04,262,44,35,54,077,43,1*4F
$GBGSV,3,1,11,02,04,106,,05,18,128,,10,07,078,26,12,25,189,47,3*7A
$GBGSV,3,2,11,13,27,089,25,24,72,292,,25,15,299,,26,56,124,,3*7F
$GBGSV,3,3,11,29,13,040,,33,04,262,,35,54,077,,3*4C
$GNGLL,5025.4459462,N,01411.3804758,E,211530.00,A,A*7D
$GNRMC,211531.00,A,5025.4459769,N,01411.3804930,E,0.011,,241021,,,A,V*13
$GNVTG,,T,,M,0.011,N,0.020,K,A*3F
$GNGGA,211531.00,5025.4459769,N,01411.3804930,E,1,12,0.69,221.104,M,44.078,M,,*46
$GNGSA,A,3,24,31,32,29,12,25,06,02,,,,,1.25,0.69,1.04,1*03
$GNGSA,A,3,87,88,69,79,77,78,,,,,,,1.25,0.69,1.04,2*0F
$GNGSA,A,3,12,13,24,35,25,26,,,,,,,1.25,0.69,1.04,4*0A
$GPGSV,3,1,10,02,36,107,38,03,02,356,23,06,28,058,34,12,75,059,47,1*65
$GPGSV,3,2,10,19,08,044,,24,35,152,47,25,66,283,45,29,30,209,46,1*6F
$GPGSV,3,3,10,31,12,310,43,32,34,275,51,1*63
$GPGSV,3,1,10,02,36,107,,03,02,356,22,06,28,058,28,12,75,059,43,6*61
$GPGSV,3,2,10,19,08,044,,24,35,152,41,25,66,283,46,29,30,209,41,6*6A
$GPGSV,3,3,10,31,12,310,40,32,34,275,43,6*64
$GLGSV,3,1,10,68,08,244,44,69,23,292,49,70,11,351,,77,35,104,,1*76
$GLGSV,3,2,10,78,75,001,52,79,28,303,50,81,11,183,42,86,03,019,22,1*72
$GLGSV,3,3,10,87,54,061,49,88,53,145,47,1*78
$GLGSV,3,1,10,68,08,244,37,69,23,292,43,70,11,351,,77,35,104,20,3*78
$GLGSV,3,2,10,78,75,001,44,79,28,303,40,81,11,183,37,86,03,019,,3*74
$GLGSV,3,3,10,87,54,061,,88,53,145,42,3*72
$GBGSV,3,1,11,02,04,106,,05,18,128,,10,07,078,25,12,25,189,44,1*78
$GBGSV,3,2,11,13,27,089,30,24,72,292,44,25,15,299,48,26,56,124,43,1*72
$GBGSV,3,3,11,29,13,040,,33,04,262,44,35,54,077,43,1*49
$GBGSV,3,1,11,02,04,106,,05,18,128,,10,07,078,26,12,25,189,47,3*7A
$GBGSV,3,2,11,13,27,089,25,24,72,292,,25,15,299,,26,56,124,,3*7F
$GBGSV,3,3,11,29,13,040,,33,04,262,,35,54,077,,3*4C
$GNGLL,5025.4459769,N,01411.3804930,E,211531.00,A,A*74
$GNRMC,211532.00,A,5025.4460078,N,01411.3805107,E,0.002,,241021,,,A,V*12
$GNVTG,,T,,M,0.002,N,0.004,K,A*3B
$GNGGA,211532.00,5025.4460078,N,01411.3805107,E,1,12,0.69,221.100,M,44.078,M,,*41
$GNGSA,A,3,24,31,32,29,12,25,06,02,,,,,1.25,0.69,1.04,1*03
$GNGSA,A,3,87,88,69,79,77,78,,,,,,,1.25,0.69,1.04,2*0F
$GNGSA,A,3,12,13,24,35,25,26,,,,,,,1.25,0.69,1.04,4*0A
$GPGSV,3,1,10,02,36,107,38,03,02,356,24,06,28,058,34,12,75,059,47,1*62
$GPGSV,3,2,10,19,08,044,,24,35,152,47,25,66,283,45,29,30,209,46,1*6F
$GPGSV,3,3,10,31,12,310,43,32,34,275,51,1*63
$GPGSV,3,1,10,02,36,107,,03,02,356,22,06,28,058,28,12,75,059,43,6*61
$GPGSV,3,2,10,19,08,044,,24,35,152,41,25,66,283,46,29,30,209,41,6*6A
$GPGSV,3,3,10,31,12,310,40,32,34,275,43,6*64
$GLGSV,3,1,10,68,08,244,44,69,23,292,49,70,11,351,,77,35,104,,1*76
$GLGSV,3,2,10,78,75,001,52,79,28,303,51,81,11,183,42,86,03,019,21,1*70
$GLGSV,3,3,10,87,54,061,49,88,53,145,47,1*78
$GLGSV,3,1,10,68,08,244,37,69,23,292,43,70,11,351,,77,35,104,21,3*79
$GLGSV,3,2,10,78,75,001,44,79,28,303,40,81,11,183,37,86,03,019,,3*74
$GLGSV,3,3,10,87,54,061,,88,53,145,42,3*72
$GBGSV,3,1,11,02,04,106,,05,18,128,,10,07,078,25,12,25,189,44,1*78
$GBGSV,3,2,11,13,27,089,29,24,72,292,43,25,15,299,47,26,56,124,43,1*72
$GBGSV,3,3,11,29,13,040,25,33,04,262,44,35,54,077,43,1*4E
$GBGSV,3,1,11,02,04,106,,05,18,128,,10,07,078,26,12,25,189,47,3*7A
$GBGSV,3,2,11,13,27,089,25,24,72,292,,25,15,299,,26,56,124,,3*7F
$GBGSV,3,3,11,29,13,040,,33,04,262,,35,54,077,,3*4C
$GNGLL,5025.4460078,N,01411.3805107,E,211532.00,A,A*77
$GNRMC,211533.00,A,5025.4460345,N,01411.3805325,E,0.003,,241021,,,A,V*1D
$GNVTG,,T,,M,0.003,N,0.006,K,A*38
$GNGGA,211533.00,5025.4460345,N,01411.3805325,E,1,12,0.69,221.058,M,44.078,M,,*43
$GNGSA,A,3,24,31,32,29,12,25,06,02,,,,,1.25,0.69,1.04,1*03
$GNGSA,A,3,87,88,69,79,77,78,,,,,,,1.25,0.69,1.04,2*0F
$GNGSA,A,3,12,13,24,35,25,26,,,,,,,1.25,0.69,1.04,4*0A
$GPGSV,3,1,10,02,36,107,37,03,02,356,25,06,28,058,34,12,75,059,47,1*6C
$GPGSV,3,2,10,19,08,044,,24,35,152,47,25,66,283,45,29,30,209,46,1*6F
$GPGSV,3,3,10,31,12,310,43,32,34,275,51,1*63
$GPGSV,3,1,10,02,36,107,,03,02,356,22,06,28,058,29,12,75,059,43,6*60
$GPGSV,3,2,10,19,08,044,,24,35,152,41,25,66,283,46,29,30,209,41,6*6A
$GPGSV,3,3,10,31,12,310,40,32,34,275,43,6*64
$GLGSV,3,1,10,68,08,244,44,69,23,292,49,70,11,351,,77,35,104,,1*76
$GLGSV,3,2,10,78,75,001,52,79,28,303,51,81,11,183,42,86,03,019,20,1*71
$GLGSV,3,3,10,87,54,061,49,88,53,145,47,1*78
$GLGSV,3,1,10,68,08,244,37,69,23,292,43,70,11,351,,77,35,104,21,3*79
$GLGSV,3,2,10,78,75,001,44,79,28,303,40,81,11,183,37,86,03,019,,3*74
$GLGSV,3,3,10,87,54,061,,88,53,145,42,3*72
$GBGSV,3,1,11,02,04,106,,05,18,128,,10,07,078,25,12,25,189,44,1*78
$GBGSV,3,2,11,13,27,089,29,24,72,292,43,25,15,299,47,26,56,124,43,1*72
$GBGSV,3,3,11,29,13,040,,33,04,262,44,35,54,077,43,1*49
$GBGSV,3,1,11,02,04,106,,05,18,128,,10,07,078,26,12,25,189,47,3*7A
$GBGSV,3,2,11,13,27,089,25,24,72,292,,25,15,299,,26,56,124,,3*7F
$GBGSV,3,3,11,29,13,040,,33,04,262,,35,54,077,,3*4C
$GNGLL,5025.4460345,N,01411.3805325,E,211533.00,A,A*79
$GNRMC,211534.00,A,5025.4460652,N,01411.3805630,E,0.007,,241021,,,A,V*1C
$GNVTG,,T,,M,0.007,N,0.012,K,A*39
$GNGGA,211534.00,5025.4460652,N,01411.3805630,E,1,12,0.69,221.004,M,44.078,M,,*4F
$GNGSA,A,3,24,31,32,29,12,25,06,02,,,,,1.25,0.69,1.04,1*03
$GNGSA,A,3,87,88,69,79,77,78,,,,,,,1.25,0.69,1.04,2*0F
$GNGSA,A,3,12,13,24,35,25,26,,,,,,,1.25,0.69,1.04,4*0A
$GPGSV,3,1,10,02,36,107,37,03,02,356,26,06,28,058,33,12,75,059,47,1*68
$GPGSV,3,2,10,19,08,044,,24,35,152,47,25,66,283,45,29,30,209,46,1*6F
$GPGSV,3,3,10,31,12,310,43,32,34,275,51,1*63
$GPGSV,3,1,10,02,36,107,,03,02,356,22,06,28,058,29,12,75,059,43,6*60
$GPGSV,3,2,10,19,08,044,,24,35,152,41,25,66,283,46,29,30,209,41,6*6A
$GPGSV,3,3,10,31,12,310,40,32,34,275,43,6*64
$GLGSV,3,1,10,68,08,244,44,69,23,292,49,70,11,351,,77,35,104,,1*76
$GLGSV,3,2,10,78,75,001,52,79,28,303,50,81,11,183,42,86,03,019,20,1*70
$GLGSV,3,3,10,87,54,061,49,88,53,145,47,1*78
$GLGSV,3,1,10,68,08,244,37,69,23,292,43,70,11,351,,77,35,104,21,3*79
$GLGSV,3,2,10,78,75,001,44,79,28,303,40,81,11,183,37,86,03,019,,3*74
$GLGSV,3,3,10,87,54,061,,88,53,145,42,3*72
$GBGSV,3,1,11,02,04,106,,05,18,128,,10,07,078,25,12,25,189,44,1*78
$GBGSV,3,2,11,13,27,089,29,24,72,292,43,25,15,299,47,26,56,124,43,1*72
$GBGSV,3,3,11,29,13,040,,33,04,262,44,35,54,077,43,1*49
$GBGSV,3,1,11,02,04,106,,05,18,128,,10,07,078,26,12,25,189,47,3*7A
$GBGSV,3,2,11,13,27,089,25,24,72,292,,25,15,299,,26,56,124,,3*7F
$GBGSV,3,3,11,29,13,040,,33,04,262,,35,54,077,,3*4C
$GNGLL,5025.4460652,N,01411.3805630,E,211534.00,A,A*7C
$GNRMC,211535.00,A,5025.4460820,N,01411.3805790,E,0.002,,241021,,,A,V*18
$GNVTG,,T,,M,0.002,N,0.003,K,A*3C
$GNGGA,211535.00,5025.4460820,N,01411.3805790,E,1,12,0.69,220.966,M,44.078,M,,*42
$GNGSA,A,3,24,31,32,29,12,25,06,02,,,,,1.25,0.69,1.04,1*03
$GNGSA,A,3,87,88,69,79,77,78,,,,,,,1.25,0.69,1.04,2*0F
$GNGSA,A,3,12,13,24,35,25,26,,,,,,,1.25,0.69,1.04,4*0A
$GPGSV,3,1,10,02,36,107,36,03,02,356,27,06,28,058,33,12,75,059,47,1*68
$GPGSV,3,2,10,19,08,044,31,24,35,152,47,25,66,283,45,29,30,209,46,1*6D
$GPGSV,3,3,10,31,12,310,43,32,34,275,51,1*63
$GPGSV,3,1,10,02,36,107,,03,02,356,21,06,28,058,29,12,75,059,43,6*63
$GPGSV,3,2,10,19,08,044,,24,35,152,41,25,66,283,46,29,30,209,41,6*6A
$GPGSV,3,3,10,31,12,310,41,32,34,275,43,6*65
$GLGSV,3,1,10,68,08,244,43,69,23,292,49,70,11,351,,77,35,104,,1*71
$GLGSV,3,2,10,78,75,001,51,79,28,303,50,81,11,183,42,86,03,019,19,1*79
$GLGSV,3,3,10,87,54,061,49,88,53,145,47,1*78
$GLGSV,3,1,10,68,08,244,37,69,23,292,43,70,11,351,,77,35,104,21,3*79
$GLGSV,3,2,10,78,75,001,44,79,28,303,40,81,11,183,37,86,03,019,,3*74
$GLGSV,3,3,10,87,54,061,,88,53,145,41,3*71
$GBGSV,3,1,11,02,04,106,,05,18,128,,10,07,078,25,12,25,189,44,1*78
$GBGSV,3,2,11,13,27,089,29,24,72,292,43,25,15,299,48,26,56,124,44,1*7A
$GBGSV,3,3,11,29,13,040,,33,04,262,44,35,54,077,43,1*49
$GBGSV,3,1,11,02,04,106,,05,18,128,,10,07,078,26,12,25,189,48,3*75
$GBGSV,3,2,11,13,27,089,25,24,72,292,,25,15,299,,26,56,124,,3*7F
$GBGSV,3,3,11,29,13,040,,33,04,262,,35,54,077,,3*4C
$GNGLL,5025.4460820,N,01411.3805790,E,211535.00,A,A*7D
$GNRMC,211536.00,A,5025.4460933,N,01411.3806076,E,0.002,,241021,,,A,V*14
$GNVTG,,T,,M,0.002,N,0.004,K,A*3B
$GNGGA,211536.00,5025.4460933,N,01411.3806076,E,1,12,0.69,220.874,M,44.078,M,,*4C
$GNGSA,A,3,24,31,32,29,12,25,06,02,,,,,1.25,0.69,1.04,1*03
$GNGSA,A,3,87,88,69,79,77,78,,,,,,,1.25,0.69,1.04,2*0F
$GNGSA,A,3,12,13,24,35,25,26,,,,,,,1.25,0.69,1.04,4*0A
$GPGSV,3,1,11,02,36,107,36,03,02,356,27,06,28,058,33,12,75,059,47,1*69
$GPGSV,3,2,11,19,08,044,31,24,35,152,47,25,66,283,45,28,,,21,1*54
$GPGSV,3,3,11,29,31,209,46,31,12,310,43,32,34,275,51,1*52
$GPGSV,3,1,10,02,36,107,,03,02,356,22,06,28,058,30,12,75,059,43,6*68
$GPGSV,3,2,10,19,08,044,,24,35,152,41,25,66,283,46,29,31,209,41,6*6B
$GPGSV,3,3,10,31,12,310,41,32,34,275,43,6*65
$GLGSV,3,1,10,68,08,244,43,69,23,292,49,70,11,351,,77,35,104,,1*71
$GLGSV,3,2,10,78,75,001,51,79,28,303,50,81,11,183,42,86,03,019,18,1*78
$GLGSV,3,3,10,87,54,061,49,88,53,145,47,1*78
$GLGSV,3,1,10,68,08,244,37,69,23,292,43,70,11,351,,77,35,104,21,3*79
$GLGSV,3,2,10,78,75,001,44,79,28,303,40,81,11,183,37,86,03,019,,3*74
$GLGSV,3,3,10,87,54,061,,88,53,145,41,3*71
$GBGSV,3,1,11,02,04,106,,05,18,128,,10,07,078,25,12,25,189,44,1*78
$GBGSV,3,2,11,13,27,089,29,24,72,292,43,25,15,299,48,26,56,124,44,1*7A
$GBGSV,3,3,11,29,13,040,,33,04,262,44,35,54,077,43,1*49
$GBGSV,3,1,11,02,04,106,,05,18,128,,10,07,078,26,12,25,189,48,3*75
$GBGSV,3,2,11,13,27,089,25,24,72,292,,25,15,299,,26,56,124,,3*7F
$GBGSV,3,3,11,29,13,040,,33,04,262,,35,54,077,,3*4C
$GNGLL,5025.4460933,N,01411.3806076,E,211536.00,A,A*71
$GNRMC,211537.00,A,5025.4461051,N,01411.3806496,E,0.009,,241021,,,A,V*18
$GNVTG,,T,,M,0.009,N,0.017,K,A*32
$GNGGA,211537.00,5025.4461051,N,01411.3806496,E,1,12,0.69,220.734,M,44.078,M,,*40
$GNGSA,A,3,24,31,32,29,12,25,06,02,,,,,1.25,0.69,1.04,1*03
$GNGSA,A,3,87,88,69,79,77,78,,,,,,,1.25,0.69,1.04,2*0F
$GNGSA,A,3,12,13,24,35,25,26,,,,,,,1.25,0.69,1.04,4*0A
$GPGSV,3,1,12,02,36,107,36,03,02,356,27,06,28,058,33,12,75,059,47,1*6A
$GPGSV,3,2,12,19,08,044,,24,35,152,47,25,66,283,45,28,,,17,1*50
$GPGSV,3,3,12,29,31,209,46,30,,,23,31,12,310,43,32,34,275,51,1*53
$GPGSV,3,1,10,02,36,107,,03,02,356,21,06,28,058,30,12,75,059,43,6*6B
$GPGSV,3,2,10,19,08,044,,24,35,152,41,25,66,283,46,29,31,209,41,6*6B
$GPGSV,3,3,10,31,12,310,41,32,34,275,43,6*65
$GLGSV,3,1,10,68,08,244,43,69,23,292,49,70,11,351,,77,35,104,,1*71
$GLGSV,3,2,10,78,75,001,51,79,28,303,50,81,11,183,42,86,03,019,17,1*77
$GLGSV,3,3,10,87,54,061,49,88,53,145,48,1*77
$GLGSV,3,1,10,68,08,244,37,69,23,292,42,70,11,351,,77,35,104,19,3*73
$GLGSV,3,2,10,78,75,001,44,79,28,303,40,81,11,183,37,86,03,019,,3*74
$GLGSV,3,3,10,87,54,061,,88,53,145,41,3*71
$GBGSV,3,1,11,02,04,106,,05,18,128,,10,07,078,25,12,25,189,44,1*78
$GBGSV,3,2,11,13,27,089,29,24,72,292,44,25,15,299,48,26,56,124,44,1*7D
$GBGSV,3,3,11,29,13,040,,33,04,262,44,35,54,077,43,1*49
$GBGSV,3,1,11,02,04,106,,05,18,128,,10,07,078,26,12,25,189,48,3*75
$GBGSV,3,2,11,13,27,089,25,24,72,292,,25,15,299,,26,56,124,,3*7F
$GBGSV,3,3,11,29,13,040,,33,04,262,,35,54,077,,3*4C
$GNGLL,5025.4461051,N,01411.3806496,E,211537.00,A,A*76
$GNRMC,211538.00,A,5025.4461138,N,01411.3806937,E,0.010,,241021,,,A,V*17
$GNVTG,,T,,M,0.010,N,0.019,K,A*34
$GNGGA,211538.00,5025.4461138,N,01411.3806937,E,1,12,0.69,220.594,M,44.078,M,,*4F
$GNGSA,A,3,24,31,32,29,12,25,06,02,,,,,1.25,0.69,1.04,1*03
$GNGSA,A,3,87,88,69,79,77,78,,,,,,,1.25,0.69,1.04,2*0F
$GNGSA,A,3,12,13,24,35,25,26,,,,,,,1.25,0.69,1.04,4*0A
$GPGSV,3,1,12,02,36,107,35,03,02,356,28,06,28,058,33,12,75,059,47,1*66
$GPGSV,3,2,12,19,08,044,,24,35,152,47,25,66,283,45,28,,,15,1*52
$GPGSV,3,3,12,29,31,209,46,30,,,19,31,12,310,43,32,34,274,51,1*5B
$GPGSV,3,1,10,02,36,107,,03,02,356,21,06,28,058,30,12,75,059,43,6*6B
$GPGSV,3,2,10,19,08,044,,24,35,152,41,25,66,283,46,29,31,209,41,6*6B
$GPGSV,3,3,10,31,12,310,41,32,34,274,43,6*64
$GLGSV,3,1,10,68,08,244,43,69,23,292,49,70,11,351,,77,35,104,,1*71
$GLGSV,3,2,10,78,75,001,51,79,28,303,50,81,11,183,42,86,03,019,16,1*76
$GLGSV,3,3,10,87,54,061,49,88,53,145,48,1*77
$GLGSV,3,1,10,68,08,244,37,69,23,292,43,70,11,351,,77,35,104,19,3*72
$GLGSV,3,2,10,78,75,001,44,79,28,303,40,81,11,183,37,86,03,019,,3*74
$GLGSV,3,3,10,87,54,061,,88,53,145,41,3*71
$GBGSV,3,1,11,02,04,106,,05,18,128,,10,07,078,25,12,25,189,44,1*78
$GBGSV,3,2,11,13,27,089,29,24,72,292,44,25,15,299,47,26,56,124,44,1*72
$GBGSV,3,3,11,29,13,040,,33,04,262,44,35,54,077,43,1*49
$GBGSV,3,1,11,02,04,106,,05,18,128,,10,07,078,26,12,25,189,48,3*75
$GBGSV,3,2,11,13,27,089,25,24,72,292,,25,15,299,,26,56,124,,3*7F
$GBGSV,3,3,11,29,13,040,,33,04,262,,35,54,077,,3*4C
$GNGLL,5025.4461138,N,01411.3806937,E,211538.00,A,A*71
$GNRMC,211539.00,A,5025.4461326,N,01411.3808287,E,0.152,,241021,,,A,V*12
$GNVTG,,T,,M,0.152,N,0.281,K,A*30
$GNGGA,211539.00,5025.4461326,N,01411.3808287,E,1,12,0.63,220.243,M,44.078,M,,*4A
$GNGSA,A,3,24,31,32,29,12,25,06,02,,,,,1.15,0.63,0.96,1*00
$GNGSA,A,3,81,87,88,69,79,77,78,,,,,,1.15,0.63,0.96,2*05
$GNGSA,A,3,12,13,24,35,25,26,,,,,,,1.15,0.63,0.96,4*09
$GPGSV,3,1,12,02,36,107,35,03,02,356,28,06,28,058,33,12,75,059,47,1*66
$GPGSV,3,2,12,19,08,044,,24,35,152,47,25,66,283,45,28,,,12,1*55
$GPGSV,3,3,12,29,31,209,46,30,,,15,31,12,310,43,32,34,274,51,1*57
$GPGSV,3,1,10,02,36,107,,03,02,356,21,06,28,058,29,12,75,059,43,6*63
$GPGSV,3,2,10,19,08,044,,24,35,152,41,25,66,283,46,29,31,209,41,6*6B
$GPGSV,3,3,10,31,12,310,41,32,34,274,43,6*64
$GLGSV,3,1,10,68,08,244,43,69,23,292,49,70,11,351,,77,35,104,,1*71
$GLGSV,3,2,10,78,75,001,51,79,28,303,50,81,11,183,42,86,03,019,16,1*76
$GLGSV,3,3,10,87,54,061,49,88,53,145,48,1*77
$GLGSV,3,1,10,68,08,244,37,69,23,292,42,70,11,351,,77,35,104,19,3*73
$GLGSV,3,2,10,78,75,001,44,79,28,303,41,81,11,183,37,86,03,019,,3*75
$GLGSV,3,3,10,87,54,061,,88,53,145,41,3*71
$GBGSV,3,1,11,02,04,106,,05,18,128,,10,07,078,25,12,25,189,44,1*78
$GBGSV,3,2,11,13,27,089,29,24,72,292,44,25,15,299,47,26,56,124,44,1*72
$GBGSV,3,3,11,29,13,040,,33,04,262,44,35,54,077,43,1*49
$GBGSV,3,1,11,02,04,106,,05,18,128,,10,07,078,26,12,25,189,48,3*75
$GBGSV,3,2,11,13,27,089,24,24,72,292,,25,15,299,,26,56,124,,3*7E
$GBGSV,3,3,11,29,13,040,,33,04,262,,35,54,077,,3*4C
$GNGLL,5025.4461326,N,01411.3808287,E,211539.00,A,A*73
$GNRMC,211540.00,A,5025.4461446,N,01411.3809408,E,0.011,,241021,,,A,V*1B
$GNVTG,,T,,M,0.011,N,0.021,K,A*3E
$GNGGA,211540.00,5025.4461446,N,01411.3809408,E,1,12,0.63,219.947,M,44.078,M,,*40
$GNGSA,A,3,24,31,32,29,12,25,06,02,,,,,1.15,0.63,0.96,1*00
$GNGSA,A,3,81,87,88,69,79,77,78,,,,,,1.15,0.63,0.96,2*05
$GNGSA,A,3,12,13,24,35,25,26,,,,,,,1.15,0.63,0.96,4*09
$GPGSV,3,1,12,02,36,107,35,03,02,356,28,06,28,058,32,12,75,059,47,1*67
$GPGSV,3,2,12,19,08,044,31,24,35,152,46,25,66,283,44,28,,,08,1*5C
$GPGSV,3,3,12,29,31,209,46,30,,,11,31,12,310,43,32,34,274,51,1*53
$GPGSV,3,1,10,02,36,107,,03,02,356,21,06,28,058,29,12,75,059,43,6*63
$GPGSV,3,2,10,19,08,044,,24,35,152,41,25,66,283,46,29,31,209,41,6*6B
$GPGSV,3,3,10,31,12,310,41,32,34,274,43,6*64
$GLGSV,3,1,10,68,07,244,43,69,23,292,49,70,11,351,,77,35,104,,1*7E
$GLGSV,3,2,10,78,75,001,51,79,28,303,50,81,11,183,42,86,03,019,19,1*79
$GLGSV,3,3,10,87,54,061,49,88,53,145,48,1*77
$GLGSV,3,1,10,68,07,244,37,69,23,292,42,70,11,351,,77,35,104,19,3*7C
$GLGSV,3,2,10,78,75,001,44,79,28,303,41,81,11,183,37,86,03,019,,3*75
$GLGSV,3,3,10,87,54,061,,88,53,145,41,3*71
$GBGSV,3,1,11,02,04,106,,05,18,128,,10,07,078,25,12,25,189,44,1*78
$GBGSV,3,2,11,13,27,089,29,24,72,292,43,25,15,299,48,26,56,124,44,1*7A
$GBGSV,3,3,11,29,13,040,,33,04,262,44,35,54,077,43,1*49
$GBGSV,3,1,11,02,04,106,,05,18,128,,10,07,078,26,12,25,189,48,3*75
$GBGSV,3,2,11,13,27,089,24,24,72,292,,25,15,299,,26,56,124,,3*7E
$GBGSV,3,3,11,29,13,040,,33,04,262,,35,54,077,,3*4C
$GNGLL,5025.4461446,N,01411.3809408,E,211540.00,A,A*7C
$GNRMC,211541.00,A,5025.4461501,N,01411.3810325,E,0.013,,241021,,,A,V*1A
$GNVTG,,T,,M,0.013,N,0.023,K,A*3E
$GNGGA,211541.00,5025.4461501,N,01411.3810325,E,1,12,0.63,219.698,M,44.078,M,,*4E
$GNGSA,A,3,24,31,32,29,12,25,06,02,,,,,1.15,0.63,0.96,1*00
$GNGSA,A,3,81,87,88,69,79,77,78,,,,,,1.15,0.63,0.96,2*05
$GNGSA,A,3,12,13,24,35,25,26,,,,,,,1.15,0.63,0.96,4*09
$GPGSV,3,1,12,02,36,107,34,03,02,356,28,06,28,058,32,12,75,059,47,1*66
$GPGSV,3,2,12,19,08,044,31,24,35,152,46,25,66,283,44,28,,,08,1*5C
$GPGSV,3,3,12,29,31,209,46,30,,,10,31,12,310,43,32,34,274,51,1*52
$GPGSV,3,1,10,02,36,107,,03,02,356,21,06,28,058,29,12,75,059,43,6*63
$GPGSV,3,2,10,19,08,044,,24,35,152,41,25,66,283,46,29,31,209,41,6*6B
$GPGSV,3,3,10,31,12,310,41,32,34,274,43,6*64
$GLGSV,3,1,10,68,07,244,43,69,23,292,49,70,11,351,,77,35,104,,1*7E
$GLGSV,3,2,10,78,75,001,51,79,28,303,50,81,11,183,42,86,03,019,22,1*71
$GLGSV,3,3,10,87,54,061,49,88,53,145,48,1*77
$GLGSV,3,1,10,68,07,244,37,69,23,292,42,70,11,351,,77,35,104,18,3*7D
$GLGSV,3,2,10,78,75,001,44,79,28,303,41,81,11,183,37,86,03,019,,3*75
$GLGSV,3,3,10,87,54,061,,88,53,145,41,3*71
$GBGSV,3,1,11,02,04,106,,05,18,128,,10,07,078,25,12,25,189,44,1*78
$GBGSV,3,2,11,13,27,089,29,24,72,292,43,25,15,299,48,26,56,124,44,1*7A
$GBGSV,3,3,11,29,13,040,,33,04,262,44,35,54,077,43,1*49
$GBGSV,3,1,11,02,04,106,,05,18,128,,10,07,078,25,12,25,189,48,3*76
$GBGSV,3,2,11,13,27,089,24,24,72,292,,25,15,299,,26,56,124,,3*7E
$GBGSV,3,3,11,29,13,040,,33,04,262,,35,54,077,,3*4C
$GNGLL,5025.4461501,N,01411.3810325,E,211541.00,A,A*7F
$GNRMC,211542.00,A,5025.4461567,N,01411.3811153,E,0.019,,241021,,,A,V*11
$GNVTG,,T,,M,0.019,N,0.034,K,A*32
$GNGGA,211542.00,5025.4461567,N,01411.3811153,E,1,12,0.63,219.472,M,44.078,M,,*49
$GNGSA,A,3,24,31,32,29,12,25,06,02,,,,,1.15,0.63,0.96,1*00
$GNGSA,A,3,81,87,88,69,79,77,78,,,,,,1.15,0.63,0.96,2*05
$GNGSA,A,3,12,13,24,35,25,26,,,,,,,1.15,0.63,0.96,4*09
$GPGSV,3,1,12,02,36,107,34,03,02,356,28,06,28,058,32,12,75,059,47,1*66
$GPGSV,3,2,12,19,08,044,31,24,35,152,46,25,66,283,44,28,,,07,1*53
$GPGSV,3,3,12,29,31,209,46,30,,,11,31,12,310,43,32,34,274,51,1*53
$GPGSV,3,1,10,02,36,107,,03,02,356,22,06,28,058,30,12,75,059,43,6*68
$GPGSV,3,2,10,19,08,044,,24,35,152,41,25,66,283,46,29,31,209,41,6*6B
$GPGSV,3,3,10,31,12,310,41,32,34,274,43,6*64
$GLGSV,3,1,10,68,07,244,43,69,23,292,49,70,11,351,,77,35,104,,1*7E
$GLGSV,3,2,10,78,75,001,51,79,28,303,50,81,11,183,42,86,03,019,23,1*70
$GLGSV,3,3,10,87,54,061,49,88,53,145,48,1*77
$GLGSV,3,1,10,68,07,244,37,69,23,292,42,70,11,351,,77,35,104,18,3*7D
$GLGSV,3,2,10,78,75,001,45,79,28,303,41,81,11,183,37,86,03,019,,3*74
$GLGSV,3,3,10,87,54,061,,88,53,145,41,3*71
$GBGSV,3,1,11,02,04,106,,05,18,128,,10,07,078,24,12,25,189,44,1*79
$GBGSV,3,2,11,13,27,089,29,24,72,292,43,25,15,299,48,26,56,124,44,1*7A
$GBGSV,3,3,11,29,13,040,,33,04,262,44,35,54,077,43,1*49
$GBGSV,3,1,11,02,04,106,,05,18,128,,10,07,078,25,12,25,189,48,3*76
$GBGSV,3,2,11,13,27,089,24,24,72,292,,25,15,299,,26,56,124,,3*7E
$GBGSV,3,3,11,29,13,040,,33,04,262,,35,54,077,,3*4C
$GNGLL,5025.4461567,N,01411.3811153,E,211542.00,A,A*7E
$GNRMC,211543.00,A,5025.4461639,N,01411.3811835,E,0.006,,241021,,,A,V*1F
$GNVTG,,T,,M,0.006,N,0.010,K,A*3A
$GNGGA,211543.00,5025.4461639,N,01411.3811835,E,1,12,0.63,219.282,M,44.078,M,,*40
$GNGSA,A,3,24,31,32,29,12,25,06,02,,,,,1.15,0.63,0.96,1*00
$GNGSA,A,3,81,87,88,69,79,77,78,,,,,,1.15,0.63,0.96,2*05
$GNGSA,A,3,12,13,24,35,25,26,,,,,,,1.15,0.63,0.96,4*09
$GPGSV,3,1,12,02,36,107,33,03,02,356,28,06,28,058,31,12,75,059,47,1*62
$GPGSV,3,2,12,19,08,044,,24,35,152,46,25,66,283,44,28,,,08,1*5E
$GPGSV,3,3,12,29,31,209,46,30,,,13,31,12,310,43,32,34,274,51,1*51
$GPGSV,3,1,10,02,36,107,,03,02,356,23,06,28,058,30,12,75,059,43,6*69
$GPGSV,3,2,10,19,08,044,,24,35,152,41,25,66,283,46,29,31,209,42,6*68
$GPGSV,3,3,10,31,12,310,41,32,34,274,43,6*64
$GLGSV,3,1,10,68,07,244,43,69,23,292,49,70,11,351,,77,35,104,,1*7E
$GLGSV,3,2,10,78,75,001,51,79,28,303,50,81,11,183,42,86,03,019,25,1*76
$GLGSV,3,3,10,87,54,061,49,88,53,145,48,1*77
$GLGSV,3,1,10,68,07,244,37,69,23,292,42,70,11,351,,77,35,104,18,3*7D
$GLGSV,3,2,10,78,75,001,44,79,28,303,41,81,11,183,37,86,03,019,,3*75
$GLGSV,3,3,10,87,54,061,,88,53,145,41,3*71
$GBGSV,3,1,11,02,04,106,,05,18,128,,10,07,078,24,12,25,189,44,1*79
$GBGSV,3,2,11,13,27,089,29,24,72,292,43,25,15,299,48,26,56,124,44,1*7A
$GBGSV,3,3,11,29,13,040,,33,04,262,44,35,54,077,43,1*49
$GBGSV,3,1,11,02,04,106,,05,18,128,,10,07,078,25,12,25,189,48,3*76
$GBGSV,3,2,11,13,27,089,24,24,72,292,,25,15,299,,26,56,124,,3*7E
$GBGSV,3,3,11,29,13,040,,33,04,262,,35,54,077,,3*4C
$GNGLL,5025.4461639,N,01411.3811835,E,211543.00,A,A*7E
$GNRMC,211544.00,A,5025.4461726,N,01411.3812433,E,0.005,,241021,,,A,V*1D
$GNVTG,,T,,M,0.005,N,0.009,K,A*31
$GNGGA,211544.00,5025.4461726,N,01411.3812433,E,1,12,0.63,219.126,M,44.078,M,,*4C
$GNGSA,A,3,24,31,32,29,12,25,06,02,,,,,1.15,0.63,0.96,1*00
$GNGSA,A,3,81,87,88,69,79,77,78,,,,,,1.15,0.63,0.96,2*05
$GNGSA,A,3,12,13,24,35,25,26,,,,,,,1.15,0.63,0.96,4*09
$GPGSV,3,1,12,02,36,106,33,03,02,356,27,06,28,058,31,12,75,059,47,1*6C
$GPGSV,3,2,12,19,08,044,32,24,35,152,46,25,66,283,44,28,,,08,1*5F
$GPGSV,3,3,12,29,31,209,46,30,,,10,31,12,310,43,32,34,274,51,1*52
$GPGSV,3,1,10,02,36,106,,03,02,356,23,06,28,058,30,12,75,059,43,6*68
$GPGSV,3,2,10,19,08,044,,24,35,152,41,25,66,283,47,29,31,209,42,6*69
$GPGSV,3,3,10,31,12,310,41,32,34,274,43,6*64
$GLGSV,3,1,10,68,07,244,43,69,23,292,49,70,11,351,,77,35,104,,1*7E
$GLGSV,3,2,10,78,75,001,51,79,28,303,49,81,11,183,42,86,03,019,25,1*7E
$GLGSV,3,3,10,87,54,061,49,88,53,145,48,1*77
$GLGSV,3,1,10,68,07,244,37,69,23,292,43,70,11,351,,77,35,104,18,3*7C
$GLGSV,3,2,10,78,75,001,44,79,28,303,41,81,11,183,37,86,03,019,,3*75
$GLGSV,3,3,10,87,54,061,,88,53,145,41,3*71
$GBGSV,3,1,11,02,04,106,,05,18,128,,10,07,078,24,12,25,189,44,1*79
$GBGSV,3,2,11,13,27,089,29,24,72,292,43,25,15,299,48,26,56,124,44,1*7A
$GBGSV,3,3,11,29,13,040,,33,04,262,44,35,54,077,43,1*49
$GBGSV,3,1,11,02,04,106,,05,18,128,,10,07,078,25,12,25,189,48,3*76
$GBGSV,3,2,11,13,27,089,24,24,72,292,,25,15,299,,26,56,124,,3*7E
$GBGSV,3,3,11,29,13,040,,33,04,262,,35,54,077,,3*4C
$GNGLL,5025.4461726,N,01411.3812433,E,211544.00,A,A*7F
$GNRMC,211545.00,A,5025.4461786,N,01411.3812983,E,0.003,,241021,,,A,V*16
$GNVTG,,T,,M,0.003,N,0.006,K,A*38
$GNGGA,211545.00,5025.4461786,N,01411.3812983,E,1,12,0.63,218.977,M,44.078,M,,*4C
$GNGSA,A,3,24,31,32,29,12,25,06,02,,,,,1.15,0.63,0.96,1*00
$GNGSA,A,3,81,87,88,69,79,77,78,,,,,,1.15,0.63,0.96,2*05
$GNGSA,A,3,12,13,24,35,25,26,,,,,,,1.15,0.63,0.96,4*09
$GPGSV,3,1,12,02,36,106,32,03,02,356,27,06,28,058,30,12,75,059,47,1*6C
$GPGSV,3,2,12,19,08,044,32,24,35,152,46,25,66,283,44,28,,,08,1*5F
$GPGSV,3,3,12,29,31,209,46,30,,,09,31,12,310,43,32,34,274,51,1*5A
$GPGSV,3,1,10,02,36,106,,03,02,356,22,06,28,058,30,12,75,059,43,6*69
$GPGSV,3,2,10,19,08,044,,24,35,152,41,25,66,283,47,29,31,209,42,6*69
$GPGSV,3,3,10,31,12,310,41,32,34,274,43,6*64
$GLGSV,3,1,10,68,07,244,43,69,23,292,49,70,11,351,,77,35,104,,1*7E
$GLGSV,3,2,10,78,75,001,51,79,28,303,49,81,11,183,42,86,03,019,26,1*7D
$GLGSV,3,3,10,87,54,061,49,88,53,145,48,1*77
$GLGSV,3,1,10,68,07,244,37,69,23,292,42,70,11,351,,77,35,104,17,3*72
$GLGSV,3,2,10,78,75,001,44,79,28,303,41,81,11,183,37,86,03,019,,3*75
$GLGSV,3,3,10,87,54,061,,88,53,145,41,3*71
$GBGSV,3,1,11,02,04,106,,05,18,128,,10,07,078,23,12,25,189,44,1*7E
$GBGSV,3,2,11,13,27,089,29,24,72,292,43,25,15,299,48,26,56,124,44,1*7A
$GBGSV,3,3,11,29,13,040,,33,04,262,44,35,54,077,43,1*49
$GBGSV,3,1,11,02,04,106,,05,18,128,,10,07,078,25,12,25,189,48,3*76
$GBGSV,3,2,11,13,27,089,24,24,72,292,,25,15,299,,26,56,124,,3*7E
$GBGSV,3,3,11,29,13,040,,33,04,262,,35,54,077,,3*4C
$GNGLL,5025.4461786,N,01411.3812983,E,211545.00,A,A*72
$GNRMC,211546.00,A,5025.4461864,N,01411.3813479,E,0.010,,241021,,,A,V*1D
$GNVTG,,T,,M,0.010,N,0.018,K,A*35
$GNGGA,211546.00,5025.4461864,N,01411.3813479,E,1,12,0.63,218.837,M,44.078,M,,*40
$GNGSA,A,3,24,31,32,29,12,25,06,02,,,,,1.15,0.63,0.96,1*00
$GNGSA,A,3,81,87,88,69,79,77,78,,,,,,1.15,0.63,0.96,2*05
$GNGSA,A,3,12,13,24,35,25,26,,,,,,,1.15,0.63,0.96,4*09
$GPGSV,3,1,12,02,36,106,32,03,02,356,26,06,28,058,29,12,75,059,47,1*65
$GPGSV,3,2,12,19,08,044,31,24,35,152,46,25,66,283,44,28,,,07,1*53
$GPGSV,3,3,12,29,31,209,46,30,,,08,31,12,310,43,32,34,274,51,1*5B
$GPGSV,3,1,10,02,36,106,,03,02,356,22,06,28,058,30,12,75,059,43,6*69
$GPGSV,3,2,10,19,08,044,,24,35,152,41,25,66,283,47,29,31,209,42,6*69
$GPGSV,3,3,10,31,12,310,41,32,34,274,43,6*64
$GLGSV,3,1,10,68,07,244,43,69,23,292,49,70,11,351,,77,35,104,,1*7E
$GLGSV,3,2,10,78,75,001,51,79,28,303,49,81,11,183,42,86,03,019,26,1*7D
$GLGSV,3,3,10,87,54,061,49,88,53,145,48,1*77
$GLGSV,3,1,10,68,07,244,37,69,23,292,43,70,11,351,,77,35,104,17,3*73
$GLGSV,3,2,10,78,75,001,45,79,28,303,41,81,11,183,37,86,03,019,,3*74
$GLGSV,3,3,10,87,54,061,,88,53,145,41,3*71
$GBGSV,3,1,11,02,04,106,,05,18,128,,10,07,078,,12,25,189,44,1*7F
$GBGSV,3,2,11,13,27,089,29,24,72,292,44,25,15,299,48,26,56,124,44,1*7D
$GBGSV,3,3,11,29,13,040,,33,04,262,44,35,54,077,43,1*49
$GBGSV,3,1,11,02,04,106,,05,18,128,,10,07,078,24,12,25,189,48,3*77
$GBGSV,3,2,11,13,27,089,24,24,72,292,,25,15,299,,26,56,124,,3*7E
$GBGSV,3,3,11,29,13,040,,33,04,262,,35,54,077,,3*4C
$GNGLL,5025.4461864,N,01411.3813479,E,211546.00,A,A*7B
$GNRMC,211547.00,A,5025.4461925,N,01411.3813948,E,0.008,,241021,,,A,V*1E
$GNVTG,,T,,M,0.008,N,0.015,K,A*31
$GNGGA,211547.00,5025.4461925,N,01411.3813948,E,1,12,0.63,218.709,M,44.078,M,,*48
$GNGSA,A,3,24,31,32,29,12,25,06,02,,,,,1.15,0.63,0.96,1*00
$GNGSA,A,3,81,87,88,69,79,77,78,,,,,,1.15,0.63,0.96,2*05
$GNGSA,A,3,12,13,24,35,25,26,,,,,,,1.15,0.63,0.96,4*09
$GPGSV,3,1,11,02,36,106,31,03,02,356,26,06,28,058,29,12,75,059,47,1*65
$GPGSV,3,2,11,19,08,044,,24,35,152,46,25,66,283,44,29,31,209,46,1*6F
$GPGSV,3,3,11,30,,,08,31,12,310,43,32,34,274,51,1*68
$GPGSV,3,1,10,02,36,106,,03,02,356,21,06,28,058,29,12,75,059,43,6*62
$GPGSV,3,2,10,19,08,044,,24,35,152,41,25,66,283,47,29,31,209,42,6*69
$GPGSV,3,3,10,31,12,310,41,32,34,274,43,6*64
$GLGSV,3,1,10,68,07,244,43,69,23,292,49,70,11,351,,77,35,104,,1*7E
$GLGSV,3,2,10,78,75,001,51,79,28,303,49,81,11,183,42,86,03,019,26,1*7D
$GLGSV,3,3,10,87,54,061,49,88,53,145,49,1*76
$GLGSV,3,1,10,68,07,244,36,69,23,292,43,70,11,351,,77,35,104,18,3*7D
$GLGSV,3,2,10,78,75,001,45,79,28,303,41,81,11,183,37,86,03,019,,3*74
$GLGSV,3,3,10,87,54,061,,88,53,145,41,3*71
$GBGSV,3,1,11,02,04,106,,05,18,128,,10,07,078,23,12,25,189,44,1*7E
$GBGSV,3,2,11,13,27,089,29,24,72,292,44,25,15,299,48,26,56,124,43,1*7A
$GBGSV,3,3,11,29,13,040,,33,04,262,44,35,54,077,43,1*49
$GBGSV,3,1,11,02,04,106,,05,18,128,,10,07,078,25,12,25,189,48,3*76
$GBGSV,3,2,11,13,27,089,23,24,72,292,,25,15,299,,26,56,124,,3*79
$GBGSV,3,3,11,29,13,040,,33,04,262,,35,54,077,,3*4C
$GNGLL,5025.4461925,N,01411.3813948,E,211547.00,A,A*71
$GNRMC,211548.00,A,5025.4462016,N,01411.3814411,E,0.013,,241021,,,A,V*17
$GNVTG,,T,,M,0.013,N,0.024,K,A*39
$GNGGA,211548.00,5025.4462016,N,01411.3814411,E,1,12,0.63,218.591,M,44.078,M,,*48
$GNGSA,A,3,24,31,32,29,12,25,06,02,,,,,1.15,0.63,0.96,1*00
$GNGSA,A,3,81,87,88,69,79,77,78,,,,,,1.15,0.63,0.96,2*05
$GNGSA,A,3,12,13,24,35,25,26,,,,,,,1.15,0.63,0.96,4*09
$GPGSV,3,1,10,02,36,106,31,03,02,356,25,06,28,058,28,12,75,059,47,1*66
$GPGSV,3,2,10,19,08,044,31,24,35,152,46,25,66,283,44,29,31,209,46,1*6C
$GPGSV,3,3,10,31,12,310,43,32,34,274,51,1*62
$GPGSV,3,1,10,02,36,106,,03,02,356,21,06,28,058,29,12,75,059,43,6*62
$GPGSV,3,2,10,19,08,044,,24,35,152,41,25,66,283,47,29,31,209,42,6*69
$GPGSV,3,3,10,31,12,310,41,32,34,274,43,6*64
$GLGSV,3,1,10,68,07,244,43,69,23,292,49,70,11,351,,77,35,104,,1*7E
$GLGSV,3,2,10,78,75,001,51,79,28,303,49,81,11,183,42,86,03,019,25,1*7E
$GLGSV,3,3,10,87,54,061,49,88,53,145,49,1*76
$GLGSV,3,1,10,68,07,244,36,69,23,292,43,70,11,351,,77,35,104,18,3*7D
$GLGSV,3,2,10,78,75,001,45,79,28,303,41,81,11,183,37,86,03,019,,3*74
$GLGSV,3,3,10,87,54,061,,88,53,145,41,3*71
$GBGSV,3,1,11,02,04,106,,05,18,128,,10,07,078,,12,25,189,44,1*7F
$GBGSV,3,2,11,13,27,089,28,24,72,292,44,25,15,299,48,26,56,124,43,1*7B
$GBGSV,3,3,11,29,13,040,,33,04,262,44,35,54,077,43,1*49
$GBGSV,3,1,11,02,04,106,,05,18,128,,10,07,078,25,12,25,189,48,3*76
$GBGSV,3,2,11,13,27,089,23,24,72,292,,25,15,299,,26,56,124,,3*79
$GBGSV,3,3,11,29,13,040,,33,04,262,,35,54,077,,3*4C
$GNGLL,5025.4462016,N,01411.3814411,E,211548.00,A,A*72
$GNRMC,211549.00,A,5025.4462121,N,01411.3814855,E,0.005,,241021,,,A,V*18
$GNVTG,,T,,M,0.005,N,0.009,K,A*31
$GNGGA,211549.00,5025.4462121,N,01411.3814855,E,1,12,0.63,218.482,M,44.078,M,,*43
$GNGSA,A,3,24,31,32,29,12,25,06,02,,,,,1.15,0.63,0.96,1*00
$GNGSA,A,3,81,87,88,69,79,77,78,,,,,,1.15,0.63,0.96,2*05
$GNGSA,A,3,12,13,24,35,25,26,,,,,,,1.15,0.63,0.96,4*09
$GPGSV,3,1,10,02,36,106,32,03,02,356,25,06,28,058,27,12,75,059,47,1*6A
$GPGSV,3,2,10,19,08,044,31,24,35,152,46,25,66,283,44,29,31,209,46,1*6C
$GPGSV,3,3,10,31,12,310,43,32,34,274,51,1*62
$GPGSV,3,1,10,02,36,106,,03,02,356,21,06,28,058,29,12,75,059,43,6*62
$GPGSV,3,2,10,19,08,044,,24,35,152,41,25,66,283,47,29,31,209,42,6*69
$GPGSV,3,3,10,31,12,310,41,32,34,274,43,6*64
$GLGSV,3,1,10,68,07,244,43,69,23,292,49,70,11,351,,77,35,104,25,1*79
$GLGSV,3,2,10,78,75,001,51,79,28,303,49,81,11,183,42,86,03,019,25,1*7E
$GLGSV,3,3,10,87,54,061,49,88,53,145,49,1*76
$GLGSV,3,1,10,68,07,244,36,69,23,292,43,70,11,351,,77,35,104,17,3*72
$GLGSV,3,2,10,78,75,001,45,79,28,303,41,81,11,183,37,86,03,019,,3*74
$GLGSV,3,3,10,87,54,061,,88,53,145,41,3*71
$GBGSV,3,1,11,02,04,106,,05,18,128,,10,07,078,,12,25,189,44,1*7F
$GBGSV,3,2,11,13,27,089,28,24,72,292,44,25,15,299,48,26,56,124,43,1*7B
$GBGSV,3,3,11,29,13,040,,33,04,262,44,35,54,077,43,1*49
$GBGSV,3,1,11,02,04,106,,05,18,128,,10,07,078,24,12,25,189,48,3*77
$GBGSV,3,2,11,13,27,089,23,24,72,292,,25,15,299,,26,56,124,,3*79
$GBGSV,3,3,11,29,13,040,,33,04,262,,35,54,077,,3*4C
$GNGLL,5025.4462121,N,01411.3814855,E,211549.00,A,A*7A
$GNRMC,211550.00,A,5025.4461534,N,01411.3815951,E,0.012,,241021,,,D,V*14
$GNVTG,,T,,M,0.012,N,0.023,K,D*3A
$GNGGA,211550.00,5025.4461534,N,01411.3815951,E,2,12,0.65,218.239,M,44.078,M,1.0,0084*6C
$GNGSA,A,3,24,31,32,29,12,25,06,02,,,,,1.17,0.65,0.97,1*05
$GNGSA,A,3,81,87,88,69,79,77,78,,,,,,1.17,0.65,0.97,2*00
$GNGSA,A,3,12,13,24,35,25,26,,,,,,,1.17,0.65,0.97,4*0C
$GPGSV,3,1,10,02,36,106,31,03,02,356,25,06,28,058,27,12,75,059,47,1*69
$GPGSV,3,2,10,19,08,044,31,24,35,152,46,25,66,283,44,29,31,209,46,1*6C
$GPGSV,3,3,10,31,12,310,43,32,34,274,51,1*62
$GPGSV,3,1,10,02,36,106,,03,02,356,21,06,28,058,29,12,75,059,43,6*62
$GPGSV,3,2,10,19,08,044,,24,35,152,41,25,66,283,47,29,31,209,42,6*69
$GPGSV,3,3,10,31,12,310,41,32,34,274,43,6*64
$GLGSV,3,1,10,68,07,244,43,69,23,292,48,70,11,351,,77,35,104,25,1*78
$GLGSV,3,2,10,78,75,001,51,79,28,303,49,81,11,183,42,86,03,019,25,1*7E
$GLGSV,3,3,10,87,54,061,49,88,53,145,49,1*76
$GLGSV,3,1,10,68,07,244,36,69,23,292,43,70,11,351,,77,35,104,16,3*73
$GLGSV,3,2,10,78,75,001,45,79,28,303,41,81,11,183,37,86,03,019,,3*74
$GLGSV,3,3,10,87,54,061,,88,53,145,41,3*71
$GBGSV,3,1,11,02,04,106,,05,18,128,,10,07,078,24,12,25,189,44,1*79
$GBGSV,3,2,11,13,27,089,28,24,72,292,44,25,15,299,48,26,56,124,43,1*7B
$GBGSV,3,3,11,29,13,040,,33,04,262,44,35,54,077,43,1*49
$GBGSV,3,1,11,02,04,106,,05,18,128,,10,07,078,24,12,25,189,48,3*77
$GBGSV,3,2,11,13,27,089,23,24,72,292,,25,15,299,,26,56,124,,3*79
$GBGSV,3,3,11,29,13,040,,33,04,262,,35,54,077,,3*4C
$GNGLL,5025.4461534,N,01411.3815951,E,211550.00,A,D*70
$GNRMC,211551.00,A,5025.4447683,N,01411.3818358,E,0.009,,241021,,,R,V*0C
$GNVTG,,T,,M,0.009,N,0.017,K,D*37
$GNGGA,211551.00,5025.4447683,N,01411.3818358,E,4,12,0.65,217.741,M,44.078,M,1.0,0084*6B
$GNGSA,A,3,24,31,32,29,12,25,06,02,,,,,1.17,0.65,0.97,1*05
$GNGSA,A,3,81,87,88,69,79,77,78,,,,,,1.17,0.65,0.97,2*00
$GNGSA,A,3,12,13,24,35,25,26,,,,,,,1.17,0.65,0.97,4*0C
$GPGSV,3,1,10,02,36,106,32,03,02,356,25,06,28,058,,12,75,059,47,1*6F
$GPGSV,3,2,10,19,08,044,,24,35,152,46,25,66,283,44,29,31,209,46,1*6E
$GPGSV,3,3,10,31,12,310,43,32,34,274,51,1*62
$GPGSV,3,1,10,02,36,106,,03,02,356,22,06,28,058,28,12,75,059,43,6*60
$GPGSV,3,2,10,19,08,044,,24,35,152,41,25,66,283,47,29,31,209,42,6*69
$GPGSV,3,3,10,31,12,310,41,32,34,274,43,6*64
$GLGSV,3,1,10,68,07,244,43,69,23,292,48,70,11,351,,77,35,104,25,1*78
$GLGSV,3,2,10,78,75,001,51,79,28,303,50,81,11,183,42,86,03,019,24,1*77
$GLGSV,3,3,10,87,54,061,49,88,53,145,49,1*76
$GLGSV,3,1,10,68,07,244,36,69,23,292,43,70,11,351,,77,35,104,14,3*71
$GLGSV,3,2,10,78,75,001,45,79,28,303,41,81,11,183,37,86,03,019,,3*74
$GLGSV,3,3,10,87,54,061,,88,53,145,41,3*71
$GBGSV,3,1,11,02,04,106,,05,18,128,,10,07,078,,12,25,189,44,1*7F
$GBGSV,3,2,11,13,27,089,28,24,72,292,44,25,15,299,47,26,56,124,43,1*74
$GBGSV,3,3,11,29,13,040,,33,04,262,44,35,54,077,43,1*49
$GBGSV,3,1,11,02,04,106,,05,18,128,,10,07,078,25,12,25,189,48,3*76
$GBGSV,3,2,11,13,27,089,23,24,72,292,,25,15,299,,26,56,124,,3*79
$GBGSV,3,3,11,29,13,040,,33,04,262,,35,54,077,,3*4C
$GNGLL,5025.4447683,N,01411.3818358,E,211551.00,A,D*74
$GNRMC,211552.00,A,5025.4447648,N,01411.3818317,E,0.020,,241021,,,R,V*08
$GNVTG,,T,,M,0.020,N,0.038,K,D*31
$GNGGA,211552.00,5025.4447648,N,01411.3818317,E,4,12,0.65,217.749,M,44.078,M,1.0,0084*6C
$GNGSA,A,3,24,31,32,29,12,25,06,02,,,,,1.17,0.65,0.97,1*05
$GNGSA,A,3,81,87,88,69,79,77,78,,,,,,1.17,0.65,0.97,2*00
$GNGSA,A,3,12,13,24,35,25,26,,,,,,,1.17,0.65,0.97,4*0C
$GPGSV,3,1,10,02,36,106,32,03,02,356,25,06,28,058,,12,75,059,47,1*6F
$GPGSV,3,2,10,19,08,044,,24,35,152,45,25,66,283,44,29,31,209,46,1*6D
$GPGSV,3,3,10,31,12,310,43,32,34,274,51,1*62
$GPGSV,3,1,10,02,36,106,,03,02,356,22,06,28,058,28,12,75,059,43,6*60
$GPGSV,3,2,10,19,08,044,,24,35,152,41,25,66,283,47,29,31,209,42,6*69
$GPGSV,3,3,10,31,12,310,41,32,34,274,43,6*64
$GLGSV,3,1,10,68,07,244,43,69,23,292,48,70,11,351,,77,35,104,25,1*78
$GLGSV,3,2,10,78,75,001,51,79,28,303,50,81,11,183,41,86,03,019,22,1*72
$GLGSV,3,3,10,87,54,061,49,88,53,145,49,1*76
$GLGSV,3,1,10,68,07,244,36,69,23,292,43,70,11,351,,77,35,104,14,3*71
$GLGSV,3,2,10,78,75,001,45,79,28,303,41,81,11,183,37,86,03,019,,3*74
$GLGSV,3,3,10,87,54,061,,88,53,145,41,3*71
$GBGSV,3,1,11,02,04,106,,05,18,128,,10,07,078,,12,25,189,44,1*7F
$GBGSV,3,2,11,13,27,089,28,24,72,292,44,25,15,299,48,26,56,124,43,1*7B
$GBGSV,3,3,11,29,13,040,,33,04,262,44,35,54,077,43,1*49
$GBGSV,3,1,11,02,04,106,,05,18,128,,10,07,078,25,12,25,189,48,3*76
$GBGSV,3,2,11,13,27,089,23,24,72,292,,25,15,299,,26,56,124,,3*79
$GBGSV,3,3,11,29,13,040,,33,04,262,,35,54,077,,3*4C
$GNGLL,5025.4447648,N,01411.3818317,E,211552.00,A,D*7B
$GNRMC,211553.00,A,5025.4447662,N,01411.3818315,E,0.010,,241021,,,R,V*00
$GNVTG,,T,,M,0.010,N,0.019,K,D*31
$GNGGA,211553.00,5025.4447662,N,01411.3818315,E,4,12,0.65,217.748,M,44.078,M,1.0,0084*66
$GNGSA,A,3,24,31,32,29,12,25,06,02,,,,,1.17,0.65,0.97,1*05
$GNGSA,A,3,81,87,88,69,79,77,78,,,,,,1.17,0.65,0.97,2*00
$GNGSA,A,3,12,13,24,35,25,26,,,,,,,1.17,0.65,0.97,4*0C
$GPGSV,3,1,10,02,36,106,32,03,02,356,25,06,28,058,,12,75,059,47,1*6F
$GPGSV,3,2,10,19,08,044,,24,35,152,45,25,66,283,44,29,31,209,46,1*6D
$GPGSV,3,3,10,31,12,310,43,32,34,274,51,1*62
$GPGSV,3,1,10,02,36,106,,03,02,356,22,06,28,058,28,12,75,059,43,6*60
$GPGSV,3,2,10,19,08,044,,24,35,152,41,25,66,283,47,29,31,209,42,6*69
$GPGSV,3,3,10,31,12,310,41,32,34,274,43,6*64
$GLGSV,3,1,10,68,07,244,43,69,23,292,48,70,11,351,,77,35,104,24,1*79
$GLGSV,3,2,10,78,75,001,51,79,28,303,50,81,11,183,41,86,03,019,22,1*72
$GLGSV,3,3,10,87,54,061,49,88,53,145,49,1*76
$GLGSV,3,1,10,68,07,244,36,69,23,292,43,70,11,351,,77,35,104,12,3*77
$GLGSV,3,2,10,78,75,001,45,79,28,303,41,81,11,183,37,86,03,019,,3*74
$GLGSV,3,3,10,87,54,061,,88,53,145,41,3*71
$GBGSV,3,1,11,02,04,106,,05,18,128,,10,07,078,,12,25,189,44,1*7F
$GBGSV,3,2,11,13,27,089,28,24,72,292,44,25,15,299,48,26,56,124,43,1*7B
$GBGSV,3,3,11,29,13,040,,33,04,262,44,35,54,077,43,1*49
$GBGSV,3,1,11,02,04,106,,05,18,128,,10,07,078,25,12,25,189,48,3*76
$GBGSV,3,2,11,13,27,089,24,24,72,292,,25,15,299,,26,56,124,,3*7E
$GBGSV,3,3,11,29,13,040,,33,04,262,,35,54,077,,3*4C
$GNGLL,5025.4447662,N,01411.3818315,E,211553.00,A,D*70
$GNRMC,211554.00,A,5025.4447653,N,01411.3818287,E,0.016,,241021,,,R,V*09
$GNVTG,,T,,M,0.016,N,0.030,K,D*3C
$GNGGA,211554.00,5025.4447653,N,01411.3818287,E,4,12,0.65,217.749,M,44.078,M,1.0,0084*68
$GNGSA,A,3,24,31,32,29,12,25,06,02,,,,,1.17,0.65,0.97,1*05
$GNGSA,A,3,81,87,88,69,79,77,78,,,,,,1.17,0.65,0.97,2*00
$GNGSA,A,3,12,13,24,35,25,26,,,,,,,1.17,0.65,0.97,4*0C
$GPGSV,3,1,10,02,36,106,32,03,02,356,26,06,28,058,,12,75,059,47,1*6C
$GPGSV,3,2,10,19,08,044,,24,35,152,45,25,66,283,44,29,31,209,46,1*6D
$GPGSV,3,3,10,31,12,310,43,32,34,274,51,1*62
$GPGSV,3,1,10,02,36,106,,03,02,356,22,06,28,058,28,12,75,059,43,6*60
$GPGSV,3,2,10,19,08,044,,24,35,152,41,25,66,283,47,29,31,209,42,6*69
$GPGSV,3,3,10,31,12,310,41,32,34,274,43,6*64
$GLGSV,3,1,10,68,07,244,43,69,23,292,48,70,11,351,,77,35,104,24,1*79
$GLGSV,3,2,10,78,75,001,51,79,28,303,50,81,11,183,41,86,03,019,20,1*70
$GLGSV,3,3,10,87,54,061,49,88,53,145,49,1*76
$GLGSV,3,1,10,68,07,244,36,69,23,292,43,70,11,351,,77,35,104,12,3*77
$GLGSV,3,2,10,78,75,001,45,79,28,303,41,81,11,183,37,86,03,019,,3*74
$GLGSV,3,3,10,87,54,061,,88,53,145,41,3*71
$GBGSV,3,1,11,02,04,106,,05,18,128,,10,07,078,,12,25,189,44,1*7F
$GBGSV,3,2,11,13,27,089,28,24,72,292,44,25,15,299,48,26,56,124,43,1*7B
$GBGSV,3,3,11,29,13,040,,33,04,262,44,35,54,077,43,1*49
$GBGSV,3,1,11,02,04,106,,05,18,128,,10,07,078,25,12,25,189,48,3*76
$GBGSV,3,2,11,13,27,089,23,24,72,292,,25,15,299,,26,56,124,,3*79
$GBGSV,3,3,11,29,13,040,,33,04,262,,35,54,077,,3*4C
$GNGLL,5025.4447653,N,01411.3818287,E,211554.00,A,D*7F
$GNRMC,211555.00,A,5025.4447648,N,01411.3818281,E,0.007,,241021,,,R,V*04
$GNVTG,,T,,M,0.007,N,0.012,K,D*3C
$GNGGA,211555.00,5025.4447648,N,01411.3818281,E,4,12,0.65,217.753,M,44.078,M,1.0,0084*6E
$GNGSA,A,3,24,31,32,29,12,25,06,02,,,,,1.17,0.65,0.97,1*05
$GNGSA,A,3,81,87,88,69,79,77,78,,,,,,1.17,0.65,0.97,2*00
$GNGSA,A,3,12,13,24,35,25,26,,,,,,,1.17,0.65,0.97,4*0C
$GPGSV,3,1,10,02,36,106,31,03,02,356,27,06,28,058,,12,75,059,47,1*6E
$GPGSV,3,2,10,19,08,044,,24,35,152,45,25,66,283,44,29,31,209,46,1*6D
$GPGSV,3,3,10,31,12,310,43,32,34,274,51,1*62
$GPGSV,3,1,10,02,36,106,,03,02,356,21,06,28,058,27,12,75,059,43,6*6C
$GPGSV,3,2,10,19,08,044,,24,35,152,41,25,66,283,47,29,31,209,42,6*69
$GPGSV,3,3,10,31,12,310,41,32,34,274,43,6*64
$GLGSV,3,1,10,68,07,244,43,69,23,292,48,70,11,351,,77,35,104,23,1*7E
$GLGSV,3,2,10,78,75,001,51,79,28,303,50,81,11,183,41,86,03,019,20,1*70
$GLGSV,3,3,10,87,54,061,50,88,53,145,49,1*7E
$GLGSV,3,1,10,68,07,244,36,69,23,292,43,70,11,351,,77,35,104,12,3*77
$GLGSV,3,2,10,78,75,001,45,79,28,303,41,81,11,183,38,86,03,019,,3*7B
$GLGSV,3,3,10,87,54,061,,88,53,145,41,3*71
$GBGSV,3,1,11,02,04,106,,05,18,128,,10,07,078,,12,25,189,44,1*7F
$GBGSV,3,2,11,13,27,089,27,24,72,292,44,25,15,299,48,26,56,124,44,1*73
$GBGSV,3,3,11,29,13,040,,33,04,262,44,35,54,077,43,1*49
$GBGSV,3,1,11,02,04,106,,05,18,128,,10,07,078,25,12,25,189,48,3*76
$GBGSV,3,2,11,13,27,089,23,24,72,292,,25,15,299,,26,56,124,,3*79
$GBGSV,3,3,11,29,13,040,,33,04,262,,35,54,077,,3*4C
$GNGLL,5025.4447648,N,01411.3818281,E,211555.00,A,D*72
$GNRMC,211556.00,A,5025.4447653,N,01411.3818299,E,0.003,,241021,,,R,V*00
$GNVTG,,T,,M,0.003,N,0.006,K,D*3D
$GNGGA,211556.00,5025.4447653,N,01411.3818299,E,4,12,0.65,217.750,M,44.078,M,1.0,0084*6D
$GNGSA,A,3,24,31,32,29,12,25,06,02,,,,,1.17,0.65,0.97,1*05
$GNGSA,A,3,81,87,88,69,79,77,78,,,,,,1.17,0.65,0.97,2*00
$GNGSA,A,3,12,13,24,35,25,26,,,,,,,1.17,0.65,0.97,4*0C
$GPGSV,3,1,10,02,36,106,31,03,02,356,27,06,28,058,,12,75,059,47,1*6E
$GPGSV,3,2,10,19,08,044,32,24,35,152,45,25,66,283,44,29,31,209,46,1*6C
$GPGSV,3,3,10,31,12,310,43,32,34,274,51,1*62
$GPGSV,3,1,10,02,36,106,,03,02,356,20,06,28,058,27,12,75,059,43,6*6D
$GPGSV,3,2,10,19,08,044,,24,35,152,41,25,66,283,47,29,31,209,42,6*69
$GPGSV,3,3,10,31,12,310,41,32,34,274,43,6*64
$GLGSV,3,1,10,68,07,244,43,69,23,292,48,70,11,351,,77,35,104,23,1*7E
$GLGSV,3,2,10,78,75,001,51,79,28,303,50,81,11,183,41,86,03,019,19,1*7A
$GLGSV,3,3,10,87,54,061,50,88,53,145,49,1*7E
$GLGSV,3,1,10,68,07,244,36,69,23,292,43,70,11,351,,77,35,104,12,3*77
$GLGSV,3,2,10,78,75,001,45,79,28,303,41,81,11,183,37,86,03,019,,3*74
$GLGSV,3,3,10,87,54,061,,88,53,145,41,3*71
$GBGSV,3,1,11,02,04,106,,05,18,128,,10,07,078,,12,25,189,44,1*7F
$GBGSV,3,2,11,13,27,089,27,24,72,292,44,25,15,299,48,26,56,124,44,1*73
$GBGSV,3,3,11,29,13,040,,33,04,262,44,35,54,077,43,1*49
$GBGSV,3,1,11,02,04,106,,05,18,128,,10,07,078,25,12,25,189,48,3*76
$GBGSV,3,2,11,13,27,089,23,24,72,292,,25,15,299,,26,56,124,,3*79
$GBGSV,3,3,11,29,13,040,,33,04,262,,35,54,077,,3*4C
$GNGLL,5025.4447653,N,01411.3818299,E,211556.00,A,D*72
$GNRMC,211557.00,A,5025.4447665,N,01411.3818327,E,0.009,,241021,,,R,V*0A
$GNVTG,,T,,M,0.009,N,0.017,K,D*37
$GNGGA,211557.00,5025.4447665,N,01411.3818327,E,4,12,0.65,217.747,M,44.078,M,1.0,0084*6B
$GNGSA,A,3,24,31,32,29,12,25,06,02,,,,,1.17,0.65,0.97,1*05
$GNGSA,A,3,81,87,88,69,79,77,78,,,,,,1.17,0.65,0.97,2*00
$GNGSA,A,3,12,13,24,35,25,26,,,,,,,1.17,0.65,0.97,4*0C
$GPGSV,3,1,10,02,36,106,31,03,02,356,26,06,28,058,,12,75,059,47,1*6F
$GPGSV,3,2,10,19,08,044,32,24,35,152,45,25,66,283,44,29,31,209,46,1*6C
$GPGSV,3,3,10,31,12,310,43,32,34,274,51,1*62
$GPGSV,3,1,10,02,36,106,,03,02,356,19,06,28,058,27,12,75,059,43,6*67
