$GNGGA,214307.00,5025.4447519,N,01411.3817953,E,4,12,0.88,217.792,M,44.078,M,1.0,0084*68
$GNGSA,A,3,33,24,26,01,31,05,09,13,,,,,1.81,0.88,1.58,3*08
$GNGSA,A,3,12,13,25,24,26,35,,,,,,,1.81,0.88,1.58,4*02
$GAGSV,3,1,12,01,47,096,39,03,00,350,,04,00,207,11,05,21,305,46,7*73
$GAGSV,3,2,12,09,21,253,43,12,02,183,,13,11,029,20,21,00,102,09,7*71
$GAGSV,3,3,12,24,24,285,45,26,45,078,34,31,73,302,41,33,38,147,47,7*7B
$GAGSV,3,1,12,01,47,096,39,03,00,350,,04,00,207,21,05,21,305,45,2*76
$GAGSV,3,2,12,09,21,253,47,12,02,183,,13,11,029,23,21,00,102,,2*7A
$GAGSV,3,3,12,24,24,285,49,26,45,078,32,31,73,302,48,33,38,147,43,2*79
$GBGSV,3,1,10,02,04,106,,05,18,128,,10,04,083,22,12,37,191,45,1*72
$GBGSV,3,2,10,13,32,086,30,24,81,266,42,25,24,302,49,26,44,131,31,1*7B
$GBGSV,3,3,10,29,03,039,15,35,48,063,37,1*7A
$GBGSV,3,1,10,02,04,106,,05,18,128,,10,04,083,20,12,37,191,47,3*70
$GBGSV,3,2,10,13,32,086,28,24,81,266,,25,24,302,,26,44,131,,3*79
$GBGSV,3,3,10,29,03,039,,35,48,063,,3*78
$GNGLL,5025.4447519,N,01411.3817953,E,214307.00,A,D*7A
$GNTXT,01,01,02,Starting GNSS*5A
$GNRMC,214307.14,V,,,,,,,241021,,,N,V*1B
$GNVTG,,,,,,,,,N*2E
$GNGGA,214307.14,,,,,0,00,99.99,,,,,,*7E
$GNGSA,A,1,,,,,,,,,,,,,99.99,99.99,99.99,1*33
$GNGSA,A,1,,,,,,,,,,,,,99.99,99.99,99.99,2*30
$GNGSA,A,1,,,,,,,,,,,,,99.99,99.99,99.99,4*36
$GPGSV,1,1,00,1*64
$GPGSV,1,1,00,6*63
$GLGSV,1,1,00,1*78
$GLGSV,1,1,00,3*7A
$GBGSV,1,1,00,1*76
$GBGSV,1,1,00,3*74
$GNGLL,,,,,214307.14,V,N*52
$GNRMC,214307.17,V,,,,,,,241021,,,N,V*18
$GNVTG,,,,,,,,,N*2E
$GNGGA,214307.17,,,,,0,00,99.99,,,,,,*7D
$GNGSA,A,1,,,,,,,,,,,,,99.99,99.99,99.99,1*33
$GNGSA,A,1,,,,,,,,,,,,,99.99,99.99,99.99,2*30
$GNGSA,A,1,,,,,,,,,,,,,99.99,99.99,99.99,4*36
$GPGSV,3,1,09,02,42,092,,03,00,346,,06,24,046,,12,64,077,,1*61
$GPGSV,3,2,09,24,23,155,,25,78,303,,29,43,213,,31,24,310,,1*68
$GPGSV,3,3,09,32,28,261,,1*53
$GPGSV,3,1,09,02,42,092,,03,00,346,,06,24,046,,12,64,077,,6*66
$GPGSV,3,2,09,24,23,155,,25,78,303,,29,43,213,,31,24,310,,6*6F
$GPGSV,3,3,09,32,28,261,,6*54
$GLGSV,2,1,08,69,15,279,,70,15,339,,77,23,115,,78,76,068,,1*7A
$GLGSV,2,2,08,79,40,311,,81,25,184,,87,45,043,,88,66,124,,1*74
$GLGSV,2,1,08,69,15,279,,70,15,339,,77,23,115,,78,76,068,,3*78
$GLGSV,2,2,08,79,40,311,,81,25,184,,87,45,043,,88,66,124,,3*76
$GBGSV,3,1,10,02,04,106,,05,18,128,,10,04,083,,12,37,191,,1*73
$GBGSV,3,2,10,13,32,085,,24,82,265,,25,24,302,,26,44,131,,1*72
$GBGSV,3,3,10,29,03,039,,35,47,062,,1*74
$GBGSV,3,1,10,02,04,106,,05,18,128,,10,04,083,,12,37,191,,3*71
$GBGSV,3,2,10,13,32,085,,24,82,265,,25,24,302,,26,44,131,,3*70
$GBGSV,3,3,10,29,03,039,,35,47,062,,3*76
$GNGLL,,,,,214307.17,V,N*51
$GNRMC,214308.00,A,5025.4453003,N,01411.3804534,E,0.076,,241021,,,A,V*12
$GNVTG,,T,,M,0.076,N,0.142,K,A*3B
$GNGGA,214308.00,5025.4453003,N,01411.3804534,E,1,12,0.69,224.965,M,44.078,M,,*4C
$GNGSA,A,3,24,31,32,25,12,29,02,,,,,,1.37,0.69,1.18,1*0B
$GNGSA,A,3,81,87,88,69,79,78,,,,,,,1.37,0.69,1.18,2*08
$GNGSA,A,3,12,13,24,25,26,35,,,,,,,1.37,0.69,1.18,4*04
$GPGSV,3,1,09,02,42,092,40,03,00,346,,06,24,046,,12,64,077,49,1*68
$GPGSV,3,2,09,24,23,155,45,25,78,303,39,29,43,213,45,31,24,310,47,1*61
$GPGSV,3,3,09,32,28,261,41,1*56
$GPGSV,3,1,09,02,42,092,,03,00,346,,06,24,046,26,12,64,077,45,6*63
$GPGSV,3,2,09,24,23,155,44,25,78,303,45,29,43,213,42,31,24,310,38,6*63
$GPGSV,3,3,09,32,28,261,41,6*51
$GLGSV,2,1,08,69,15,279,47,70,15,339,,77,23,115,22,78,76,068,49,1*74
$GLGSV,2,2,08,79,40,311,49,81,25,184,47,87,45,043,42,88,66,124,46,1*7E
$GLGSV,2,1,08,69,15,279,41,70,15,339,,77,23,115,22,78,76,068,42,3*7B
$GLGSV,2,2,08,79,40,311,40,81,25,184,40,87,45,043,,88,66,124,41,3*73
$GBGSV,3,1,10,02,04,106,,05,18,128,,10,04,083,23,12,37,191,45,1*73
$GBGSV,3,2,10,13,32,085,31,24,82,265,42,25,24,302,49,26,44,131,31,1*79
$GBGSV,3,3,10,29,03,039,,35,47,062,37,1*70
$GBGSV,3,1,10,02,04,106,,05,18,128,,10,04,083,,12,37,191,46,3*73
$GBGSV,3,2,10,13,32,085,28,24,82,265,,25,24,302,,26,44,131,,3*7A
$GBGSV,3,3,10,29,03,039,,35,47,062,,3*76
$GNGLL,5025.4453003,N,01411.3804534,E,214308.00,A,A*74
$GNRMC,214309.00,A,5025.4462856,N,01411.3813967,E,0.052,,241021,,,A,V*13
$GNVTG,,T,,M,0.052,N,0.097,K,A*34
$GNGGA,214309.00,5025.4462856,N,01411.3813967,E,1,12,0.64,223.035,M,44.078,M,,*4D
$GNGSA,A,3,24,31,32,25,12,29,02,06,,,,,1.26,0.64,1.08,1*01
$GNGSA,A,3,81,87,88,69,79,78,,,,,,,1.26,0.64,1.08,2*04
$GNGSA,A,3,12,13,24,25,26,35,,,,,,,1.26,0.64,1.08,4*08
$GPGSV,3,1,09,02,42,092,40,03,00,346,,06,24,046,,12,64,077,49,1*68
$GPGSV,3,2,09,24,23,155,45,25,78,303,39,29,43,213,45,31,24,310,47,1*61
$GPGSV,3,3,09,32,28,261,41,1*56
$GPGSV,3,1,09,02,42,092,,03,00,346,,06,24,046,26,12,64,077,45,6*63
$GPGSV,3,2,09,24,23,155,44,25,78,303,45,29,43,213,42,31,24,310,38,6*63
$GPGSV,3,3,09,32,28,261,41,6*51
$GLGSV,2,1,08,69,15,279,48,70,15,339,,77,23,115,23,78,76,068,49,1*7A
$GLGSV,2,2,08,79,40,311,49,81,25,184,47,87,45,043,43,88,66,124,47,1*7E
$GLGSV,2,1,08,69,15,279,41,70,15,339,,77,23,115,22,78,76,068,43,3*7A
$GLGSV,2,2,08,79,40,311,41,81,25,184,40,87,45,043,,88,66,124,41,3*72
$GBGSV,3,1,10,02,04,106,,05,18,128,,10,04,083,23,12,37,191,45,1*73
$GBGSV,3,2,10,13,32,085,30,24,82,265,42,25,24,302,49,26,44,131,31,1*78
$GBGSV,3,3,10,29,03,039,,35,47,062,37,1*70
$GBGSV,3,1,10,02,04,106,,05,18,128,,10,04,083,,12,37,191,46,3*73
$GBGSV,3,2,10,13,32,085,28,24,82,265,,25,24,302,,26,44,131,,3*7A
$GBGSV,3,3,10,29,03,039,,35,47,062,,3*76
$GNGLL,5025.4462856,N,01411.3813967,E,214309.00,A,A*73
$GNRMC,214310.00,A,5025.4463788,N,01411.3815189,E,0.006,,241021,,,A,V*19
$GNVTG,,T,,M,0.006,N,0.012,K,A*38
$GNGGA,214310.00,5025.4463788,N,01411.3815189,E,1,12,0.61,220.986,M,44.078,M,,*41
$GNGSA,A,3,24,31,32,25,12,29,02,06,,,,,1.19,0.61,1.02,1*02
$GNGSA,A,3,81,87,88,69,79,77,78,,,,,,1.19,0.61,1.02,2*07
$GNGSA,A,3,12,13,24,25,26,35,,,,,,,1.19,0.61,1.02,4*0B
$GPGSV,3,1,09,02,42,092,40,03,00,346,,06,24,046,,12,64,077,50,1*60
$GPGSV,3,2,09,24,23,155,46,25,78,303,40,29,43,213,45,31,24,310,47,1*6C
$GPGSV,3,3,09,32,28,261,42,1*55
$GPGSV,3,1,09,02,42,092,,03,00,346,,06,24,046,26,12,64,077,45,6*63
$GPGSV,3,2,09,24,23,155,44,25,78,303,45,29,43,213,42,31,24,310,38,6*63
$GPGSV,3,3,09,32,28,261,41,6*51
$GLGSV,2,1,08,69,15,279,48,70,15,339,,77,23,115,22,78,76,068,49,1*7B
$GLGSV,2,2,08,79,40,311,50,81,25,184,48,87,45,043,44,88,66,124,47,1*7E
$GLGSV,2,1,08,69,15,279,42,70,15,339,,77,23,115,22,78,76,068,43,3*79
$GLGSV,2,2,08,79,40,311,42,81,25,184,41,87,45,043,,88,66,124,42,3*73
$GBGSV,3,1,10,02,04,106,,05,18,128,,10,04,083,23,12,37,191,45,1*73
$GBGSV,3,2,10,13,32,085,30,24,82,265,42,25,24,302,49,26,44,131,31,1*78
$GBGSV,3,3,10,29,03,039,16,35,47,062,37,1*77
$GBGSV,3,1,10,02,04,106,,05,18,128,,10,04,083,22,12,37,191,46,3*73
$GBGSV,3,2,10,13,32,085,27,24,82,265,,25,24,302,,26,44,131,,3*75
$GBGSV,3,3,10,29,03,039,,35,47,062,,3*76
$GNGLL,5025.4463788,N,01411.3815189,E,214310.00,A,A*78
$GNRMC,214311.00,A,5025.4464000,N,01411.3814061,E,0.014,,241021,,,A,V*1D
$GNVTG,,T,,M,0.014,N,0.027,K,A*3D
$GNGGA,214311.00,5025.4464000,N,01411.3814061,E,1,12,0.61,220.808,M,44.078,M,,*41
$GNGSA,A,3,24,31,32,25,12,29,02,06,,,,,1.19,0.61,1.02,1*02
$GNGSA,A,3,81,87,88,69,79,77,78,,,,,,1.19,0.61,1.02,2*07
$GNGSA,A,3,12,13,24,25,26,35,,,,,,,1.19,0.61,1.02,4*0B
$GPGSV,3,1,09,02,42,092,40,03,00,346,,06,24,046,,12,64,077,50,1*60
$GPGSV,3,2,09,24,23,155,46,25,78,303,40,29,43,213,45,31,24,310,47,1*6C
$GPGSV,3,3,09,32,28,261,42,1*55
$GPGSV,3,1,09,02,42,092,,03,00,346,,06,24,046,26,12,64,077,45,6*63
$GPGSV,3,2,09,24,23,155,44,25,78,303,45,29,43,213,42,31,24,310,38,6*63
$GPGSV,3,3,09,32,28,261,41,6*51
$GLGSV,2,1,08,69,15,279,48,70,15,339,19,77,23,115,22,78,76,068,49,1*73
$GLGSV,2,2,08,79,40,311,49,81,25,184,47,87,45,043,43,88,66,124,48,1*71
$GLGSV,2,1,08,69,15,279,42,70,15,339,,77,23,115,22,78,76,068,43,3*79
$GLGSV,2,2,08,79,40,311,42,81,25,184,42,87,45,043,,88,66,124,42,3*70
$GBGSV,3,1,10,02,04,106,,05,18,128,,10,04,083,23,12,37,191,45,1*73
$GBGSV,3,2,10,13,32,085,30,24,82,265,41,25,24,302,49,26,44,131,31,1*7B
$GBGSV,3,3,10,29,03,039,17,35,47,062,37,1*76
$GBGSV,3,1,10,02,04,106,,05,18,128,,10,04,083,21,12,37,191,46,3*70
$GBGSV,3,2,10,13,32,085,27,24,82,265,,25,24,302,,26,44,131,,3*75
$GBGSV,3,3,10,29,03,039,,35,47,062,,3*76
$GNGLL,5025.4464000,N,01411.3814061,E,214311.00,A,A*7F
$GNRMC,214312.00,A,5025.4463312,N,01411.3809167,E,0.028,,241021,,,A,V*1D
$GNVTG,,T,,M,0.028,N,0.052,K,A*30
$GNGGA,214312.00,5025.4463312,N,01411.3809167,E,1,12,0.61,220.133,M,44.078,M,,*4F
$GNGSA,A,3,24,31,32,25,12,29,02,06,,,,,1.19,0.61,1.02,1*02
$GNGSA,A,3,81,87,88,69,79,77,78,,,,,,1.19,0.61,1.02,2*07
$GNGSA,A,3,12,13,24,25,26,35,,,,,,,1.19,0.61,1.02,4*0B
$GPGSV,3,1,09,02,42,092,40,03,00,346,,06,24,046,,12,64,077,50,1*60
$GPGSV,3,2,09,24,23,155,46,25,78,303,40,29,43,213,45,31,24,310,47,1*6C
$GPGSV,3,3,09,32,28,261,42,1*55
$GPGSV,3,1,09,02,42,092,,03,00,346,,06,24,046,26,12,64,077,45,6*63
$GPGSV,3,2,09,24,23,155,44,25,78,303,45,29,43,213,42,31,24,310,38,6*63
$GPGSV,3,3,09,32,28,261,41,6*51
$GLGSV,2,1,08,69,15,279,49,70,15,339,19,77,23,115,22,78,76,068,49,1*72
$GLGSV,2,2,08,79,40,311,50,81,25,184,47,87,45,043,43,88,66,124,48,1*79
$GLGSV,2,1,08,69,15,279,42,70,15,339,,77,23,115,22,78,76,068,42,3*78
$GLGSV,2,2,08,79,40,311,42,81,25,184,42,87,45,043,,88,66,124,43,3*71
$GBGSV,3,1,10,02,04,106,,05,18,128,,10,04,083,23,12,37,191,45,1*73
$GBGSV,3,2,10,13,32,085,29,24,82,265,41,25,24,302,49,26,44,131,30,1*72
$GBGSV,3,3,10,29,03,039,18,35,47,062,37,1*79
$GBGSV,3,1,10,02,04,106,,05,18,128,,10,04,083,21,12,37,191,46,3*70
$GBGSV,3,2,10,13,32,085,27,24,82,265,,25,24,302,,26,44,131,,3*75
$GBGSV,3,3,10,29,03,039,,35,47,062,,3*76
$GNGLL,5025.4463312,N,01411.3809167,E,214312.00,A,A*70
$GNRMC,214313.00,A,5025.4462612,N,01411.3805476,E,0.016,,241021,,,A,V*1C
$GNVTG,,T,,M,0.016,N,0.030,K,A*39
$GNGGA,214313.00,5025.4462612,N,01411.3805476,E,1,12,0.61,220.117,M,44.078,M,,*45
$GNGSA,A,3,24,31,32,25,12,29,02,06,,,,,1.19,0.61,1.02,1*02
$GNGSA,A,3,81,87,88,69,79,77,78,,,,,,1.19,0.61,1.02,2*07
$GNGSA,A,3,12,13,24,25,26,35,,,,,,,1.19,0.61,1.02,4*0B
$GPGSV,3,1,09,02,42,092,41,03,00,346,,06,24,046,,12,64,077,50,1*61
$GPGSV,3,2,09,24,23,155,46,25,78,303,40,29,43,213,45,31,24,310,47,1*6C
$GPGSV,3,3,09,32,28,261,42,1*55
$GPGSV,3,1,09,02,42,092,,03,00,346,,06,24,046,26,12,64,077,44,6*62
$GPGSV,3,2,09,24,23,155,44,25,78,303,45,29,43,213,43,31,24,310,38,6*62
$GPGSV,3,3,09,32,28,261,41,6*51
$GLGSV,2,1,08,69,15,279,49,70,15,339,19,77,23,115,21,78,76,068,49,1*71
$GLGSV,2,2,08,79,40,311,50,81,25,184,48,87,45,043,44,88,66,124,48,1*71
$GLGSV,2,1,08,69,15,279,42,70,15,339,,77,23,115,22,78,76,068,42,3*78
$GLGSV,2,2,08,79,40,311,43,81,25,184,42,87,45,043,,88,66,124,43,3*70
$GBGSV,3,1,10,02,04,106,,05,18,128,,10,04,083,23,12,37,191,45,1*73
$GBGSV,3,2,10,13,32,085,30,24,82,265,41,25,24,302,49,26,44,131,31,1*7B
$GBGSV,3,3,10,29,03,039,18,35,47,062,37,1*79
$GBGSV,3,1,10,02,04,106,,05,18,128,,10,04,083,21,12,37,191,46,3*70
$GBGSV,3,2,10,13,32,085,27,24,82,265,,25,24,302,,26,44,131,,3*75
$GBGSV,3,3,10,29,03,039,,35,47,062,,3*76
$GNGLL,5025.4462612,N,01411.3805476,E,214313.00,A,A*7C
$GNRMC,214314.00,A,5025.4461408,N,01411.3801509,E,0.020,,241021,,,A,V*19
$GNVTG,,T,,M,0.020,N,0.037,K,A*3B
$GNGGA,214314.00,5025.4461408,N,01411.3801509,E,1,12,0.61,219.999,M,44.078,M,,*41
$GNGSA,A,3,24,31,32,25,12,29,02,06,,,,,1.19,0.61,1.02,1*02
$GNGSA,A,3,81,87,88,69,79,77,78,70,,,,,1.19,0.61,1.02,2*00
$GNGSA,A,3,12,13,24,25,26,35,,,,,,,1.19,0.61,1.02,4*0B
$GPGSV,3,1,09,02,42,092,40,03,00,346,,06,24,046,,12,64,077,50,1*60
$GPGSV,3,2,09,24,23,155,46,25,78,303,40,29,43,213,45,31,24,310,47,1*6C
$GPGSV,3,3,09,32,28,261,42,1*55
$GPGSV,3,1,09,02,42,092,,03,00,346,,06,24,046,26,12,64,077,45,6*63
$GPGSV,3,2,09,24,23,155,44,25,78,303,45,29,43,213,43,31,24,310,38,6*62
$GPGSV,3,3,09,32,28,261,41,6*51
$GLGSV,2,1,08,69,15,279,49,70,15,339,19,77,23,115,21,78,76,068,49,1*71
$GLGSV,2,2,08,79,40,311,50,81,25,184,48,87,45,043,44,88,66,124,48,1*71
$GLGSV,2,1,08,69,15,279,42,70,15,339,,77,23,115,22,78,76,068,42,3*78
$GLGSV,2,2,08,79,40,311,43,81,25,184,42,87,45,043,,88,66,124,43,3*70
$GBGSV,3,1,10,02,04,106,,05,18,128,,10,04,083,24,12,37,191,45,1*74
$GBGSV,3,2,10,13,32,085,29,24,82,265,41,25,24,302,49,26,44,131,31,1*73
$GBGSV,3,3,10,29,03,039,19,35,47,062,37,1*78
$GBGSV,3,1,10,02,04,106,,05,18,128,,10,04,083,21,12,37,191,46,3*70
$GBGSV,3,2,10,13,32,085,27,24,82,265,,25,24,302,,26,44,131,,3*75
$GBGSV,3,3,10,29,03,039,,35,47,062,,3*76
$GNGLL,5025.4461408,N,01411.3801509,E,214314.00,A,A*7C
$GNRMC,214315.00,A,5025.4460589,N,01411.3800018,E,0.017,,241021,,,A,V*11
$GNVTG,,T,,M,0.017,N,0.031,K,A*39
$GNGGA,214315.00,5025.4460589,N,01411.3800018,E,1,12,0.59,220.040,M,44.078,M,,*41
$GNGSA,A,3,24,31,32,25,12,29,02,06,,,,,1.13,0.59,0.97,1*0E
$GNGSA,A,3,81,87,88,69,79,77,78,70,,,,,1.13,0.59,0.97,2*0C
$GNGSA,A,3,12,13,24,25,26,35,,,,,,,1.13,0.59,0.97,4*07
$GPGSV,3,1,09,02,42,092,41,03,00,346,,06,24,046,,12,64,077,50,1*61
$GPGSV,3,2,09,24,23,155,46,25,78,303,40,29,43,213,45,31,24,310,47,1*6C
$GPGSV,3,3,09,32,28,261,42,1*55
$GPGSV,3,1,09,02,42,092,,03,00,346,,06,24,046,26,12,64,077,44,6*62
$GPGSV,3,2,09,24,23,155,44,25,78,303,45,29,43,213,43,31,24,310,38,6*62
$GPGSV,3,3,09,32,28,261,41,6*51
$GLGSV,2,1,08,69,15,279,49,70,15,339,19,77,23,115,21,78,76,068,49,1*71
$GLGSV,2,2,08,79,40,311,50,81,25,184,48,87,45,043,44,88,66,124,48,1*71
$GLGSV,2,1,08,69,15,279,42,70,15,339,,77,23,115,22,78,76,068,42,3*78
$GLGSV,2,2,08,79,40,311,43,81,25,184,42,87,45,043,,88,66,124,43,3*70
$GBGSV,3,1,10,02,04,106,,05,18,128,,10,04,083,24,12,37,191,45,1*74
$GBGSV,3,2,10,13,32,085,29,24,82,265,41,25,24,302,49,26,44,131,31,1*73
$GBGSV,3,3,10,29,03,039,18,35,47,062,37,1*79
$GBGSV,3,1,10,02,04,106,,05,18,128,,10,04,083,20,12,37,191,46,3*71
$GBGSV,3,2,10,13,32,085,27,24,82,265,,25,24,302,,26,44,131,,3*75
$GBGSV,3,3,10,29,03,039,,35,47,062,,3*76
$GNGLL,5025.4460589,N,01411.3800018,E,214315.00,A,A*70
$GNRMC,214316.00,A,5025.4459762,N,01411.3799306,E,0.013,,241021,,,A,V*18
$GNVTG,,T,,M,0.013,N,0.024,K,A*39
$GNGGA,214316.00,5025.4459762,N,01411.3799306,E,1,12,0.59,220.024,M,44.078,M,,*4E
$GNGSA,A,3,24,31,32,25,12,29,02,06,,,,,1.13,0.59,0.97,1*0E
$GNGSA,A,3,81,87,88,69,79,77,78,70,,,,,1.13,0.59,0.97,2*0C
$GNGSA,A,3,12,13,24,25,26,35,,,,,,,1.13,0.59,0.97,4*07
$GPGSV,3,1,09,02,42,092,41,03,00,346,,06,24,046,,12,64,077,50,1*61
$GPGSV,3,2,09,24,23,155,46,25,78,303,41,29,43,213,44,31,24,310,47,1*6C
$GPGSV,3,3,09,32,28,261,42,1*55
$GPGSV,3,1,09,02,42,092,,03,00,346,,06,24,046,26,12,64,077,44,6*62
$GPGSV,3,2,09,24,23,155,44,25,78,303,45,29,43,213,43,31,24,310,38,6*62
$GPGSV,3,3,09,32,28,261,41,6*51
$GLGSV,2,1,08,69,15,279,49,70,15,339,19,77,23,115,21,78,76,068,49,1*71
$GLGSV,2,2,08,79,40,311,50,81,25,184,48,87,45,043,44,88,66,124,48,1*71
$GLGSV,2,1,08,69,15,279,42,70,15,339,,77,23,115,22,78,76,068,42,3*78
$GLGSV,2,2,08,79,40,311,43,81,25,184,42,87,45,043,,88,66,124,43,3*70
$GBGSV,3,1,10,02,04,106,,05,18,128,,10,04,083,25,12,37,191,45,1*75
$GBGSV,3,2,10,13,32,085,30,24,82,265,41,25,24,302,49,26,44,131,31,1*7B
$GBGSV,3,3,10,29,03,039,16,35,47,062,37,1*77
$GBGSV,3,1,10,02,04,106,,05,18,128,,10,04,083,21,12,37,191,46,3*70
$GBGSV,3,2,10,13,32,085,27,24,82,265,,25,24,302,,26,44,131,,3*75
$GBGSV,3,3,10,29,03,039,,35,47,062,,3*76
$GNGLL,5025.4459762,N,01411.3799306,E,214316.00,A,A*7D
$GNRMC,214317.00,A,5025.4459122,N,01411.3798897,E,0.015,,241021,,,A,V*1F
$GNVTG,,T,,M,0.015,N,0.029,K,A*32
$GNGGA,214317.00,5025.4459122,N,01411.3798897,E,1,12,0.59,220.085,M,44.078,M,,*44
$GNGSA,A,3,24,31,32,25,12,29,02,06,,,,,1.13,0.59,0.97,1*0E
$GNGSA,A,3,81,87,88,69,79,77,78,70,,,,,1.13,0.59,0.97,2*0C
$GNGSA,A,3,12,13,24,25,26,35,,,,,,,1.13,0.59,0.97,4*07
$GPGSV,3,1,09,02,42,092,40,03,00,346,,06,24,046,,12,64,077,50,1*60
$GPGSV,3,2,09,24,23,155,46,25,78,303,41,29,43,213,44,31,24,310,47,1*6C
$GPGSV,3,3,09,32,28,261,42,1*55
$GPGSV,3,1,09,02,42,092,,03,00,346,,06,24,046,25,12,64,077,44,6*61
$GPGSV,3,2,09,24,23,155,44,25,78,303,45,29,43,213,43,31,24,310,38,6*62
$GPGSV,3,3,09,32,28,261,41,6*51
$GLGSV,2,1,08,69,15,279,49,70,15,339,20,77,23,115,22,78,76,068,49,1*78
$GLGSV,2,2,08,79,40,311,51,81,25,184,48,87,45,043,44,88,66,124,48,1*70
$GLGSV,2,1,08,69,15,279,43,70,15,339,,77,23,115,22,78,76,068,43,3*78
$GLGSV,2,2,08,79,40,311,43,81,25,184,42,87,45,043,,88,66,124,43,3*70
$GBGSV,3,1,10,02,04,106,,05,18,128,,10,04,083,25,12,37,191,45,1*75
$GBGSV,3,2,10,13,32,085,30,24,82,265,41,25,24,302,49,26,44,131,31,1*7B
$GBGSV,3,3,10,29,03,039,15,35,47,062,37,1*74
$GBGSV,3,1,10,02,04,106,,05,18,128,,10,04,083,22,12,37,191,46,3*73
$GBGSV,3,2,10,13,32,085,27,24,82,265,,25,24,302,,26,44,131,,3*75
$GBGSV,3,3,10,29,03,039,,35,47,062,,3*76
$GNGLL,5025.4459122,N,01411.3798897,E,214317.00,A,A*7C
$GNRMC,214318.00,A,5025.4458563,N,01411.3798711,E,0.008,,241021,,,A,V*1D
$GNVTG,,T,,M,0.008,N,0.015,K,A*31
$GNGGA,214318.00,5025.4458563,N,01411.3798711,E,1,12,0.59,220.148,M,44.078,M,,*4A
$GNGSA,A,3,24,31,32,25,12,29,02,06,,,,,1.13,0.59,0.97,1*0E
$GNGSA,A,3,81,87,88,69,79,77,78,70,,,,,1.13,0.59,0.97,2*0C
$GNGSA,A,3,12,13,24,25,26,35,,,,,,,1.13,0.59,0.97,4*07
$GPGSV,3,1,09,02,42,092,40,03,00,346,,06,24,046,27,12,64,077,50,1*65
$GPGSV,3,2,09,24,23,155,46,25,78,303,42,29,43,213,44,31,24,310,47,1*6F
$GPGSV,3,3,09,32,28,261,42,1*55
$GPGSV,3,1,09,02,42,092,,03,00,346,,06,24,046,25,12,64,077,44,6*61
$GPGSV,3,2,09,24,23,155,44,25,78,303,45,29,43,213,43,31,24,310,38,6*62
$GPGSV,3,3,09,32,28,261,41,6*51
$GLGSV,2,1,08,69,15,279,49,70,15,339,21,77,23,115,21,78,76,068,49,1*7A
$GLGSV,2,2,08,79,40,311,51,81,25,184,48,87,45,043,44,88,66,124,48,1*70
$GLGSV,2,1,08,69,15,279,42,70,15,339,,77,23,115,22,78,76,068,43,3*79
$GLGSV,2,2,08,79,40,311,43,81,25,184,42,87,45,043,,88,66,124,43,3*70
$GBGSV,3,1,10,02,04,106,,05,18,128,,10,04,083,25,12,37,191,45,1*75
$GBGSV,3,2,10,13,32,085,30,24,82,265,41,25,24,302,49,26,44,131,32,1*78
$GBGSV,3,3,10,29,03,039,14,35,47,062,37,1*75
$GBGSV,3,1,10,02,04,106,,05,18,128,,10,04,083,22,12,37,191,46,3*73
$GBGSV,3,2,10,13,32,085,27,24,82,265,,25,24,302,,26,44,131,,3*75
$GBGSV,3,3,10,29,03,039,,35,47,062,,3*76
$GNGLL,5025.4458563,N,01411.3798711,E,214318.00,A,A*72
$GNRMC,214319.00,A,5025.4458325,N,01411.3799230,E,0.011,,241021,,,A,V*17
$GNVTG,,T,,M,0.011,N,0.021,K,A*3E
$GNGGA,214319.00,5025.4458325,N,01411.3799230,E,1,12,0.59,220.141,M,44.078,M,,*41
$GNGSA,A,3,24,31,32,25,12,29,02,06,,,,,1.13,0.59,0.97,1*0E
$GNGSA,A,3,81,87,88,69,79,77,78,70,,,,,1.13,0.59,0.97,2*0C
$GNGSA,A,3,12,13,24,25,26,35,,,,,,,1.13,0.59,0.97,4*07
$GPGSV,3,1,09,02,42,092,40,03,00,346,,06,24,046,27,12,64,077,50,1*65
$GPGSV,3,2,09,24,23,155,46,25,78,303,42,29,43,213,44,31,24,310,48,1*60
$GPGSV,3,3,09,32,28,261,42,1*55
$GPGSV,3,1,09,02,42,092,,03,00,346,,06,24,046,25,12,64,077,44,6*61
$GPGSV,3,2,09,24,23,155,44,25,78,303,45,29,43,213,43,31,24,310,38,6*62
$GPGSV,3,3,09,32,28,261,41,6*51
$GLGSV,2,1,08,69,15,279,49,70,15,339,22,77,23,115,21,78,76,068,49,1*79
$GLGSV,2,2,08,79,40,311,51,81,25,184,48,87,45,043,44,88,66,124,48,1*70
$GLGSV,2,1,08,69,15,279,43,70,15,339,,77,23,115,22,78,76,068,43,3*78
$GLGSV,2,2,08,79,40,311,43,81,25,184,42,87,45,043,,88,66,124,43,3*70
$GBGSV,3,1,10,02,04,106,,05,18,128,,10,04,083,25,12,37,191,45,1*75
$GBGSV,3,2,10,13,32,085,30,24,82,265,41,25,24,302,49,26,44,131,31,1*7B
$GBGSV,3,3,10,29,03,039,13,35,47,062,38,1*7D
$GBGSV,3,1,10,02,04,106,,05,18,128,,10,04,083,21,12,37,191,46,3*70
$GBGSV,3,2,10,13,32,085,28,24,82,265,,25,24,302,,26,44,131,,3*7A
$GBGSV,3,3,10,29,03,039,,35,47,062,,3*76
$GNGLL,5025.4458325,N,01411.3799230,E,214319.00,A,A*70
$GNRMC,214320.00,A,5025.4458071,N,01411.3799843,E,0.012,,241021,,,A,V*12
$GNVTG,,T,,M,0.012,N,0.022,K,A*3E
$GNGGA,214320.00,5025.4458071,N,01411.3799843,E,1,12,0.59,220.095,M,44.078,M,,*4F
$GNGSA,A,3,24,31,32,25,12,29,02,06,,,,,1.13,0.59,0.97,1*0E
$GNGSA,A,3,81,87,88,69,79,77,78,70,,,,,1.13,0.59,0.97,2*0C
$GNGSA,A,3,12,13,24,25,26,35,,,,,,,1.13,0.59,0.97,4*07
$GPGSV,3,1,09,02,42,092,40,03,00,346,,06,24,046,27,12,64,077,50,1*65
$GPGSV,3,2,09,24,23,155,46,25,78,303,42,29,43,213,44,31,24,310,48,1*60
$GPGSV,3,3,09,32,28,261,42,1*55
$GPGSV,3,1,09,02,42,092,,03,00,346,,06,24,046,25,12,64,077,44,6*61
$GPGSV,3,2,09,24,23,155,44,25,78,303,45,29,43,213,43,31,24,310,38,6*62
$GPGSV,3,3,09,32,28,261,41,6*51
$GLGSV,2,1,08,69,15,279,49,70,15,339,22,77,23,115,19,78,76,068,49,1*72
$GLGSV,2,2,08,79,40,311,51,81,25,184,49,87,45,043,44,88,66,124,48,1*71
$GLGSV,2,1,08,69,15,279,43,70,15,339,,77,23,115,23,78,76,068,43,3*79
$GLGSV,2,2,08,79,40,311,43,81,25,184,42,87,45,043,,88,66,124,43,3*70
$GBGSV,3,1,10,02,04,106,,05,18,128,,10,04,083,25,12,37,191,45,1*75
$GBGSV,3,2,10,13,32,085,29,24,82,265,41,25,24,302,49,26,44,131,32,1*70
$GBGSV,3,3,10,29,03,039,12,35,47,062,38,1*7C
$GBGSV,3,1,10,02,04,106,,05,18,128,,10,04,083,22,12,37,191,46,3*73
$GBGSV,3,2,10,13,32,085,28,24,82,265,,25,24,302,,26,44,131,,3*7A
$GBGSV,3,3,10,29,03,039,,35,47,062,,3*76
$GNGLL,5025.4458071,N,01411.3799843,E,214320.00,A,A*76
$GNRMC,214321.00,A,5025.4457877,N,01411.3800421,E,0.013,,241021,,,A,V*14
$GNVTG,,T,,M,0.013,N,0.024,K,A*39
$GNGGA,214321.00,5025.4457877,N,01411.3800421,E,1,12,0.59,220.072,M,44.078,M,,*41
$GNGSA,A,3,24,31,32,25,12,29,02,06,,,,,1.13,0.59,0.97,1*0E
$GNGSA,A,3,81,87,88,69,79,77,78,70,,,,,1.13,0.59,0.97,2*0C
$GNGSA,A,3,12,13,24,25,26,35,,,,,,,1.13,0.59,0.97,4*07
$GPGSV,3,1,09,02,42,092,40,03,00,346,,06,24,046,27,12,64,077,50,1*65
$GPGSV,3,2,09,24,23,155,46,25,78,303,41,29,43,213,44,31,24,310,48,1*63
$GPGSV,3,3,09,32,28,261,42,1*55
$GPGSV,3,1,09,02,42,092,,03,00,346,,06,24,046,25,12,64,077,44,6*61
$GPGSV,3,2,09,24,23,155,44,25,78,303,45,29,43,213,43,31,24,310,38,6*62
$GPGSV,3,3,09,32,28,261,41,6*51
$GLGSV,2,1,08,69,15,279,49,70,15,339,22,77,23,115,19,78,76,068,49,1*72
$GLGSV,2,2,08,79,40,311,51,81,25,184,49,87,45,043,45,88,66,124,48,1*70
$GLGSV,2,1,08,69,15,279,42,70,15,339,,77,23,115,23,78,76,068,43,3*78
$GLGSV,2,2,08,79,40,311,43,81,25,184,42,87,45,043,,88,66,124,43,3*70
$GBGSV,3,1,10,02,04,106,,05,18,128,,10,04,083,25,12,37,191,45,1*75
$GBGSV,3,2,10,13,32,085,30,24,82,265,41,25,24,302,49,26,44,131,32,1*78
$GBGSV,3,3,10,29,03,039,14,35,47,062,38,1*7A
$GBGSV,3,1,10,02,04,106,,05,18,128,,10,04,083,22,12,37,191,46,3*73
$GBGSV,3,2,10,13,32,085,28,24,82,265,,25,24,302,,26,44,131,,3*7A
$GBGSV,3,3,10,29,03,039,,35,47,062,,3*76
$GNGLL,5025.4457877,N,01411.3800421,E,214321.00,A,A*71
$GNRMC,214322.00,A,5025.4457687,N,01411.3800945,E,0.016,,241021,,,A,V*1C
$GNVTG,,T,,M,0.016,N,0.030,K,A*39
$GNGGA,214322.00,5025.4457687,N,01411.3800945,E,1,12,0.59,220.040,M,44.078,M,,*4D
$GNGSA,A,3,24,31,32,25,12,29,02,06,,,,,1.13,0.59,0.97,1*0E
$GNGSA,A,3,81,87,88,69,79,77,78,70,,,,,1.13,0.59,0.97,2*0C
$GNGSA,A,3,12,13,24,25,26,35,,,,,,,1.13,0.59,0.97,4*07
$GPGSV,3,1,09,02,42,092,39,03,00,346,,06,24,046,27,12,64,077,50,1*6B
$GPGSV,3,2,09,24,23,155,46,25,78,303,42,29,43,213,43,31,24,310,47,1*68
$GPGSV,3,3,09,32,28,261,42,1*55
$GPGSV,3,1,09,02,42,092,,03,00,346,,06,24,046,25,12,64,077,44,6*61
$GPGSV,3,2,09,24,23,155,44,25,78,303,45,29,43,213,43,31,24,310,38,6*62
$GPGSV,3,3,09,32,28,261,41,6*51
$GLGSV,2,1,08,69,15,279,49,70,15,339,23,77,23,115,19,78,76,068,49,1*73
$GLGSV,2,2,08,79,40,311,51,81,25,184,49,87,45,043,45,88,66,124,48,1*70
$GLGSV,2,1,08,69,15,279,42,70,15,339,,77,23,115,23,78,76,068,43,3*78
$GLGSV,2,2,08,79,40,311,43,81,25,184,42,87,45,043,,88,66,124,43,3*70
$GBGSV,3,1,10,02,04,106,,05,18,128,,10,04,083,25,12,37,191,45,1*75
$GBGSV,3,2,10,13,32,085,30,24,82,265,41,25,24,302,49,26,44,131,32,1*78
$GBGSV,3,3,10,29,03,039,13,35,47,062,38,1*7D
$GBGSV,3,1,10,02,04,106,,05,18,128,,10,04,083,22,12,37,191,46,3*73
$GBGSV,3,2,10,13,32,085,28,24,82,265,,25,24,302,,26,44,131,,3*7A
$GBGSV,3,3,10,29,03,039,,35,47,062,,3*76
$GNGLL,5025.4457687,N,01411.3800945,E,214322.00,A,A*7C
$GNRMC,214323.00,A,5025.4457545,N,01411.3801437,E,0.004,,241021,,,A,V*1A
$GNVTG,,T,,M,0.004,N,0.007,K,A*3E
$GNGGA,214323.00,5025.4457545,N,01411.3801437,E,1,12,0.59,220.009,M,44.078,M,,*45
$GNGSA,A,3,24,31,32,25,12,29,02,06,,,,,1.13,0.59,0.97,1*0E
$GNGSA,A,3,81,87,88,69,79,77,78,70,,,,,1.13,0.59,0.97,2*0C
$GNGSA,A,3,12,13,24,25,26,35,,,,,,,1.13,0.59,0.97,4*07
$GPGSV,3,1,09,02,42,092,39,03,00,346,,06,24,046,,12,64,077,50,1*6E
$GPGSV,3,2,09,24,23,155,46,25,78,303,42,29,43,213,43,31,24,310,47,1*68
$GPGSV,3,3,09,32,28,261,42,1*55
$GPGSV,3,1,09,02,42,092,,03,00,346,,06,24,046,25,12,64,077,44,6*61
$GPGSV,3,2,09,24,23,155,44,25,78,303,45,29,43,213,43,31,24,310,38,6*62
$GPGSV,3,3,09,32,28,261,41,6*51
$GLGSV,2,1,08,69,15,279,49,70,15,339,23,77,23,115,19,78,76,068,49,1*73
$GLGSV,2,2,08,79,40,311,50,81,25,184,49,87,45,043,45,88,66,124,47,1*7E
$GLGSV,2,1,08,69,15,279,42,70,15,339,,77,23,115,23,78,76,068,43,3*78
$GLGSV,2,2,08,79,40,311,43,81,25,184,42,87,45,043,,88,66,124,43,3*70
$GBGSV,3,1,10,02,04,106,,05,18,128,,10,04,083,26,12,37,191,45,1*76
$GBGSV,3,2,10,13,32,085,30,24,82,265,41,25,24,302,49,26,44,131,32,1*78
$GBGSV,3,3,10,29,03,039,16,35,47,062,38,1*78
$GBGSV,3,1,10,02,04,106,,05,18,128,,10,04,083,23,12,37,191,47,3*73
$GBGSV,3,2,10,13,32,085,28,24,82,265,,25,24,302,,26,44,131,,3*7A
$GBGSV,3,3,10,29,03,039,,35,47,062,,3*76
$GNGLL,5025.4457545,N,01411.3801437,E,214323.00,A,A*79
$GNRMC,214324.00,A,5025.4457349,N,01411.3801550,E,0.011,,241021,,,A,V*13
$GNVTG,,T,,M,0.011,N,0.021,K,A*3E
$GNGGA,214324.00,5025.4457349,N,01411.3801550,E,1,12,0.59,219.994,M,44.078,M,,*4F
$GNGSA,A,3,24,31,32,25,12,29,02,06,,,,,1.13,0.59,0.97,1*0E
$GNGSA,A,3,81,87,88,69,79,77,78,70,,,,,1.13,0.59,0.97,2*0C
$GNGSA,A,3,12,13,24,25,26,35,,,,,,,1.13,0.59,0.97,4*07
$GPGSV,3,1,09,02,42,092,39,03,00,346,,06,24,046,27,12,64,077,50,1*6B
$GPGSV,3,2,09,24,23,155,46,25,78,303,42,29,43,213,43,31,24,310,47,1*68
$GPGSV,3,3,09,32,28,261,42,1*55
$GPGSV,3,1,09,02,42,092,,03,00,346,,06,24,046,25,12,64,077,44,6*61
$GPGSV,3,2,09,24,23,155,44,25,78,303,46,29,43,213,44,31,24,310,38,6*66
$GPGSV,3,3,09,32,28,261,41,6*51
$GLGSV,2,1,08,69,15,279,49,70,15,339,24,77,23,115,20,78,76,068,49,1*7E
$GLGSV,2,2,08,79,40,311,50,81,25,184,49,87,45,043,45,88,66,124,47,1*7E
$GLGSV,2,1,08,69,15,279,42,70,15,339,,77,23,115,23,78,76,068,43,3*78
$GLGSV,2,2,08,79,40,311,43,81,25,184,42,87,45,043,,88,66,124,43,3*70
$GBGSV,3,1,10,02,04,106,,05,18,128,,10,04,083,26,12,37,191,45,1*76
$GBGSV,3,2,10,13,32,085,30,24,82,265,41,25,24,302,49,26,44,131,32,1*78
$GBGSV,3,3,10,29,03,039,16,35,47,062,38,1*78
$GBGSV,3,1,10,02,04,106,,05,18,128,,10,04,083,23,12,37,191,47,3*73
$GBGSV,3,2,10,13,32,085,28,24,82,265,,25,24,302,,26,44,131,,3*7A
$GBGSV,3,3,10,29,03,039,,35,47,062,,3*76
$GNGLL,5025.4457349,N,01411.3801550,E,214324.00,A,A*74
$GNRMC,214325.00,A,5025.4457298,N,01411.3802300,E,0.021,,241021,,,A,V*1C
$GNVTG,,T,,M,0.021,N,0.039,K,A*34
$GNGGA,214325.00,5025.4457298,N,01411.3802300,E,1,12,0.59,219.877,M,44.078,M,,*4F
$GNGSA,A,3,24,31,32,25,12,29,02,06,,,,,1.13,0.59,0.97,1*0E
$GNGSA,A,3,81,87,88,69,79,77,78,70,,,,,1.13,0.59,0.97,2*0C
$GNGSA,A,3,12,13,24,25,26,35,,,,,,,1.13,0.59,0.97,4*07
$GPGSV,3,1,09,02,42,092,38,03,00,346,,06,24,046,,12,64,077,50,1*6F
$GPGSV,3,2,09,24,23,155,46,25,78,303,42,29,43,213,43,31,24,310,47,1*68
$GPGSV,3,3,09,32,28,261,42,1*55
$GPGSV,3,1,09,02,42,092,,03,00,346,,06,24,046,25,12,64,077,44,6*61
$GPGSV,3,2,09,24,23,155,44,25,78,303,46,29,43,213,44,31,24,310,38,6*66
$GPGSV,3,3,09,32,28,261,41,6*51
$GLGSV,2,1,08,69,15,279,49,70,15,339,24,77,23,115,21,78,76,068,49,1*7F
$GLGSV,2,2,08,79,40,311,50,81,25,184,49,87,45,043,45,88,66,124,47,1*7E
$GLGSV,2,1,08,69,15,279,42,70,15,339,,77,23,115,23,78,76,068,43,3*78
$GLGSV,2,2,08,79,40,311,43,81,25,184,43,87,45,043,,88,66,124,43,3*71
$GBGSV,3,1,10,02,04,106,,05,18,128,,10,04,083,26,12,37,191,45,1*76
$GBGSV,3,2,10,13,32,085,30,24,82,265,41,25,24,302,49,26,44,131,32,1*78
$GBGSV,3,3,10,29,03,039,16,35,47,062,38,1*78
$GBGSV,3,1,10,02,04,106,,05,18,128,,10,04,083,23,12,37,191,47,3*73
$GBGSV,3,2,10,13,32,085,28,24,82,265,,25,24,302,,26,44,131,,3*7A
$GBGSV,3,3,10,29,03,039,,35,47,062,,3*76
$GNGLL,5025.4457298,N,01411.3802300,E,214325.00,A,A*78
$GNRMC,214326.00,A,5025.4457219,N,01411.3802840,E,0.007,,241021,,,A,V*1D
$GNVTG,,T,,M,0.007,N,0.013,K,A*38
$GNGGA,214326.00,5025.4457219,N,01411.3802840,E,1,12,0.59,219.789,M,44.078,M,,*44
$GNGSA,A,3,24,31,32,25,12,29,02,06,,,,,1.13,0.59,0.97,1*0E
$GNGSA,A,3,81,87,88,69,79,77,78,70,,,,,1.13,0.59,0.97,2*0C
$GNGSA,A,3,12,13,24,25,26,35,,,,,,,1.13,0.59,0.97,4*07
$GPGSV,3,1,09,02,42,092,38,03,00,346,,06,24,046,27,12,64,077,50,1*6A
$GPGSV,3,2,09,24,23,155,46,25,78,303,42,29,43,213,43,31,24,310,48,1*67
$GPGSV,3,3,09,32,28,261,43,1*54
$GPGSV,3,1,09,02,42,092,,03,00,346,,06,24,046,25,12,64,077,44,6*61
$GPGSV,3,2,09,24,23,155,44,25,78,303,46,29,43,213,44,31,24,310,38,6*66
$GPGSV,3,3,09,32,28,261,41,6*51
$GLGSV,2,1,08,69,15,279,49,70,15,339,24,77,23,115,22,78,76,068,49,1*7C
$GLGSV,2,2,08,79,40,311,50,81,25,184,49,87,45,043,45,88,66,124,47,1*7E
$GLGSV,2,1,08,69,15,279,42,70,15,339,,77,23,115,23,78,76,068,43,3*78
$GLGSV,2,2,08,79,40,311,43,81,25,184,43,87,45,043,,88,66,124,43,3*71
$GBGSV,3,1,10,02,04,106,,05,18,128,,10,04,083,26,12,37,191,45,1*76
$GBGSV,3,2,10,13,32,085,30,24,82,265,41,25,24,302,49,26,44,131,32,1*78
$GBGSV,3,3,10,29,03,039,16,35,47,062,38,1*78
$GBGSV,3,1,10,02,04,106,,05,18,128,,10,04,083,23,12,37,191,47,3*73
$GBGSV,3,2,10,13,32,085,28,24,82,265,,25,24,302,,26,44,131,,3*7A
$GBGSV,3,3,10,29,03,039,,35,47,062,,3*76
$GNGLL,5025.4457219,N,01411.3802840,E,214326.00,A,A*7D
$GNRMC,214327.00,A,5025.4457143,N,01411.3803309,E,0.005,,241021,,,A,V*15
$GNVTG,,T,,M,0.005,N,0.010,K,A*39
$GNGGA,214327.00,5025.4457143,N,01411.3803309,E,1,12,0.59,219.720,M,44.078,M,,*4D
$GNGSA,A,3,24,31,32,25,12,29,02,06,,,,,1.13,0.59,0.97,1*0E
$GNGSA,A,3,81,87,88,69,79,77,78,70,,,,,1.13,0.59,0.97,2*0C
$GNGSA,A,3,12,13,24,25,26,35,,,,,,,1.13,0.59,0.97,4*07
$GPGSV,3,1,09,02,42,092,38,03,00,346,,06,24,046,28,12,64,077,50,1*65
$GPGSV,3,2,09,24,23,155,46,25,78,303,42,29,43,213,43,31,24,310,47,1*68
$GPGSV,3,3,09,32,28,261,43,1*54
$GPGSV,3,1,09,02,42,092,,03,00,346,,06,24,046,25,12,64,077,44,6*61
$GPGSV,3,2,09,24,23,155,44,25,78,303,46,29,43,213,44,31,24,310,38,6*66
$GPGSV,3,3,09,32,28,261,41,6*51
$GLGSV,2,1,08,69,15,279,49,70,15,339,23,77,23,115,23,78,76,068,49,1*7A
$GLGSV,2,2,08,79,40,311,50,81,25,184,49,87,45,043,44,88,66,124,47,1*7F
$GLGSV,2,1,08,69,15,279,42,70,15,339,,77,23,115,23,78,76,068,43,3*78
$GLGSV,2,2,08,79,40,311,43,81,25,184,43,87,45,043,,88,66,124,44,3*76
$GBGSV,3,1,10,02,04,106,,05,18,128,,10,04,083,26,12,37,191,45,1*76
$GBGSV,3,2,10,13,32,085,30,24,82,265,41,25,24,302,49,26,44,131,32,1*78
$GBGSV,3,3,10,29,03,039,15,35,47,062,38,1*7B
$GBGSV,3,1,10,02,04,106,,05,18,128,,10,04,083,23,12,37,191,47,3*73
$GBGSV,3,2,10,13,32,085,28,24,82,265,,25,24,302,,26,44,131,,3*7A
$GBGSV,3,3,10,29,03,039,,35,47,062,,3*76
$GNGLL,5025.4457143,N,01411.3803309,E,214327.00,A,A*77
$GNRMC,214328.00,A,5025.4457053,N,01411.3803697,E,0.011,,241021,,,A,V*1D
$GNVTG,,T,,M,0.011,N,0.021,K,A*3E
$GNGGA,214328.00,5025.4457053,N,01411.3803697,E,1,12,0.59,219.673,M,44.078,M,,*47
$GNGSA,A,3,24,31,32,25,12,29,02,06,,,,,1.13,0.59,0.97,1*0E
$GNGSA,A,3,81,87,88,69,79,77,78,70,,,,,1.13,0.59,0.97,2*0C
$GNGSA,A,3,12,13,24,25,26,35,,,,,,,1.13,0.59,0.97,4*07
$GPGSV,3,1,09,02,42,092,38,03,00,346,,06,24,046,28,12,64,077,50,1*65
$GPGSV,3,2,09,24,23,155,46,25,78,303,42,29,43,213,42,31,24,310,48,1*66
$GPGSV,3,3,09,32,28,261,43,1*54
$GPGSV,3,1,09,02,42,092,,03,00,346,,06,24,046,25,12,64,077,44,6*61
$GPGSV,3,2,09,24,23,155,44,25,78,303,46,29,43,213,44,31,24,310,38,6*66
$GPGSV,3,3,09,32,28,261,41,6*51
$GLGSV,2,1,08,69,15,279,48,70,15,339,23,77,23,115,23,78,76,068,49,1*7B
$GLGSV,2,2,08,79,40,311,50,81,25,184,49,87,45,043,44,88,66,124,47,1*7F
$GLGSV,2,1,08,69,15,279,43,70,15,339,,77,23,115,23,78,76,068,43,3*79
$GLGSV,2,2,08,79,40,311,43,81,25,184,43,87,45,043,,88,66,124,43,3*71
$GBGSV,3,1,10,02,04,106,,05,18,128,,10,04,083,26,12,37,191,45,1*76
$GBGSV,3,2,10,13,32,085,30,24,82,265,41,25,24,302,49,26,44,131,33,1*79
$GBGSV,3,3,10,29,03,039,16,35,47,062,38,1*78
$GBGSV,3,1,10,02,04,106,,05,18,128,,10,04,083,22,12,37,191,47,3*72
$GBGSV,3,2,10,13,32,085,28,24,82,265,,25,24,302,,26,44,131,,3*7A
$GBGSV,3,3,10,29,03,039,,35,47,062,,3*76
$GNGLL,5025.4457053,N,01411.3803697,E,214328.00,A,A*7A
$GNRMC,214329.00,A,5025.4456952,N,01411.3803988,E,0.009,,241021,,,A,V*1D
$GNVTG,,T,,M,0.009,N,0.017,K,A*32
$GNGGA,214329.00,5025.4456952,N,01411.3803988,E,1,12,0.59,219.653,M,44.078,M,,*4C
$GNGSA,A,3,24,31,32,25,12,29,02,06,,,,,1.13,0.59,0.97,1*0E
$GNGSA,A,3,81,87,88,69,79,77,78,70,,,,,1.13,0.59,0.97,2*0C
$GNGSA,A,3,12,13,24,25,26,35,,,,,,,1.13,0.59,0.97,4*07
$GPGSV,3,1,09,02,42,092,38,03,00,346,,06,24,046,29,12,64,077,50,1*64
$GPGSV,3,2,09,24,23,155,46,25,78,303,42,29,43,213,42,31,24,310,48,1*66
$GPGSV,3,3,09,32,28,261,43,1*54
$GPGSV,3,1,09,02,42,092,,03,00,346,,06,24,046,25,12,64,077,44,6*61
$GPGSV,3,2,09,24,23,155,44,25,78,303,46,29,43,213,44,31,24,310,38,6*66
$GPGSV,3,3,09,32,28,261,41,6*51
$GLGSV,2,1,08,69,15,279,48,70,15,339,22,77,23,115,24,78,76,068,49,1*7D
$GLGSV,2,2,08,79,40,311,50,81,25,184,49,87,45,043,45,88,66,124,47,1*7E
$GLGSV,2,1,08,69,15,279,43,70,15,339,,77,23,115,23,78,76,068,43,3*79
$GLGSV,2,2,08,79,40,311,43,81,25,184,43,87,45,043,,88,66,124,43,3*71
$GBGSV,3,1,10,02,04,106,,05,18,128,,10,04,083,26,12,37,191,45,1*76
$GBGSV,3,2,10,13,32,085,30,24,82,265,41,25,24,302,49,26,44,131,32,1*78
$GBGSV,3,3,10,29,03,039,16,35,47,062,38,1*78
$GBGSV,3,1,10,02,04,106,,05,18,128,,10,04,083,22,12,37,191,47,3*72
$GBGSV,3,2,10,13,32,085,28,24,82,265,,25,24,302,,26,44,131,,3*7A
$GBGSV,3,3,10,29,03,039,,35,47,062,,3*76
$GNGLL,5025.4456952,N,01411.3803988,E,214329.00,A,A*73
$GNRMC,214330.00,A,5025.4456908,N,01411.3804318,E,0.015,,241021,,,A,V*13
$GNVTG,,T,,M,0.015,N,0.027,K,A*3C
$GNGGA,214330.00,5025.4456908,N,01411.3804318,E,1,12,0.59,219.632,M,44.078,M,,*48
$GNGSA,A,3,24,31,32,25,12,29,02,06,,,,,1.13,0.59,0.97,1*0E
$GNGSA,A,3,81,87,88,69,79,77,78,70,,,,,1.13,0.59,0.97,2*0C
$GNGSA,A,3,12,13,24,25,26,35,,,,,,,1.13,0.59,0.97,4*07
$GPGSV,3,1,09,02,42,092,38,03,00,346,,06,24,046,29,12,64,077,50,1*64
$GPGSV,3,2,09,24,23,155,46,25,78,303,42,29,43,213,42,31,24,310,48,1*66
$GPGSV,3,3,09,32,28,261,43,1*54
$GPGSV,3,1,09,02,42,092,,03,00,346,,06,24,046,25,12,64,077,44,6*61
$GPGSV,3,2,09,24,23,155,44,25,78,303,46,29,43,213,44,31,24,310,38,6*66
$GPGSV,3,3,09,32,28,261,41,6*51
$GLGSV,2,1,08,69,15,279,48,70,15,339,22,77,23,115,25,78,76,068,49,1*7C
$GLGSV,2,2,08,79,40,311,50,81,25,184,49,87,45,043,45,88,66,124,47,1*7E
$GLGSV,2,1,08,69,15,279,43,70,15,339,,77,23,115,23,78,76,068,43,3*79
$GLGSV,2,2,08,79,40,311,43,81,25,184,43,87,45,043,,88,66,124,43,3*71
$GBGSV,3,1,10,02,04,106,,05,18,128,,10,04,083,26,12,37,191,45,1*76
$GBGSV,3,2,10,13,32,085,31,24,82,265,41,25,24,302,49,26,44,131,32,1*79
$GBGSV,3,3,10,29,03,039,17,35,47,062,38,1*79
$GBGSV,3,1,10,02,04,106,,05,18,128,,10,04,083,22,12,37,191,47,3*72
$GBGSV,3,2,10,13,32,085,28,24,82,265,,25,24,302,,26,44,131,,3*7A
$GBGSV,3,3,10,29,03,039,,35,47,062,,3*76
$GNGLL,5025.4456908,N,01411.3804318,E,214330.00,A,A*70
$GNRMC,214331.00,A,5025.4456965,N,01411.3804898,E,0.015,,241021,,,A,V*1A
$GNVTG,,T,,M,0.015,N,0.027,K,A*3C
$GNGGA,214331.00,5025.4456965,N,01411.3804898,E,1,12,0.59,219.572,M,44.078,M,,*46
$GNGSA,A,3,24,31,32,25,12,29,02,06,,,,,1.13,0.59,0.97,1*0E
$GNGSA,A,3,81,87,88,69,79,77,78,70,,,,,1.13,0.59,0.97,2*0C
$GNGSA,A,3,12,13,24,25,26,35,,,,,,,1.13,0.59,0.97,4*07
$GPGSV,3,1,09,02,42,092,37,03,00,346,,06,24,046,29,12,64,077,50,1*6B
$GPGSV,3,2,09,24,23,155,46,25,78,303,42,29,43,213,42,31,24,310,48,1*66
$GPGSV,3,3,09,32,28,261,44,1*53
$GPGSV,3,1,09,02,42,092,,03,00,346,,06,24,046,25,12,64,077,44,6*61
$GPGSV,3,2,09,24,23,155,44,25,78,303,46,29,43,213,44,31,24,310,39,6*67
$GPGSV,3,3,09,32,28,261,41,6*51
$GLGSV,2,1,08,69,15,279,48,70,15,339,22,77,23,115,25,78,76,068,49,1*7C
$GLGSV,2,2,08,79,40,311,50,81,25,184,49,87,45,043,45,88,66,124,47,1*7E
$GLGSV,2,1,08,69,15,279,43,70,15,339,,77,23,115,22,78,76,068,43,3*78
$GLGSV,2,2,08,79,40,311,42,81,25,184,43,87,45,043,,88,66,124,43,3*70
$GBGSV,3,1,10,02,04,106,,05,18,128,,10,04,083,26,12,37,191,45,1*76
$GBGSV,3,2,10,13,32,085,31,24,82,265,41,25,24,302,49,26,44,131,32,1*79
$GBGSV,3,3,10,29,03,039,17,35,47,062,38,1*79
$GBGSV,3,1,10,02,04,106,,05,18,128,,10,04,083,22,12,37,191,47,3*72
$GBGSV,3,2,10,13,32,085,28,24,82,265,,25,24,302,,26,44,131,,3*7A
$GBGSV,3,3,10,29,03,039,,35,47,062,,3*76
$GNGLL,5025.4456965,N,01411.3804898,E,214331.00,A,A*79
$GNRMC,214332.00,A,5025.4457024,N,01411.3805382,E,0.006,,241021,,,A,V*17
$GNVTG,,T,,M,0.006,N,0.012,K,A*38
$GNGGA,214332.00,5025.4457024,N,01411.3805382,E,1,12,0.59,219.523,M,44.078,M,,*4D
$GNGSA,A,3,24,31,32,25,12,29,02,06,,,,,1.13,0.59,0.97,1*0E
$GNGSA,A,3,81,87,88,69,79,77,78,70,,,,,1.13,0.59,0.97,2*0C
$GNGSA,A,3,12,13,24,25,26,35,,,,,,,1.13,0.59,0.97,4*07
$GPGSV,3,1,09,02,42,092,37,03,00,346,,06,24,046,29,12,64,077,50,1*6B
$GPGSV,3,2,09,24,23,155,46,25,78,303,42,29,43,213,42,31,24,310,48,1*66
$GPGSV,3,3,09,32,28,261,44,1*53
$GPGSV,3,1,09,02,42,092,,03,00,346,,06,24,046,25,12,64,077,44,6*61
$GPGSV,3,2,09,24,23,155,44,25,78,303,46,29,43,213,44,31,24,310,39,6*67
$GPGSV,3,3,09,32,28,261,41,6*51
$GLGSV,2,1,08,69,15,279,48,70,15,339,22,77,23,115,25,78,76,068,49,1*7C
$GLGSV,2,2,08,79,40,311,50,81,25,184,49,87,45,043,45,88,66,124,47,1*7E
$GLGSV,2,1,08,69,15,279,42,70,15,339,,77,23,115,21,78,76,068,43,3*7A
$GLGSV,2,2,08,79,40,311,42,81,25,184,43,87,45,043,,88,66,124,43,3*70
$GBGSV,3,1,10,02,04,106,,05,18,128,,10,04,083,25,12,37,191,45,1*75
$GBGSV,3,2,10,13,32,085,31,24,82,265,41,25,24,302,49,26,44,131,32,1*79
$GBGSV,3,3,10,29,03,039,18,35,47,062,38,1*76
$GBGSV,3,1,10,02,04,106,,05,18,128,,10,04,083,22,12,37,191,47,3*72
$GBGSV,3,2,10,13,32,085,28,24,82,265,,25,24,302,,26,44,131,,3*7A
$GBGSV,3,3,10,29,03,039,,35,47,062,,3*76
$GNGLL,5025.4457024,N,01411.3805382,E,214332.00,A,A*76
$GNRMC,214333.00,A,5025.4457076,N,01411.3805841,E,0.006,,241021,,,A,V*15
$GNVTG,,T,,M,0.006,N,0.010,K,A*3A
$GNGGA,214333.00,5025.4457076,N,01411.3805841,E,1,12,0.59,219.478,M,44.078,M,,*40
$GNGSA,A,3,24,31,32,25,12,29,02,06,,,,,1.13,0.59,0.97,1*0E
$GNGSA,A,3,81,87,88,69,79,77,78,70,,,,,1.13,0.59,0.97,2*0C
$GNGSA,A,3,12,13,24,25,26,35,,,,,,,1.13,0.59,0.97,4*07
$GPGSV,3,1,09,02,42,092,37,03,00,346,,06,24,046,29,12,64,077,50,1*6B
$GPGSV,3,2,09,24,23,155,46,25,78,303,42,29,44,213,42,31,24,310,48,1*61
$GPGSV,3,3,09,32,28,261,44,1*53
$GPGSV,3,1,09,02,42,092,,03,00,346,,06,24,046,24,12,64,077,44,6*60
$GPGSV,3,2,09,24,23,155,44,25,78,303,46,29,44,213,44,31,24,310,39,6*60
$GPGSV,3,3,09,32,28,261,41,6*51
$GLGSV,2,1,08,69,15,279,48,70,15,339,22,77,23,115,24,78,76,068,49,1*7D
$GLGSV,2,2,08,79,40,311,50,81,25,184,49,87,45,043,45,88,66,124,47,1*7E
$GLGSV,2,1,08,69,15,279,42,70,15,339,,77,23,115,21,78,76,068,43,3*7A
$GLGSV,2,2,08,79,40,311,43,81,25,184,43,87,45,043,,88,66,124,43,3*71
$GBGSV,3,1,10,02,04,106,,05,18,128,,10,04,083,26,12,37,191,45,1*76
$GBGSV,3,2,10,13,32,085,31,24,82,265,41,25,24,302,49,26,44,131,32,1*79
$GBGSV,3,3,10,29,03,039,19,35,47,062,38,1*77
$GBGSV,3,1,10,02,04,106,,05,18,128,,10,04,083,22,12,37,191,47,3*72
$GBGSV,3,2,10,13,32,085,28,24,82,265,,25,24,302,,26,44,131,,3*7A
$GBGSV,3,3,10,29,03,039,,35,47,062,,3*76
$GNGLL,5025.4457076,N,01411.3805841,E,214333.00,A,A*74
$GNRMC,214334.00,A,5025.4457189,N,01411.3806404,E,0.006,,241021,,,A,V*1D
$GNVTG,,T,,M,0.006,N,0.011,K,A*3B
$GNGGA,214334.00,5025.4457189,N,01411.3806404,E,1,12,0.59,219.420,M,44.078,M,,*45
$GNGSA,A,3,24,31,32,25,12,29,02,06,,,,,1.13,0.59,0.97,1*0E
$GNGSA,A,3,81,87,88,69,79,77,78,70,,,,,1.13,0.59,0.97,2*0C
$GNGSA,A,3,12,13,24,25,26,35,,,,,,,1.13,0.59,0.97,4*07
$GPGSV,3,1,09,02,42,092,37,03,00,346,,06,24,046,29,12,64,077,50,1*6B
$GPGSV,3,2,09,24,23,155,46,25,78,303,42,29,44,213,42,31,24,310,48,1*61
$GPGSV,3,3,09,32,28,261,44,1*53
$GPGSV,3,1,09,02,42,092,,03,00,346,,06,24,046,23,12,64,077,44,6*67
$GPGSV,3,2,09,24,23,155,44,25,78,303,46,29,44,213,44,31,24,310,39,6*60
$GPGSV,3,3,09,32,28,261,41,6*51
$GLGSV,2,1,08,69,15,279,48,70,15,339,23,77,23,115,24,78,76,068,49,1*7C
$GLGSV,2,2,08,79,40,311,50,81,25,184,49,87,45,043,45,88,66,124,47,1*7E
$GLGSV,2,1,08,69,15,279,42,70,15,339,,77,23,115,21,78,76,068,43,3*7A
$GLGSV,2,2,08,79,40,311,43,81,25,184,43,87,45,043,,88,66,124,43,3*71
$GBGSV,3,1,10,02,04,106,,05,18,128,,10,04,083,25,12,37,191,45,1*75
$GBGSV,3,2,10,13,32,085,31,24,82,265,41,25,24,302,49,26,44,131,32,1*79
$GBGSV,3,3,10,29,03,039,19,35,47,062,39,1*76
$GBGSV,3,1,10,02,04,106,,05,18,128,,10,04,083,21,12,37,191,47,3*71
$GBGSV,3,2,10,13,32,085,28,24,82,265,,25,24,302,,26,44,131,,3*7A
$GBGSV,3,3,10,29,03,039,,35,47,062,,3*76
$GNGLL,5025.4457189,N,01411.3806404,E,214334.00,A,A*7C
$GNRMC,214335.00,A,5025.4457324,N,01411.3807040,E,0.004,,241021,,,A,V*1E
$GNVTG,,T,,M,0.004,N,0.007,K,A*3E
$GNGGA,214335.00,5025.4457324,N,01411.3807040,E,1,12,0.59,219.348,M,44.078,M,,*4D
$GNGSA,A,3,24,31,32,25,12,29,02,06,,,,,1.13,0.59,0.97,1*0E
$GNGSA,A,3,81,87,88,69,79,77,78,70,,,,,1.13,0.59,0.97,2*0C
$GNGSA,A,3,12,13,24,25,26,35,,,,,,,1.13,0.59,0.97,4*07
$GPGSV,3,1,09,02,42,092,36,03,00,346,,06,24,046,29,12,64,077,50,1*6A
$GPGSV,3,2,09,24,23,155,46,25,78,303,41,29,44,213,42,31,24,310,48,1*62
$GPGSV,3,3,09,32,28,261,44,1*53
$GPGSV,3,1,09,02,42,092,,03,00,346,,06,24,046,23,12,64,077,44,6*67
$GPGSV,3,2,09,24,23,155,44,25,78,303,46,29,44,213,44,31,24,310,39,6*60
$GPGSV,3,3,09,32,28,261,42,6*52
$GLGSV,2,1,08,69,15,279,48,70,15,339,23,77,23,115,24,78,76,068,49,1*7C
$GLGSV,2,2,08,79,40,311,50,81,25,184,49,87,45,043,45,88,66,124,47,1*7E
$GLGSV,2,1,08,69,15,279,43,70,15,339,,77,23,115,21,78,76,068,43,3*7B
$GLGSV,2,2,08,79,40,311,43,81,25,184,44,87,45,043,,88,66,124,43,3*76
$GBGSV,3,1,10,02,04,106,,05,18,128,,10,04,083,25,12,37,191,45,1*75
$GBGSV,3,2,10,13,32,085,31,24,82,265,41,25,24,302,49,26,44,131,32,1*79
$GBGSV,3,3,10,29,03,039,21,35,47,062,39,1*7D
$GBGSV,3,1,10,02,04,106,,05,18,128,,10,04,083,21,12,37,191,47,3*71
$GBGSV,3,2,10,13,32,085,28,24,82,265,,25,24,302,,26,44,131,,3*7A
$GBGSV,3,3,10,29,03,039,,35,47,062,,3*76
$GNGLL,5025.4457324,N,01411.3807040,E,214335.00,A,A*7D
$GNRMC,214336.00,A,5025.4457471,N,01411.3807632,E,0.014,,241021,,,A,V*18
$GNVTG,,T,,M,0.014,N,0.025,K,A*3F
$GNGGA,214336.00,5025.4457471,N,01411.3807632,E,1,12,0.59,219.285,M,44.078,M,,*4A
$GNGSA,A,3,24,31,32,25,12,29,02,06,,,,,1.13,0.59,0.97,1*0E
$GNGSA,A,3,81,87,88,69,79,77,78,70,,,,,1.13,0.59,0.97,2*0C
$GNGSA,A,3,12,13,24,25,26,35,,,,,,,1.13,0.59,0.97,4*07
$GPGSV,3,1,09,02,42,092,36,03,00,346,,06,24,046,29,12,64,077,50,1*6A
$GPGSV,3,2,09,24,23,155,46,25,78,303,42,29,44,213,42,31,24,310,48,1*61
$GPGSV,3,3,09,32,28,261,44,1*53
$GPGSV,3,1,09,02,42,092,,03,00,346,,06,24,046,22,12,64,077,44,6*66
$GPGSV,3,2,09,24,23,155,44,25,78,303,46,29,44,213,44,31,24,310,39,6*60
$GPGSV,3,3,09,32,28,261,42,6*52
$GLGSV,2,1,08,69,15,279,48,70,15,339,23,77,23,115,24,78,76,068,49,1*7C
$GLGSV,2,2,08,79,40,311,50,81,25,184,49,87,45,043,45,88,66,124,47,1*7E
$GLGSV,2,1,08,69,15,279,43,70,15,339,,77,23,115,19,78,76,068,42,3*71
$GLGSV,2,2,08,79,40,311,43,81,25,184,44,87,45,043,,88,66,124,44,3*71
$GBGSV,3,1,10,02,04,106,,05,18,128,,10,04,083,25,12,37,191,45,1*75
$GBGSV,3,2,10,13,32,085,31,24,82,265,41,25,24,302,49,26,44,131,31,1*7A
$GBGSV,3,3,10,29,03,039,21,35,47,062,39,1*7D
$GBGSV,3,1,10,02,04,106,,05,18,128,,10,04,083,20,12,37,191,48,3*7F
$GBGSV,3,2,10,13,32,085,28,24,82,265,,25,24,302,,26,44,131,,3*7A
$GBGSV,3,3,10,29,03,039,,35,47,062,,3*76
$GNGLL,5025.4457471,N,01411.3807632,E,214336.00,A,A*7A
$GNRMC,214337.00,A,5025.4457607,N,01411.3808213,E,0.011,,241021,,,A,V*17
$GNVTG,,T,,M,0.011,N,0.020,K,A*3F
$GNGGA,214337.00,5025.4457607,N,01411.3808213,E,1,12,0.59,219.231,M,44.078,M,,*4F
$GNGSA,A,3,24,31,32,25,12,29,02,06,,,,,1.13,0.59,0.97,1*0E
$GNGSA,A,3,81,87,88,69,79,77,78,70,,,,,1.13,0.59,0.97,2*0C
$GNGSA,A,3,12,13,24,25,26,35,,,,,,,1.13,0.59,0.97,4*07
$GPGSV,3,1,09,02,42,092,35,03,00,346,,06,24,046,29,12,64,077,50,1*69
$GPGSV,3,2,09,24,23,155,46,25,78,303,42,29,44,213,42,31,24,310,48,1*61
$GPGSV,3,3,09,32,28,261,44,1*53
$GPGSV,3,1,09,02,42,092,,03,00,346,,06,24,046,22,12,64,077,43,6*61
$GPGSV,3,2,09,24,23,155,44,25,78,303,46,29,44,213,44,31,24,310,39,6*60
$GPGSV,3,3,09,32,28,261,42,6*52
$GLGSV,2,1,08,69,15,279,48,70,15,339,22,77,23,115,25,78,76,068,49,1*7C
$GLGSV,2,2,08,79,40,311,50,81,25,184,49,87,45,043,45,88,66,124,47,1*7E
$GLGSV,2,1,08,69,15,279,43,70,15,339,,77,23,115,19,78,76,068,42,3*71
$GLGSV,2,2,08,79,40,311,43,81,25,184,44,87,45,043,,88,66,124,44,3*71
$GBGSV,3,1,10,02,04,106,,05,18,128,,10,04,083,25,12,37,191,45,1*75
$GBGSV,3,2,10,13,32,085,31,24,82,265,41,25,24,302,49,26,44,131,31,1*7A
$GBGSV,3,3,10,29,03,039,21,35,47,062,39,1*7D
$GBGSV,3,1,10,02,04,106,,05,18,128,,10,04,083,21,12,37,191,48,3*7E
$GBGSV,3,2,10,13,32,085,28,24,82,265,,25,24,302,,26,44,131,,3*7A
$GBGSV,3,3,10,29,03,039,,35,47,062,,3*76
$GNGLL,5025.4457607,N,01411.3808213,E,214337.00,A,A*70
$GNRMC,214338.00,A,5025.4456789,N,01411.3808648,E,0.046,,241021,,,D,V*13
$GNVTG,,T,,M,0.046,N,0.085,K,D*37
$GNGGA,214338.00,5025.4456789,N,01411.3808648,E,2,12,0.64,219.164,M,44.078,M,1.0,0084*61
$GNGSA,A,3,24,31,32,25,12,29,02,06,,,,,1.26,0.64,1.08,1*01
$GNGSA,A,3,81,87,88,69,79,77,78,70,,,,,1.26,0.64,1.08,2*03
$GNGSA,A,3,12,13,24,25,26,35,,,,,,,1.26,0.64,1.08,4*08
$GPGSV,3,1,09,02,42,092,34,03,00,346,,06,24,046,29,12,64,077,50,1*68
$GPGSV,3,2,09,24,23,155,46,25,78,303,42,29,44,213,42,31,24,310,48,1*61
$GPGSV,3,3,09,32,28,261,44,1*53
$GPGSV,3,1,09,02,42,092,,03,00,346,,06,24,046,22,12,64,077,43,6*61
$GPGSV,3,2,09,24,23,155,44,25,78,303,46,29,44,213,44,31,24,310,39,6*60
$GPGSV,3,3,09,32,28,261,42,6*52
$GLGSV,2,1,08,69,15,279,48,70,15,339,22,77,23,115,25,78,76,068,49,1*7C
$GLGSV,2,2,08,79,40,311,51,81,25,184,49,87,45,043,44,88,66,124,47,1*7E
$GLGSV,2,1,08,69,15,279,43,70,15,339,,77,23,115,19,78,76,068,42,3*71
$GLGSV,2,2,08,79,40,311,43,81,25,184,44,87,45,043,,88,66,124,44,3*71
$GBGSV,3,1,10,02,04,106,,05,18,128,,10,04,083,25,12,37,191,45,1*75
$GBGSV,3,2,10,13,32,085,31,24,82,265,41,25,24,302,49,26,44,131,31,1*7A
$GBGSV,3,3,10,29,03,039,21,35,47,062,39,1*7D
$GBGSV,3,1,10,02,04,106,,05,18,128,,10,04,083,20,12,37,191,48,3*7F
$GBGSV,3,2,10,13,32,085,29,24,82,265,,25,24,302,,26,44,131,,3*7B
$GBGSV,3,3,10,29,03,039,,35,47,062,,3*76
$GNGLL,5025.4456789,N,01411.3808648,E,214338.00,A,D*76
$GNRMC,214339.00,A,5025.4447502,N,01411.3817976,E,0.014,,241021,,,R,V*0E
$GNVTG,,T,,M,0.014,N,0.026,K,D*39
$GNGGA,214339.00,5025.4447502,N,01411.3817976,E,4,12,0.64,217.799,M,44.078,M,1.0,0084*61
$GNGSA,A,3,24,31,32,25,12,29,02,06,,,,,1.26,0.64,1.08,1*01
$GNGSA,A,3,81,87,88,69,79,77,78,70,,,,,1.26,0.64,1.08,2*03
$GNGSA,A,3,12,13,24,25,26,35,,,,,,,1.26,0.64,1.08,4*08
$GPGSV,3,1,09,02,42,092,33,03,00,346,,06,24,046,29,12,64,077,50,1*6F
$GPGSV,3,2,09,24,23,155,46,25,78,303,42,29,44,213,42,31,24,310,48,1*61
$GPGSV,3,3,09,32,28,261,44,1*53
$GPGSV,3,1,09,02,42,092,,03,00,346,,06,24,046,21,12,64,077,43,6*62
$GPGSV,3,2,09,24,23,155,44,25,78,303,46,29,44,213,44,31,24,310,39,6*60
$GPGSV,3,3,09,32,28,261,42,6*52
$GLGSV,2,1,08,69,15,279,48,70,15,339,22,77,23,115,25,78,76,068,49,1*7C
$GLGSV,2,2,08,79,40,311,51,81,25,184,49,87,45,043,44,88,66,124,48,1*71
$GLGSV,2,1,08,69,15,279,43,70,15,339,,77,23,115,19,78,76,068,42,3*71
$GLGSV,2,2,08,79,40,311,43,81,25,184,44,87,45,043,,88,66,124,44,3*71
$GBGSV,3,1,10,02,04,106,,05,18,128,,10,04,083,25,12,37,191,45,1*75
$GBGSV,3,2,10,13,32,085,30,24,82,265,41,25,24,302,49,26,44,131,31,1*7B
$GBGSV,3,3,10,29,03,039,21,35,47,062,39,1*7D
$GBGSV,3,1,10,02,04,106,,05,18,128,,10,04,083,21,12,37,191,48,3*7E
$GBGSV,3,2,10,13,32,085,28,24,82,265,,25,24,302,,26,44,131,,3*7A
$GBGSV,3,3,10,29,03,039,,35,47,062,,3*76
$GNGLL,5025.4447502,N,01411.3817976,E,214339.00,A,D*7A
$GNRMC,214340.00,A,5025.4447504,N,01411.3817974,E,0.018,,241021,,,R,V*08
$GNVTG,,T,,M,0.018,N,0.033,K,D*31
$GNGGA,214340.00,5025.4447504,N,01411.3817974,E,4,12,0.64,217.802,M,44.078,M,1.0,0084*66
$GNGSA,A,3,24,31,32,25,12,29,02,06,,,,,1.26,0.64,1.08,1*01
$GNGSA,A,3,81,87,88,69,79,77,78,70,,,,,1.26,0.64,1.08,2*03
$GNGSA,A,3,12,13,24,25,26,35,,,,,,,1.26,0.64,1.08,4*08
$GPGSV,3,1,09,02,42,092,33,03,00,346,,06,24,046,29,12,64,077,50,1*6F
$GPGSV,3,2,09,24,23,155,46,25,78,303,41,29,44,213,42,31,24,310,48,1*62
$GPGSV,3,3,09,32,28,261,44,1*53
$GPGSV,3,1,09,02,42,092,,03,00,346,,06,24,046,20,12,64,077,43,6*63
$GPGSV,3,2,09,24,23,155,44,25,78,303,46,29,44,213,44,31,24,310,39,6*60
$GPGSV,3,3,09,32,28,261,42,6*52
$GLGSV,2,1,08,69,15,279,48,70,15,339,22,77,23,115,24,78,76,068,49,1*7D
$GLGSV,2,2,08,79,40,311,51,81,25,184,49,87,45,043,45,88,66,124,48,1*70
$GLGSV,2,1,08,69,15,279,43,70,15,339,,77,23,115,19,78,76,068,42,3*71
$GLGSV,2,2,08,79,40,311,43,81,25,184,44,87,45,043,,88,66,124,44,3*71
$GBGSV,3,1,10,02,04,106,,05,18,128,,10,04,083,24,12,37,191,45,1*74
$GBGSV,3,2,10,13,32,085,31,24,82,265,40,25,24,302,49,26,44,131,31,1*7B
$GBGSV,3,3,10,29,03,039,21,35,47,062,39,1*7D
$GBGSV,3,1,10,02,04,106,,05,18,128,,10,04,083,21,12,37,191,48,3*7E
$GBGSV,3,2,10,13,32,085,28,24,82,265,,25,24,302,,26,44,131,,3*7A
$GBGSV,3,3,10,29,03,039,,35,47,062,,3*76
$GNGLL,5025.4447504,N,01411.3817974,E,214340.00,A,D*70
$GNRMC,214341.00,A,5025.4447519,N,01411.3817999,E,0.005,,241021,,,R,V*0A
$GNVTG,,T,,M,0.005,N,0.009,K,D*34
$GNGGA,214341.00,5025.4447519,N,01411.3817999,E,4,12,0.64,217.799,M,44.078,M,1.0,0084*65
$GNGSA,A,3,24,31,32,25,12,29,02,06,,,,,1.26,0.64,1.08,1*01
$GNGSA,A,3,81,87,88,69,79,77,78,70,,,,,1.26,0.64,1.08,2*03
$GNGSA,A,3,12,13,24,25,26,35,,,,,,,1.26,0.64,1.08,4*08
$GPGSV,3,1,09,02,42,092,33,03,00,346,,06,24,046,29,12,64,077,50,1*6F
$GPGSV,3,2,09,24,23,155,46,25,78,303,41,29,44,213,42,31,24,310,48,1*62
$GPGSV,3,3,09,32,28,261,44,1*53
$GPGSV,3,1,09,02,42,092,,03,00,346,,06,24,046,20,12,64,077,43,6*63
$GPGSV,3,2,09,24,23,155,44,25,78,303,46,29,44,213,44,31,24,310,39,6*60
$GPGSV,3,3,09,32,28,261,42,6*52
$GLGSV,2,1,08,69,15,279,48,70,15,339,22,77,23,115,23,78,76,068,49,1*7A
$GLGSV,2,2,08,79,40,311,51,81,25,184,49,87,45,043,45,88,66,124,48,1*70
$GLGSV,2,1,08,69,15,279,43,70,15,339,,77,23,115,18,78,76,068,42,3*70
$GLGSV,2,2,08,79,40,311,43,81,25,184,44,87,45,043,,88,66,124,44,3*71
$GBGSV,3,1,10,02,04,106,,05,18,128,,10,04,083,24,12,37,191,45,1*74
$GBGSV,3,2,10,13,32,085,30,24,82,265,41,25,24,302,49,26,44,131,31,1*7B
$GBGSV,3,3,10,29,03,039,21,35,47,062,39,1*7D
$GBGSV,3,1,10,02,04,106,,05,18,128,,10,04,083,21,12,37,191,48,3*7E
$GBGSV,3,2,10,13,32,085,29,24,82,265,,25,24,302,,26,44,131,,3*7B
$GBGSV,3,3,10,29,03,039,,35,47,062,,3*76
$GNGLL,5025.4447519,N,01411.3817999,E,214341.00,A,D*7E
$GNRMC,214342.00,A,5025.4447520,N,01411.3818006,E,0.012,,241021,,,R,V*05
$GNVTG,,T,,M,0.012,N,0.023,K,D*3A
$GNGGA,214342.00,5025.4447520,N,01411.3818006,E,4,12,0.64,217.805,M,44.078,M,1.0,0084*66
$GNGSA,A,3,24,31,32,25,12,29,02,06,,,,,1.26,0.64,1.08,1*01
$GNGSA,A,3,81,87,88,69,79,77,78,70,,,,,1.26,0.64,1.08,2*03
$GNGSA,A,3,12,13,24,25,26,35,,,,,,,1.26,0.64,1.08,4*08
$GPGSV,3,1,09,02,42,092,33,03,00,346,,06,24,046,29,12,64,077,50,1*6F
$GPGSV,3,2,09,24,23,155,46,25,78,303,41,29,44,213,42,31,24,310,48,1*62
$GPGSV,3,3,09,32,28,261,44,1*53
$GPGSV,3,1,09,02,42,092,,03,00,346,,06,24,046,20,12,64,077,43,6*63
$GPGSV,3,2,09,24,23,155,44,25,78,303,46,29,44,213,44,31,24,310,38,6*61
$GPGSV,3,3,09,32,28,261,42,6*52
$GLGSV,2,1,08,69,15,279,48,70,15,339,22,77,23,115,23,78,76,068,49,1*7A
$GLGSV,2,2,08,79,40,311,51,81,25,184,49,87,45,043,44,88,66,124,48,1*71
$GLGSV,2,1,08,69,15,279,43,70,15,339,,77,23,115,18,78,76,068,42,3*70
$GLGSV,2,2,08,79,40,311,43,81,25,184,44,87,45,043,,88,66,124,44,3*71
$GBGSV,3,1,10,02,04,106,,05,18,128,,10,04,083,25,12,37,191,45,1*75
$GBGSV,3,2,10,13,32,085,30,24,82,265,40,25,24,302,49,26,44,131,31,1*7A
$GBGSV,3,3,10,29,03,039,20,35,47,062,39,1*7C
$GBGSV,3,1,10,02,04,106,,05,18,128,,10,04,083,21,12,37,191,48,3*7E
$GBGSV,3,2,10,13,32,085,28,24,82,265,,25,24,302,,26,44,131,,3*7A
$GBGSV,3,3,10,29,03,039,,35,47,062,,3*76
$GNGLL,5025.4447520,N,01411.3818006,E,214342.00,A,D*77
$GNRMC,214343.00,A,5025.4447523,N,01411.3818015,E,0.008,,241021,,,R,V*0E
$GNVTG,,T,,M,0.008,N,0.016,K,D*37
$GNGGA,214343.00,5025.4447523,N,01411.3818015,E,4,12,0.64,217.805,M,44.078,M,1.0,0084*66
$GNGSA,A,3,24,31,32,25,12,29,02,06,,,,,1.26,0.64,1.08,1*01
$GNGSA,A,3,81,87,88,69,79,77,78,70,,,,,1.26,0.64,1.08,2*03
$GNGSA,A,3,12,13,24,25,26,35,,,,,,,1.26,0.64,1.08,4*08
$GPGSV,3,1,09,02,42,092,34,03,00,346,,06,24,046,30,12,64,077,50,1*60
$GPGSV,3,2,09,24,23,155,46,25,78,303,41,29,44,213,42,31,24,310,48,1*62
$GPGSV,3,3,09,32,28,261,44,1*53
$GPGSV,3,1,09,02,42,092,,03,00,346,,06,24,046,19,12,64,077,43,6*69
$GPGSV,3,2,09,24,23,155,44,25,78,303,46,29,44,213,44,31,24,310,38,6*61
$GPGSV,3,3,09,32,28,261,42,6*52
$GLGSV,2,1,08,69,15,279,48,70,15,339,22,77,23,115,22,78,76,068,49,1*7B
$GLGSV,2,2,08,79,40,311,50,81,25,184,49,87,45,043,44,88,66,124,48,1*70
$GLGSV,2,1,08,69,15,279,43,70,15,339,,77,23,115,19,78,76,068,42,3*71
$GLGSV,2,2,08,79,40,311,43,81,25,184,44,87,45,043,,88,66,124,44,3*71
$GBGSV,3,1,10,02,04,106,,05,18,128,,10,04,083,24,12,37,191,45,1*74
$GBGSV,3,2,10,13,32,085,30,24,82,265,41,25,24,302,49,26,44,131,31,1*7B
$GBGSV,3,3,10,29,03,039,20,35,47,062,38,1*7D
$GBGSV,3,1,10,02,04,106,,05,18,128,,10,04,083,20,12,37,191,48,3*7F
$GBGSV,3,2,10,13,32,085,28,24,82,265,,25,24,302,,26,44,131,,3*7A
$GBGSV,3,3,10,29,03,039,,35,47,062,,3*76
$GNGLL,5025.4447523,N,01411.3818015,E,214343.00,A,D*77
$GNRMC,214344.00,A,5025.4447504,N,01411.3818008,E,0.003,,241021,,,R,V*0B
$GNVTG,,T,,M,0.003,N,0.005,K,D*3E
$GNGGA,214344.00,5025.4447504,N,01411.3818008,E,4,12,0.64,217.798,M,44.078,M,1.0,0084*63
$GNGSA,A,3,24,31,32,25,12,29,02,06,,,,,1.26,0.64,1.08,1*01
$GNGSA,A,3,81,87,88,69,79,77,78,70,,,,,1.26,0.64,1.08,2*03
$GNGSA,A,3,12,13,24,25,26,35,,,,,,,1.26,0.64,1.08,4*08
$GPGSV,3,1,09,02,42,092,34,03,00,346,,06,24,046,29,12,64,077,50,1*68
$GPGSV,3,2,09,24,23,155,46,25,78,303,41,29,44,213,42,31,24,310,48,1*62
$GPGSV,3,3,09,32,28,261,44,1*53
$GPGSV,3,1,09,02,42,092,,03,00,346,,06,24,046,19,12,64,077,43,6*69
$GPGSV,3,2,09,24,23,155,44,25,78,303,46,29,44,213,44,31,24,310,38,6*61
$GPGSV,3,3,09,32,28,261,43,6*53
$GLGSV,2,1,08,69,15,279,48,70,15,339,22,77,23,115,22,78,76,068,49,1*7B
$GLGSV,2,2,08,79,40,311,50,81,25,184,49,87,45,043,44,88,66,124,48,1*70
$GLGSV,2,1,08,69,15,279,43,70,15,339,,77,23,115,20,78,76,068,42,3*7B
$GLGSV,2,2,08,79,40,311,44,81,25,184,44,87,45,043,,88,66,124,43,3*71
$GBGSV,3,1,10,02,04,106,,05,18,128,,10,04,083,25,12,37,191,45,1*75
$GBGSV,3,2,10,13,32,085,30,24,82,265,41,25,24,302,49,26,44,131,31,1*7B
$GBGSV,3,3,10,29,03,039,20,35,47,062,39,1*7C
$GBGSV,3,1,10,02,04,106,,05,18,128,,10,04,083,21,12,37,191,48,3*7E
$GBGSV,3,2,10,13,32,085,29,24,82,265,,25,24,302,,26,44,131,,3*7B
$GBGSV,3,3,10,29,03,039,,35,47,062,,3*76
$GNGLL,5025.4447504,N,01411.3818008,E,214344.00,A,D*79
$GNRMC,214345.00,A,5025.4447517,N,01411.3818008,E,0.011,,241021,,,R,V*0B
$GNVTG,,T,,M,0.011,N,0.020,K,D*3A
$GNGGA,214345.00,5025.4447517,N,01411.3818008,E,4,12,0.64,217.801,M,44.078,M,1.0,0084*6F
$GNGSA,A,3,24,31,32,25,12,29,02,06,,,,,1.26,0.64,1.08,1*01
$GNGSA,A,3,81,87,88,69,79,77,78,70,,,,,1.26,0.64,1.08,2*03
$GNGSA,A,3,12,13,24,25,26,35,,,,,,,1.26,0.64,1.08,4*08
$GPGSV,3,1,09,02,42,092,34,03,00,346,,06,24,046,29,12,64,077,50,1*68
$GPGSV,3,2,09,24,23,155,46,25,78,303,41,29,44,213,42,31,24,310,48,1*62
$GPGSV,3,3,09,32,28,261,44,1*53
$GPGSV,3,1,09,02,42,092,,03,00,346,,06,24,046,20,12,64,077,43,6*63
$GPGSV,3,2,09,24,23,155,44,25,78,303,46,29,44,213,44,31,24,310,38,6*61
$GPGSV,3,3,09,32,28,261,43,6*53
$GLGSV,2,1,08,69,15,279,48,70,15,339,22,77,23,115,21,78,76,068,49,1*78
$GLGSV,2,2,08,79,40,311,50,81,25,184,49,87,45,043,44,88,66,124,48,1*70
$GLGSV,2,1,08,69,15,279,43,70,15,339,,77,23,115,20,78,76,068,42,3*7B
$GLGSV,2,2,08,79,40,311,44,81,25,184,44,87,45,043,,88,66,124,43,3*71
$GBGSV,3,1,10,02,04,106,,05,18,128,,10,04,083,25,12,37,191,45,1*75
$GBGSV,3,2,10,13,32,085,30,24,82,265,41,25,24,302,49,26,44,131,31,1*7B
$GBGSV,3,3,10,29,03,039,20,35,47,062,38,1*7D
$GBGSV,3,1,10,02,04,106,,05,18,128,,10,04,083,21,12,37,191,48,3*7E
$GBGSV,3,2,10,13,32,085,29,24,82,265,,25,24,302,,26,44,131,,3*7B
$GBGSV,3,3,10,29,03,039,,35,47,062,,3*76
$GNGLL,5025.4447517,N,01411.3818008,E,214345.00,A,D*7A
$GNRMC,214346.00,A,5025.4447529,N,01411.3818021,E,0.006,,241021,,,R,V*08
$GNVTG,,T,,M,0.006,N,0.011,K,D*3E
$GNGGA,214346.00,5025.4447529,N,01411.3818021,E,4,12,0.63,217.803,M,44.078,M,1.0,0084*6F
$GNGSA,A,3,24,31,32,25,12,29,02,06,,,,,1.26,0.63,1.08,1*06
$GNGSA,A,3,81,87,88,69,79,77,78,70,,,,,1.26,0.63,1.08,2*04
$GNGSA,A,3,12,13,24,25,26,35,,,,,,,1.26,0.63,1.08,4*0F
$GPGSV,3,1,09,02,42,092,34,03,00,346,,06,24,046,29,12,64,077,50,1*68
$GPGSV,3,2,09,24,23,155,46,25,78,303,41,29,44,213,42,31,24,310,48,1*62
$GPGSV,3,3,09,32,28,261,44,1*53
$GPGSV,3,1,09,02,42,092,,03,00,346,,06,24,046,19,12,64,077,43,6*69
$GPGSV,3,2,09,24,23,155,44,25,78,303,46,29,44,213,44,31,24,310,38,6*61
$GPGSV,3,3,09,32,28,261,43,6*53
$GLGSV,2,1,08,69,15,279,48,70,15,339,21,77,23,115,21,78,76,068,49,1*7B
$GLGSV,2,2,08,79,40,311,50,81,25,184,49,87,45,043,44,88,66,124,48,1*70
$GLGSV,2,1,08,69,15,279,43,70,15,339,,77,23,115,20,78,76,068,42,3*7B
$GLGSV,2,2,08,79,40,311,44,81,25,184,44,87,45,043,,88,66,124,43,3*71
$GBGSV,3,1,10,02,04,106,,05,18,128,,10,04,083,25,12,37,191,45,1*75
$GBGSV,3,2,10,13,32,085,30,24,82,265,40,25,24,302,49,26,44,131,31,1*7A
$GBGSV,3,3,10,29,03,039,20,35,47,062,38,1*7D
$GBGSV,3,1,10,02,04,106,,05,18,128,,10,04,083,21,12,37,191,48,3*7E
$GBGSV,3,2,10,13,32,085,28,24,82,265,,25,24,302,,26,44,131,,3*7A
$GBGSV,3,3,10,29,03,039,,35,47,062,,3*76
$GNGLL,5025.4447529,N,01411.3818021,E,214346.00,A,D*7F
$GNRMC,214347.00,A,5025.4447519,N,01411.3818013,E,0.008,,241021,,,R,V*05
$GNVTG,,T,,M,0.008,N,0.014,K,D*35
$GNGGA,214347.00,5025.4447519,N,01411.3818013,E,4,12,0.63,217.799,M,44.078,M,1.0,0084*60
$GNGSA,A,3,24,31,32,25,12,29,02,06,,,,,1.26,0.63,1.08,1*06
$GNGSA,A,3,81,87,88,69,79,77,78,70,,,,,1.26,0.63,1.08,2*04
$GNGSA,A,3,12,13,24,25,26,35,,,,,,,1.26,0.63,1.08,4*0F
$GPGSV,3,1,09,02,42,092,35,03,00,346,,06,24,046,29,12,64,077,50,1*69
$GPGSV,3,2,09,24,23,155,46,25,78,303,40,29,44,213,42,31,24,310,48,1*63
$GPGSV,3,3,09,32,28,261,44,1*53
$GPGSV,3,1,09,02,42,092,,03,00,346,,06,24,046,19,12,64,077,43,6*69
$GPGSV,3,2,09,24,23,155,44,25,78,303,46,29,44,213,44,31,24,310,38,6*61
$GPGSV,3,3,09,32,28,261,43,6*53
$GLGSV,2,1,08,69,15,279,48,70,15,339,20,77,23,115,21,78,76,068,49,1*7A
$GLGSV,2,2,08,79,40,311,50,81,25,184,49,87,45,043,44,88,66,124,48,1*70
$GLGSV,2,1,08,69,15,279,43,70,15,339,,77,23,115,20,78,76,068,42,3*7B
$GLGSV,2,2,08,79,40,311,44,81,25,184,44,87,45,043,,88,66,124,43,3*71
$GBGSV,3,1,10,02,04,106,,05,18,128,,10,04,083,25,12,37,191,46,1*76
$GBGSV,3,2,10,13,32,085,30,24,82,265,40,25,24,302,49,26,44,131,31,1*7A
$GBGSV,3,3,10,29,03,039,20,35,47,062,39,1*7C
$GBGSV,3,1,10,02,04,106,,05,18,128,,10,04,083,22,12,37,191,48,3*7D
$GBGSV,3,2,10,13,32,085,29,24,82,265,,25,24,302,,26,44,131,,3*7B
$GBGSV,3,3,10,29,03,039,,35,47,062,,3*76
$GNGLL,5025.4447519,N,01411.3818013,E,214347.00,A,D*7C
$GNRMC,214348.00,A,5025.4447518,N,01411.3818009,E,0.001,,241021,,,R,V*09
$GNVTG,,T,,M,0.001,N,0.002,K,D*3B
