$GNGGA,214429.00,5025.4447512,N,01411.3817906,E,4,12,0.63,217.789,M,44.078,M,1.0,0084*67
$GNGSA,A,3,24,29,31,32,25,12,06,02,,,,,1.29,0.63,1.12,1*02
$GNGSA,A,3,33,31,26,01,24,09,05,13,,,,,1.29,0.63,1.12,3*01
$GNGSA,A,3,13,12,25,26,24,35,,,,,,,1.29,0.63,1.12,4*0B
$GPGSV,3,1,09,02,42,091,37,03,00,345,,06,24,045,28,12,63,078,50,1*61
$GPGSV,3,2,09,24,23,155,45,25,78,304,42,29,44,213,45,31,24,310,47,1*6D
$GPGSV,3,3,09,32,28,260,43,1*55
$GPGSV,3,1,09,02,42,091,,03,00,345,,06,24,045,16,12,63,078,43,6*6D
$GPGSV,3,2,09,24,23,155,43,25,78,304,46,29,44,213,45,31,24,310,39,6*61
$GPGSV,3,3,09,32,28,260,43,6*52
$GAGSV,3,1,12,01,46,096,39,03,00,350,,04,00,206,,05,21,305,46,7*73
$GAGSV,3,2,12,09,21,252,47,12,02,183,,13,11,029,21,21,00,102,,7*7C
$GAGSV,3,3,12,24,24,286,48,26,45,077,36,31,74,302,42,33,38,146,43,7*79
$GAGSV,3,1,12,01,46,096,38,03,00,350,,04,00,206,,05,21,305,46,2*77
$GAGSV,3,2,12,09,21,252,48,12,02,183,,13,11,029,23,21,00,102,,2*74
$GAGSV,3,3,12,24,24,286,49,26,45,077,36,31,74,302,48,33,38,146,38,2*7B
$GBGSV,3,1,10,02,04,106,,05,18,128,,10,04,083,20,12,37,191,44,1*71
$GBGSV,3,2,10,13,32,085,29,24,82,263,37,25,25,302,46,26,44,131,32,1*79
$GBGSV,3,3,10,29,03,039,21,35,47,062,39,1*7D
$GBGSV,3,1,10,02,04,106,,05,18,128,,10,04,083,25,12,37,191,48,3*7A
$GBGSV,3,2,10,13,32,085,32,24,82,263,,25,25,302,,26,44,131,,3*76
$GBGSV,3,3,10,29,03,039,,35,47,062,,3*76
$GNGLL,5025.4447512,N,01411.3817906,E,214429.00,A,D*7A
$GNVTG,,T,,M,0.016,N,0.030,K,D*3C
$GNGGA,214430.00,5025.4447512,N,01411.3817917,E,4,12,0.63,217.792,M,44.078,M,1.0,0084*65
$GNGSA,A,3,24,29,31,32,25,12,06,02,,,,,1.29,0.63,1.12,1*02
$GNGSA,A,3,33,31,26,01,24,09,05,13,,,,,1.29,0.63,1.12,3*01
$GNGSA,A,3,13,12,25,26,24,35,,,,,,,1.29,0.63,1.12,4*0B
$GPGSV,3,1,09,02,42,091,37,03,00,345,,06,24,045,28,12,63,078,50,1*61
$GPGSV,3,2,09,24,23,155,45,25,78,304,42,29,44,213,45,31,24,310,47,1*6D
$GPGSV,3,3,09,32,28,260,43,1*55
$GPGSV,3,1,09,02,42,091,,03,00,345,,06,24,045,17,12,63,078,43,6*6C
$GPGSV,3,2,09,24,23,155,43,25,78,304,46,29,44,213,45,31,24,310,39,6*61
$GPGSV,3,3,09,32,28,260,43,6*52
$GAGSV,3,1,12,01,46,096,39,03,00,350,,04,00,206,,05,21,305,46,7*73
$GAGSV,3,2,12,09,21,252,47,12,02,183,,13,11,029,22,21,00,102,,7*7F
$GAGSV,3,3,12,24,24,286,48,26,45,077,36,31,74,302,42,33,38,146,43,7*79
$GAGSV,3,1,12,01,46,096,38,03,00,350,,04,00,206,,05,21,305,46,2*77
$GAGSV,3,2,12,09,21,252,48,12,02,183,,13,11,029,23,21,00,102,,2*74
$GAGSV,3,3,12,24,24,286,49,26,45,077,36,31,74,302,48,33,38,146,38,2*7B
$GBGSV,3,1,10,02,04,106,,05,18,128,,10,04,083,20,12,37,191,44,1*71
$GBGSV,3,2,10,13,32,085,30,24,82,263,37,25,25,302,46,26,44,131,33,1*70
$GBGSV,3,3,10,29,03,039,22,35,47,062,39,1*7E
$GBGSV,3,1,10,02,04,106,,05,18,128,,10,04,083,25,12,37,191,48,3*7A
$GBGSV,3,2,10,13,32,085,31,24,82,263,,25,25,302,,26,44,131,,3*75
$GBGSV,3,3,10,29,03,039,,35,47,062,,3*76
$GNGLL,5025.4447512,N,01411.3817917,E,214430.00,A,D*72
$GNRMC,214431.00,A,5025.4447519,N,01411.3817920,E,0.021,,241021,,,R,V*0E
$GNVTG,,T,,M,0.021,N,0.039,K,D*31
$GNGGA,214431.00,5025.4447519,N,01411.3817920,E,4,12,0.63,217.791,M,44.078,M,1.0,0084*68
$GNGSA,A,3,24,29,31,32,25,12,06,02,,,,,1.29,0.63,1.12,1*02
$GNGSA,A,3,33,31,26,01,24,09,05,13,,,,,1.29,0.63,1.12,3*01
$GNGSA,A,3,13,12,25,26,24,35,,,,,,,1.29,0.63,1.12,4*0B
$GPGSV,3,1,09,02,42,091,37,03,00,345,,06,24,045,28,12,63,078,50,1*61
$GPGSV,3,2,09,24,23,155,45,25,78,304,42,29,44,213,45,31,24,310,47,1*6D
$GPGSV,3,3,09,32,28,260,43,1*55
$GPGSV,3,1,09,02,42,091,,03,00,345,,06,24,045,18,12,63,078,43,6*63
$GPGSV,3,2,09,24,23,155,43,25,78,304,46,29,44,213,45,31,24,310,39,6*61
$GPGSV,3,3,09,32,28,260,43,6*52
$GAGSV,3,1,12,01,46,096,39,03,00,350,,04,00,206,,05,21,305,46,7*73
$GAGSV,3,2,12,09,21,252,47,12,02,183,,13,11,029,22,21,00,102,,7*7F
$GAGSV,3,3,12,24,24,286,48,26,45,077,36,31,74,302,42,33,38,146,42,7*78
$GAGSV,3,1,12,01,46,096,37,03,00,350,,04,00,206,,05,21,305,46,2*78
$GAGSV,3,2,12,09,21,252,48,12,02,183,,13,11,029,23,21,00,102,,2*74
$GAGSV,3,3,12,24,24,286,49,26,45,077,36,31,74,302,48,33,38,146,39,2*7A
$GBGSV,3,1,10,02,04,106,,05,18,128,,10,04,083,20,12,37,191,44,1*71
$GBGSV,3,2,10,13,32,085,29,24,82,263,37,25,25,302,46,26,44,131,33,1*78
$GBGSV,3,3,10,29,03,039,22,35,47,062,39,1*7E
$GBGSV,3,1,10,02,04,106,,05,18,128,,10,04,083,25,12,37,191,48,3*7A
$GBGSV,3,2,10,13,32,085,32,24,82,263,,25,25,302,,26,44,131,,3*76
$GBGSV,3,3,10,29,03,039,,35,47,062,,3*76
$GNGLL,5025.4447519,N,01411.3817920,E,214431.00,A,D*7C
$GNRMC,214432.00,A,5025.4447522,N,01411.3817932,E,0.011,,241021,,,R,V*05
$GNVTG,,T,,M,0.011,N,0.020,K,D*3A
$GNGGA,214432.00,5025.4447522,N,01411.3817932,E,4,12,0.63,217.792,M,44.078,M,1.0,0084*63
$GNGSA,A,3,24,29,31,32,25,12,06,02,,,,,1.29,0.63,1.12,1*02
$GNGSA,A,3,33,31,26,01,24,09,05,13,,,,,1.29,0.63,1.12,3*01
$GNGSA,A,3,13,12,25,26,24,35,,,,,,,1.29,0.63,1.12,4*0B
$GPGSV,3,1,09,02,42,091,37,03,00,345,,06,24,045,29,12,63,078,50,1*60
$GPGSV,3,2,09,24,23,155,45,25,78,304,42,29,44,213,45,31,24,310,47,1*6D
$GPGSV,3,3,09,32,28,260,43,1*55
$GPGSV,3,1,09,02,42,091,,03,00,345,,06,24,045,19,12,63,078,43,6*62
$GPGSV,3,2,09,24,23,155,43,25,78,304,46,29,44,213,45,31,24,310,39,6*61
$GPGSV,3,3,09,32,28,260,43,6*52
$GAGSV,3,1,12,01,46,096,39,03,00,350,,04,00,206,,05,21,305,46,7*73
$GAGSV,3,2,12,09,21,252,47,12,02,183,,13,11,029,22,21,00,102,,7*7F
$GAGSV,3,3,12,24,24,286,48,26,45,077,36,31,74,302,43,33,38,146,42,7*79
$GAGSV,3,1,12,01,46,096,38,03,00,350,,04,00,206,,05,21,305,46,2*77
$GAGSV,3,2,12,09,21,252,48,12,02,183,,13,11,029,24,21,00,102,,2*73
$GAGSV,3,3,12,24,24,286,49,26,45,077,36,31,74,302,48,33,38,146,39,2*7A
$GBGSV,3,1,10,02,04,106,,05,18,128,,10,04,083,20,12,37,191,44,1*71
$GBGSV,3,2,10,13,32,085,29,24,82,263,37,25,25,302,47,26,44,131,32,1*78
$GBGSV,3,3,10,29,03,039,22,35,47,062,39,1*7E
$GBGSV,3,1,10,02,04,106,,05,18,128,,10,04,083,25,12,37,191,48,3*7A
$GBGSV,3,2,10,13,32,085,32,24,82,263,,25,25,302,,26,44,131,,3*76
$GBGSV,3,3,10,29,03,039,,35,47,062,,3*76
$GNGLL,5025.4447522,N,01411.3817932,E,214432.00,A,D*74
$GNRMC,214433.00,A,5025.4447519,N,01411.3817911,E,0.009,,241021,,,R,V*04
$GNVTG,,T,,M,0.009,N,0.016,K,D*36
$GNGGA,214433.00,5025.4447519,N,01411.3817911,E,4,12,0.63,217.793,M,44.078,M,1.0,0084*6A
$GNGSA,A,3,24,29,31,32,25,12,06,02,,,,,1.29,0.63,1.12,1*02
$GNGSA,A,3,33,31,26,01,24,09,05,13,,,,,1.29,0.63,1.12,3*01
$GNGSA,A,3,13,12,25,26,24,35,,,,,,,1.29,0.63,1.12,4*0B
$GPGSV,3,1,09,02,42,091,37,03,00,345,,06,24,045,29,12,63,078,50,1*60
$GPGSV,3,2,09,24,23,155,45,25,78,304,42,29,44,213,45,31,24,310,47,1*6D
$GPGSV,3,3,09,32,28,260,43,1*55
$GPGSV,3,1,09,02,42,091,,03,00,345,,06,24,045,19,12,63,078,43,6*62
$GPGSV,3,2,09,24,23,155,43,25,78,304,45,29,44,213,45,31,24,310,39,6*62
$GPGSV,3,3,09,32,28,260,42,6*53
$GAGSV,3,1,12,01,46,096,39,03,00,350,,04,00,206,,05,21,305,46,7*73
$GAGSV,3,2,12,09,21,252,47,12,02,183,,13,11,029,23,21,00,102,,7*7E
$GAGSV,3,3,12,24,24,286,48,26,45,077,36,31,74,302,43,33,38,146,41,7*7A
$GAGSV,3,1,12,01,46,096,37,03,00,350,,04,00,206,,05,21,305,46,2*78
$GAGSV,3,2,12,09,21,252,48,12,02,183,,13,11,029,23,21,00,102,,2*74
$GAGSV,3,3,12,24,24,286,49,26,45,077,36,31,74,302,48,33,38,146,39,2*7A
$GBGSV,3,1,10,02,04,106,,05,18,128,,10,04,083,20,12,37,191,44,1*71
$GBGSV,3,2,10,13,32,085,29,24,82,263,37,25,25,302,47,26,44,131,33,1*79
$GBGSV,3,3,10,29,03,039,23,35,47,062,39,1*7F
$GBGSV,3,1,10,02,04,106,,05,18,128,,10,04,083,25,12,37,191,48,3*7A
$GBGSV,3,2,10,13,32,085,32,24,82,263,,25,25,302,,26,44,131,,3*76
$GBGSV,3,3,10,29,03,039,,35,47,062,,3*76
$GNGLL,5025.4447519,N,01411.3817911,E,214433.00,A,D*7C
$GNRMC,214434.00,A,5025.4447530,N,01411.3817920,E,0.010,,241021,,,R,V*02
$GNVTG,,T,,M,0.010,N,0.019,K,D*31
$GNGGA,214434.00,5025.4447530,N,01411.3817920,E,4,12,0.63,217.791,M,44.078,M,1.0,0084*66
$GNGSA,A,3,24,29,31,32,25,12,06,02,,,,,1.29,0.63,1.12,1*02
$GNGSA,A,3,33,31,26,01,24,09,05,13,,,,,1.29,0.63,1.12,3*01
$GNGSA,A,3,13,12,25,26,24,35,,,,,,,1.29,0.63,1.12,4*0B
$GPGSV,3,1,09,02,42,091,38,03,00,345,,06,24,045,29,12,63,078,50,1*6F
$GPGSV,3,2,09,24,23,155,45,25,78,304,42,29,44,213,45,31,24,310,47,1*6D
$GPGSV,3,3,09,32,28,260,43,1*55
$GPGSV,3,1,09,02,42,091,,03,00,345,,06,24,045,20,12,63,078,43,6*68
$GPGSV,3,2,09,24,23,155,43,25,78,304,45,29,44,213,45,31,24,310,39,6*62
$GPGSV,3,3,09,32,28,260,42,6*53
$GAGSV,3,1,12,01,46,096,39,03,00,350,,04,00,206,,05,21,305,46,7*73
$GAGSV,3,2,12,09,21,252,47,12,02,183,,13,11,029,22,21,00,102,,7*7F
$GAGSV,3,3,12,24,24,286,47,26,45,077,36,31,74,302,43,33,38,146,40,7*74
$GAGSV,3,1,12,01,46,096,37,03,00,350,,04,00,206,,05,21,305,46,2*78
$GAGSV,3,2,12,09,21,252,48,12,02,183,,13,11,029,23,21,00,102,,2*74
$GAGSV,3,3,12,24,24,286,49,26,45,077,36,31,74,302,48,33,38,146,39,2*7A
$GBGSV,3,1,10,02,04,106,,05,18,128,,10,04,083,20,12,37,191,44,1*71
$GBGSV,3,2,10,13,32,085,29,24,82,263,38,25,25,302,47,26,44,131,33,1*76
$GBGSV,3,3,10,29,03,039,23,35,47,062,39,1*7F
$GBGSV,3,1,10,02,04,106,,05,18,128,,10,04,083,25,12,37,191,47,3*75
$GBGSV,3,2,10,13,32,085,32,24,82,263,,25,25,302,,26,44,131,,3*76
$GBGSV,3,3,10,29,03,039,,35,47,062,,3*76
$GNGLL,5025.4447530,N,01411.3817920,E,214434.00,A,D*72
$GNRMC,214435.00,A,5025.4447509,N,01411.3817911,E,0.008,,241021,,,R,V*02
$GNVTG,,T,,M,0.008,N,0.015,K,D*34
$GNGGA,214435.00,5025.4447509,N,01411.3817911,E,4,12,0.63,217.794,M,44.078,M,1.0,0084*6A
$GNGSA,A,3,24,29,31,32,25,12,06,02,,,,,1.29,0.63,1.12,1*02
$GNGSA,A,3,33,31,26,01,24,09,05,13,,,,,1.29,0.63,1.12,3*01
$GNGSA,A,3,13,12,25,26,24,35,,,,,,,1.29,0.63,1.12,4*0B
$GPGSV,3,1,09,02,42,091,38,03,00,345,,06,24,045,29,12,63,078,50,1*6F
$GPGSV,3,2,09,24,23,155,45,25,78,304,42,29,44,213,45,31,24,310,47,1*6D
$GPGSV,3,3,09,32,28,260,43,1*55
$GPGSV,3,1,09,02,42,091,,03,00,345,,06,24,045,20,12,63,078,43,6*68
$GPGSV,3,2,09,24,23,155,43,25,78,304,45,29,44,213,45,31,24,310,39,6*62
$GPGSV,3,3,09,32,28,260,42,6*53
$GAGSV,3,1,12,01,46,096,39,03,00,350,,04,00,206,,05,21,305,46,7*73
$GAGSV,3,2,12,09,21,252,47,12,02,183,,13,11,029,21,21,00,102,,7*7C
$GAGSV,3,3,12,24,24,286,48,26,45,077,36,31,74,302,43,33,38,146,40,7*7B
$GAGSV,3,1,12,01,46,096,38,03,00,350,,04,00,206,,05,21,305,46,2*77
$GAGSV,3,2,12,09,21,252,48,12,02,183,,13,11,029,23,21,00,102,,2*74
$GAGSV,3,3,12,24,24,286,49,26,45,077,36,31,74,302,48,33,38,146,40,2*74
$GBGSV,3,1,10,02,04,106,,05,18,128,,10,04,083,20,12,37,191,44,1*71
$GBGSV,3,2,10,13,32,085,29,24,82,263,38,25,25,302,47,26,44,131,33,1*76
$GBGSV,3,3,10,29,03,039,23,35,47,062,39,1*7F
$GBGSV,3,1,10,02,04,106,,05,18,128,,10,04,083,25,12,37,191,47,3*75
$GBGSV,3,2,10,13,32,085,32,24,82,263,,25,25,302,,26,44,131,,3*76
$GBGSV,3,3,10,29,03,039,,35,47,062,,3*76
$GNGLL,5025.4447509,N,01411.3817911,E,214435.00,A,D*7B
$GNRMC,214436.00,A,5025.4447521,N,01411.3817919,E,0.006,,241021,,,R,V*0D
$GNVTG,,T,,M,0.006,N,0.011,K,D*3E
$GNGGA,214436.00,5025.4447521,N,01411.3817919,E,4,12,0.63,217.792,M,44.078,M,1.0,0084*6D
$GNGSA,A,3,24,29,31,32,25,12,06,02,,,,,1.29,0.63,1.12,1*02
$GNGSA,A,3,33,31,26,01,24,09,05,13,,,,,1.29,0.63,1.12,3*01
$GNGSA,A,3,13,12,25,26,24,35,,,,,,,1.29,0.63,1.12,4*0B
$GPGSV,3,1,09,02,42,091,38,03,00,345,,06,24,045,30,12,63,078,50,1*67
$GPGSV,3,2,09,24,23,155,45,25,78,304,42,29,44,213,45,31,24,310,47,1*6D
$GPGSV,3,3,09,32,28,260,43,1*55
$GPGSV,3,1,09,02,42,091,,03,00,345,,06,24,045,21,12,63,078,43,6*69
$GPGSV,3,2,09,24,23,155,43,25,78,304,45,29,44,213,45,31,24,310,39,6*62
$GPGSV,3,3,09,32,28,260,42,6*53
$GAGSV,3,1,12,01,46,096,39,03,00,350,,04,00,206,,05,21,305,46,7*73
$GAGSV,3,2,12,09,21,252,47,12,02,183,,13,11,029,21,21,00,102,,7*7C
$GAGSV,3,3,12,24,24,286,48,26,45,077,36,31,74,302,43,33,38,146,39,7*75
$GAGSV,3,1,12,01,46,096,37,03,00,350,,04,00,206,,05,21,305,46,2*78
$GAGSV,3,2,12,09,21,252,48,12,02,183,,13,11,029,23,21,00,102,,2*74
$GAGSV,3,3,12,24,24,286,49,26,45,077,36,31,74,302,48,33,38,146,40,2*74
$GBGSV,3,1,10,02,04,106,,05,18,128,,10,04,083,21,12,37,191,44,1*70
$GBGSV,3,2,10,13,32,085,29,24,82,263,38,25,25,302,47,26,44,131,33,1*76
$GBGSV,3,3,10,29,03,039,23,35,47,062,39,1*7F
$GBGSV,3,1,10,02,04,106,,05,18,128,,10,04,083,25,12,37,191,47,3*75
$GBGSV,3,2,10,13,32,085,32,24,82,263,,25,25,302,,26,44,131,,3*76
$GBGSV,3,3,10,29,03,039,,35,47,062,,3*76
$GNGLL,5025.4447521,N,01411.3817919,E,214436.00,A,D*7A
$GNRMC,214437.00,A,5025.4447521,N,01411.3817912,E,0.011,,241021,,,R,V*01
$GNVTG,,T,,M,0.011,N,0.020,K,D*3A
$GNGGA,214437.00,5025.4447521,N,01411.3817912,E,4,12,0.63,217.794,M,44.078,M,1.0,0084*61
$GNGSA,A,3,24,29,31,32,25,12,06,02,,,,,1.29,0.63,1.12,1*02
$GNGSA,A,3,33,31,26,01,24,09,05,13,,,,,1.29,0.63,1.12,3*01
$GNGSA,A,3,13,12,25,26,24,35,,,,,,,1.29,0.63,1.12,4*0B
$GPGSV,3,1,09,02,42,091,38,03,00,345,,06,24,045,30,12,63,078,50,1*67
$GPGSV,3,2,09,24,23,155,45,25,78,304,42,29,44,213,45,31,24,310,47,1*6D
$GPGSV,3,3,09,32,28,260,43,1*55
$GPGSV,3,1,09,02,42,091,,03,00,345,,06,24,045,21,12,63,078,43,6*69
$GPGSV,3,2,09,24,23,155,43,25,78,304,45,29,44,213,45,31,24,310,39,6*62
$GPGSV,3,3,09,32,28,260,42,6*53
$GAGSV,3,1,12,01,46,096,39,03,00,350,,04,00,206,,05,21,305,46,7*73
$GAGSV,3,2,12,09,21,252,47,12,02,183,,13,11,029,21,21,00,102,,7*7C
$GAGSV,3,3,12,24,24,286,48,26,45,077,36,31,74,303,42,33,38,146,38,7*74
$GAGSV,3,1,12,01,46,096,38,03,00,350,,04,00,206,,05,21,305,46,2*77
$GAGSV,3,2,12,09,21,252,48,12,02,183,,13,11,029,23,21,00,102,,2*74
$GAGSV,3,3,12,24,24,286,49,26,45,077,36,31,74,303,48,33,38,146,40,2*75
$GBGSV,3,1,10,02,04,106,,05,18,128,,10,04,083,21,12,37,191,44,1*70
$GBGSV,3,2,10,13,32,085,28,24,82,263,38,25,25,302,47,26,44,131,33,1*77
$GBGSV,3,3,10,29,03,039,23,35,47,062,39,1*7F
$GBGSV,3,1,10,02,04,106,,05,18,128,,10,04,083,25,12,37,191,47,3*75
$GBGSV,3,2,10,13,32,085,32,24,82,263,,25,25,302,,26,44,131,,3*76
$GBGSV,3,3,10,29,03,039,,35,47,062,,3*76
$GNGLL,5025.4447521,N,01411.3817912,E,214437.00,A,D*70
$GNRMC,214438.00,A,5025.4447522,N,01411.3817923,E,0.012,,241021,,,R,V*0C
$GNVTG,,T,,M,0.012,N,0.022,K,D*3B
$GNGGA,214438.00,5025.4447522,N,01411.3817923,E,4,12,0.63,217.794,M,44.078,M,1.0,0084*6F
$GNGSA,A,3,24,29,31,32,25,12,06,02,,,,,1.29,0.63,1.12,1*02
$GNGSA,A,3,33,31,26,01,24,09,05,13,,,,,1.29,0.63,1.12,3*01
$GNGSA,A,3,13,12,25,26,24,35,,,,,,,1.29,0.63,1.12,4*0B
$GPGSV,3,1,09,02,42,091,39,03,00,345,,06,24,045,30,12,63,078,50,1*66
$GPGSV,3,2,09,24,23,155,45,25,78,304,42,29,44,213,45,31,24,310,47,1*6D
$GPGSV,3,3,09,32,28,260,43,1*55
$GPGSV,3,1,09,02,42,091,,03,00,345,,06,24,045,21,12,63,078,42,6*68
$GPGSV,3,2,09,24,23,155,43,25,78,304,45,29,44,213,44,31,24,310,39,6*63
$GPGSV,3,3,09,32,28,260,42,6*53
$GAGSV,3,1,12,01,46,096,39,03,00,350,,04,00,206,,05,21,305,46,7*73
$GAGSV,3,2,12,09,21,252,47,12,02,183,,13,11,029,21,21,00,102,,7*7C
$GAGSV,3,3,12,24,24,286,48,26,45,077,36,31,74,303,42,33,39,146,37,7*7A
$GAGSV,3,1,12,01,46,096,38,03,00,350,,04,00,206,,05,21,305,46,2*77
$GAGSV,3,2,12,09,21,252,48,12,02,183,,13,11,029,23,21,00,102,,2*74
$GAGSV,3,3,12,24,24,286,49,26,45,077,36,31,74,303,48,33,39,146,40,2*74
$GBGSV,3,1,10,02,04,106,,05,18,128,,10,04,083,21,12,37,191,44,1*70
$GBGSV,3,2,10,13,32,085,28,24,82,263,38,25,25,302,47,26,44,131,33,1*77
$GBGSV,3,3,10,29,03,039,23,35,47,062,39,1*7F
$GBGSV,3,1,10,02,04,106,,05,18,128,,10,04,083,25,12,37,191,47,3*75
$GBGSV,3,2,10,13,32,085,33,24,82,263,,25,25,302,,26,44,131,,3*77
$GBGSV,3,3,10,29,03,039,,35,47,062,,3*76
$GNGLL,5025.4447522,N,01411.3817923,E,214438.00,A,D*7E
$GNRMC,214439.00,A,5025.4447538,N,01411.3817939,E,0.010,,241021,,,R,V*0F
$GNVTG,,T,,M,0.010,N,0.018,K,D*30
