$GNGGA,211914.00,5025.4446905,N,01411.3816829,E,4,12,0.61,218.099,M,44.078,M,1.0,0084*6C
$GNGSA,A,3,24,25,29,31,32,06,12,02,,,,,1.17,0.61,1.00,1*0E
$GNGSA,A,3,33,31,26,01,24,05,09,13,,,,,1.17,0.61,1.00,3*0D
$GNGSA,A,3,12,35,26,13,24,25,,,,,,,1.17,0.61,1.00,4*07
$GPGSV,3,1,10,02,37,105,31,03,02,355,,06,28,057,25,12,74,062,47,1*6B
$GPGSV,3,2,10,19,07,044,25,24,34,152,44,25,67,285,41,29,32,209,46,1*64
$GPGSV,3,3,10,31,14,310,46,32,33,273,49,1*68
$GPGSV,3,1,10,02,37,105,,03,02,355,21,06,28,057,16,12,74,062,44,6*6E
$GPGSV,3,2,10,19,07,044,,24,34,152,40,25,67,285,46,29,32,209,42,6*63
$GPGSV,3,3,10,31,14,310,40,32,33,273,42,6*62
$GAGSV,3,1,10,01,54,088,41,04,08,210,15,05,20,314,45,09,27,259,42,7*7A
$GAGSV,3,2,10,13,17,034,28,21,07,096,11,24,17,280,47,26,43,090,38,7*79
$GAGSV,3,3,10,31,65,292,40,33,29,150,45,7*70
$GAGSV,3,1,10,01,54,088,41,04,08,210,20,05,20,314,42,09,27,259,45,2*79
$GAGSV,3,2,10,13,17,034,26,21,07,096,22,24,17,280,44,26,43,090,38,2*71
$GAGSV,3,3,10,31,65,292,51,33,29,150,47,2*77
$GBGSV,3,1,11,02,04,106,,05,18,128,,10,06,079,23,12,26,189,42,1*7B
$GBGSV,3,2,11,13,27,089,15,24,73,291,44,25,16,299,48,26,54,125,43,1*77
$GBGSV,3,3,11,29,12,040,,33,03,261,37,35,54,075,43,1*4A
$GBGSV,3,1,11,02,04,106,,05,18,128,,10,06,079,20,12,26,189,50,3*79
$GBGSV,3,2,11,13,27,089,,24,73,291,,25,16,299,,26,54,125,,3*7A
$GBGSV,3,3,11,29,12,040,,33,03,261,,35,54,075,,3*4B
$GNGLL,5025.4446905,N,01411.3816829,E,211914.00,A,D*7A
$GNVTG,,T,,M,0.009,N,0.016,K,D*36
$GNGGA,211915.00,5025.4446905,N,01411.3816841,E,4,12,0.61,218.096,M,44.078,M,1.0,0084*6C
$GNGSA,A,3,24,25,29,31,32,06,12,02,,,,,1.17,0.61,1.00,1*0E
$GNGSA,A,3,33,31,26,01,24,05,09,13,,,,,1.17,0.61,1.00,3*0D
$GNGSA,A,3,12,35,26,13,24,25,,,,,,,1.17,0.61,1.00,4*07
$GPGSV,3,1,10,02,37,105,31,03,02,355,,06,28,057,24,12,74,062,47,1*6A
$GPGSV,3,2,10,19,07,044,25,24,34,152,44,25,67,285,41,29,32,209,46,1*64
$GPGSV,3,3,10,31,14,310,46,32,33,273,49,1*68
$GPGSV,3,1,10,02,37,105,,03,02,355,21,06,28,057,15,12,74,062,44,6*6D
$GPGSV,3,2,10,19,07,044,,24,34,152,40,25,67,285,46,29,32,209,42,6*63
$GPGSV,3,3,10,31,14,310,40,32,33,273,42,6*62
$GAGSV,3,1,10,01,54,088,41,04,08,210,13,05,20,314,45,09,27,259,42,7*7C
$GAGSV,3,2,10,13,17,034,28,21,07,096,12,24,17,280,47,26,43,090,38,7*7A
$GAGSV,3,3,10,31,65,292,40,33,29,150,45,7*70
$GAGSV,3,1,10,01,54,088,41,04,08,210,20,05,20,314,42,09,27,259,45,2*79
$GAGSV,3,2,10,13,17,034,26,21,07,096,21,24,17,280,44,26,43,090,38,2*72
$GAGSV,3,3,10,31,65,292,51,33,29,150,47,2*77
$GBGSV,3,1,11,02,04,106,,05,18,128,,10,06,079,23,12,26,189,42,1*7B
$GBGSV,3,2,11,13,27,089,14,24,73,291,44,25,16,299,48,26,54,125,43,1*76
$GBGSV,3,3,11,29,12,040,,33,03,261,37,35,54,075,43,1*4A
$GBGSV,3,1,11,02,04,106,,05,18,128,,10,06,079,,12,26,189,49,3*73
$GBGSV,3,2,11,13,27,089,,24,73,291,,25,16,299,,26,54,125,,3*7A
$GBGSV,3,3,11,29,12,040,,33,03,261,,35,54,075,,3*4B
$GNGLL,5025.4446905,N,01411.3816841,E,211915.00,A,D*75
$GNRMC,211916.00,A,5025.4446896,N,01411.3816837,E,0.014,,241021,,,R,V*08
$GNVTG,,T,,M,0.014,N,0.026,K,D*39
$GNGGA,211916.00,5025.4446896,N,01411.3816837,E,4,12,0.61,218.099,M,44.078,M,1.0,0084*6A
$GNGSA,A,3,24,25,29,31,32,06,12,02,,,,,1.17,0.61,1.00,1*0E
$GNGSA,A,3,33,31,26,01,24,05,09,13,,,,,1.17,0.61,1.00,3*0D
$GNGSA,A,3,12,35,26,13,24,25,,,,,,,1.17,0.61,1.00,4*07
$GPGSV,3,1,10,02,37,105,30,03,02,355,,06,28,057,23,12,74,062,47,1*6C
$GPGSV,3,2,10,19,07,044,25,24,34,152,44,25,67,285,41,29,32,209,46,1*64
$GPGSV,3,3,10,31,14,310,46,32,33,273,49,1*68
$GPGSV,3,1,10,02,37,105,,03,02,355,21,06,28,057,14,12,74,062,44,6*6C
$GPGSV,3,2,10,19,07,044,,24,34,152,40,25,67,285,46,29,32,209,42,6*63
$GPGSV,3,3,10,31,14,310,40,32,33,273,42,6*62
$GAGSV,3,1,10,01,54,088,42,04,08,210,10,05,20,314,45,09,27,259,42,7*7C
$GAGSV,3,2,10,13,17,034,28,21,07,096,11,24,17,280,47,26,43,090,37,7*76
$GAGSV,3,3,10,31,65,292,40,33,29,150,45,7*70
$GAGSV,3,1,10,01,54,088,41,04,08,210,20,05,20,314,42,09,27,259,45,2*79
$GAGSV,3,2,10,13,17,034,26,21,07,096,21,24,17,280,44,26,43,090,38,2*72
$GAGSV,3,3,10,31,65,292,51,33,29,150,47,2*77
$GBGSV,3,1,11,02,04,106,,05,18,128,,10,06,079,23,12,26,189,42,1*7B
$GBGSV,3,2,11,13,27,089,13,24,73,291,44,25,16,299,48,26,54,125,43,1*71
$GBGSV,3,3,11,29,12,040,,33,03,261,37,35,54,075,43,1*4A
$GBGSV,3,1,11,02,04,106,,05,18,128,,10,06,079,,12,26,189,49,3*73
$GBGSV,3,2,11,13,27,089,,24,73,291,,25,16,299,,26,54,125,,3*7A
$GBGSV,3,3,11,29,12,040,,33,03,261,,35,54,075,,3*4B
$GNGLL,5025.4446896,N,01411.3816837,E,211916.00,A,D*7C
$GNRMC,211917.00,A,5025.4446903,N,01411.3816845,E,0.007,,241021,,,R,V*03
$GNVTG,,T,,M,0.007,N,0.013,K,D*3D
$GNGGA,211917.00,5025.4446903,N,01411.3816845,E,4,12,0.65,218.099,M,44.078,M,1.0,0084*67
$GNGSA,A,3,24,25,29,31,32,06,12,02,,,,,1.21,0.65,1.02,1*0D
$GNGSA,A,3,33,31,26,01,24,05,09,13,,,,,1.21,0.65,1.02,3*0E
$GNGSA,A,3,12,35,26,13,24,25,,,,,,,1.21,0.65,1.02,4*04
$GPGSV,3,1,10,02,37,105,29,03,02,355,,06,28,057,21,12,74,062,47,1*66
$GPGSV,3,2,10,19,07,044,25,24,34,152,44,25,67,285,41,29,32,209,46,1*64
$GPGSV,3,3,10,31,14,310,46,32,33,273,49,1*68
$GPGSV,3,1,10,02,37,105,,03,02,355,21,06,28,057,13,12,74,062,44,6*6B
$GPGSV,3,2,10,19,07,044,,24,34,152,40,25,67,285,46,29,32,209,42,6*63
$GPGSV,3,3,10,31,14,310,40,32,33,273,42,6*62
$GAGSV,3,1,10,01,54,088,42,04,08,210,08,05,20,314,45,09,27,259,42,7*75
$GAGSV,3,2,10,13,17,034,28,21,07,096,08,24,17,280,47,26,43,090,37,7*7E
$GAGSV,3,3,10,31,65,292,40,33,29,150,45,7*70
$GAGSV,3,1,10,01,54,088,41,04,08,210,19,05,20,314,42,09,27,259,45,2*73
$GAGSV,3,2,10,13,17,034,26,21,07,096,21,24,17,280,44,26,43,090,39,2*73
$GAGSV,3,3,10,31,65,292,51,33,29,150,47,2*77
$GBGSV,3,1,11,02,04,106,,05,18,128,,10,06,079,23,12,26,189,42,1*7B
$GBGSV,3,2,11,13,27,089,13,24,73,291,44,25,16,299,48,26,54,125,43,1*71
$GBGSV,3,3,11,29,12,040,,33,03,261,37,35,54,075,43,1*4A
$GBGSV,3,1,11,02,04,106,,05,18,128,,10,06,079,,12,26,189,49,3*73
$GBGSV,3,2,11,13,27,089,,24,73,291,,25,16,299,,26,54,125,,3*7A
$GBGSV,3,3,11,29,12,040,,33,03,261,,35,54,075,,3*4B
$GNGLL,5025.4446903,N,01411.3816845,E,211917.00,A,D*75
$GNRMC,211918.00,A,5025.4446916,N,01411.3816848,E,0.003,,241021,,,R,V*01
$GNVTG,,T,,M,0.003,N,0.006,K,D*3D
$GNGGA,211918.00,5025.4446916,N,01411.3816848,E,4,12,0.65,218.093,M,44.078,M,1.0,0084*6B
$GNGSA,A,3,24,25,29,31,32,06,12,02,,,,,1.21,0.65,1.02,1*0D
$GNGSA,A,3,33,31,26,01,24,05,09,13,,,,,1.21,0.65,1.02,3*0E
$GNGSA,A,3,12,35,26,13,24,25,,,,,,,1.21,0.65,1.02,4*04
$GPGSV,3,1,10,02,37,105,29,03,02,355,,06,28,057,19,12,74,062,47,1*6D
$GPGSV,3,2,10,19,07,044,25,24,34,152,44,25,67,285,41,29,32,209,46,1*64
$GPGSV,3,3,10,31,14,310,46,32,33,273,49,1*68
$GPGSV,3,1,10,02,37,105,,03,02,355,21,06,28,057,12,12,74,062,44,6*6A
$GPGSV,3,2,10,19,07,044,,24,34,152,40,25,67,285,46,29,32,209,42,6*63
$GPGSV,3,3,10,31,14,310,40,32,33,273,42,6*62
$GAGSV,3,1,10,01,54,088,42,04,08,210,10,05,20,314,45,09,27,259,42,7*7C
$GAGSV,3,2,10,13,17,034,28,21,07,096,09,24,17,280,47,26,43,090,37,7*7F
$GAGSV,3,3,10,31,65,292,41,33,29,150,44,7*70
$GAGSV,3,1,10,01,54,088,41,04,08,210,19,05,20,314,42,09,27,259,45,2*73
$GAGSV,3,2,10,13,17,034,26,21,07,096,21,24,17,280,44,26,43,090,39,2*73
$GAGSV,3,3,10,31,65,292,51,33,29,150,47,2*77
$GBGSV,3,1,11,02,04,106,,05,18,128,,10,06,079,23,12,26,189,42,1*7B
$GBGSV,3,2,11,13,27,089,14,24,73,291,43,25,16,299,48,26,54,125,43,1*71
$GBGSV,3,3,11,29,12,040,,33,03,261,37,35,54,075,43,1*4A
$GBGSV,3,1,11,02,04,106,,05,18,128,,10,06,079,,12,26,189,49,3*73
$GBGSV,3,2,11,13,27,089,,24,73,291,,25,16,299,,26,54,125,,3*7A
$GBGSV,3,3,11,29,12,040,,33,03,261,,35,54,075,,3*4B
$GNGLL,5025.4446916,N,01411.3816848,E,211918.00,A,D*73
$GNRMC,211919.00,A,5025.4446921,N,01411.3816866,E,0.003,,241021,,,R,V*08
$GNVTG,,T,,M,0.003,N,0.005,K,D*3E
$GNGGA,211919.00,5025.4446921,N,01411.3816866,E,4,12,0.65,218.094,M,44.078,M,1.0,0084*65
$GNGSA,A,3,24,25,29,31,32,06,12,02,,,,,1.21,0.65,1.02,1*0D
$GNGSA,A,3,33,31,26,01,24,05,09,13,,,,,1.21,0.65,1.02,3*0E
$GNGSA,A,3,12,35,26,13,24,25,,,,,,,1.21,0.65,1.02,4*04
$GPGSV,3,1,10,02,37,105,28,03,02,355,,06,28,057,18,12,74,062,47,1*6D
$GPGSV,3,2,10,19,07,044,26,24,34,152,44,25,67,285,42,29,32,209,46,1*64
$GPGSV,3,3,10,31,14,310,46,32,33,273,49,1*68
$GPGSV,3,1,10,02,37,105,,03,02,355,21,06,28,057,09,12,74,062,44,6*60
$GPGSV,3,2,10,19,07,044,,24,34,152,40,25,67,285,46,29,32,209,42,6*63
$GPGSV,3,3,10,31,14,310,40,32,33,273,42,6*62
$GAGSV,3,1,10,01,54,088,42,04,08,210,15,05,20,314,45,09,27,259,42,7*79
$GAGSV,3,2,10,13,17,034,28,21,07,096,09,24,17,280,47,26,43,090,37,7*7F
$GAGSV,3,3,10,31,65,292,41,33,29,150,44,7*70
$GAGSV,3,1,10,01,54,088,41,04,08,210,20,05,20,314,42,09,27,259,45,2*79
$GAGSV,3,2,10,13,17,034,26,21,07,096,21,24,17,280,44,26,43,090,38,2*72
$GAGSV,3,3,10,31,65,292,51,33,29,150,46,2*76
$GBGSV,3,1,11,02,04,106,,05,18,128,,10,06,079,23,12,26,189,42,1*7B
$GBGSV,3,2,11,13,27,089,12,24,73,291,44,25,16,299,48,26,54,125,43,1*70
$GBGSV,3,3,11,29,12,040,,33,03,261,37,35,54,075,43,1*4A
$GBGSV,3,1,11,02,04,106,,05,18,128,,10,06,079,19,12,26,189,49,3*7B
$GBGSV,3,2,11,13,27,089,,24,73,291,,25,16,299,,26,54,125,,3*7A
$GBGSV,3,3,11,29,12,040,,33,03,261,,35,54,075,,3*4B
$GNGLL,5025.4446921,N,01411.3816866,E,211919.00,A,D*7A
$GNRMC,211920.00,A,5025.4446904,N,01411.3816833,E,0.001,,241021,,,R,V*07
$GNVTG,,T,,M,0.001,N,0.002,K,D*3B
$GNGGA,211920.00,5025.4446904,N,01411.3816833,E,4,12,0.65,218.098,M,44.078,M,1.0,0084*64
$GNGSA,A,3,24,25,29,31,32,12,02,,,,,,1.21,0.65,1.02,1*0B
$GNGSA,A,3,33,31,26,01,24,05,09,13,,,,,1.21,0.65,1.02,3*0E
$GNGSA,A,3,12,35,26,13,24,25,,,,,,,1.21,0.65,1.02,4*04
$GPGSV,3,1,10,02,37,105,28,03,02,355,,06,28,057,,12,74,062,47,1*64
$GPGSV,3,2,10,19,07,044,26,24,34,152,44,25,67,285,42,29,32,209,46,1*64
$GPGSV,3,3,10,31,14,310,46,32,33,273,49,1*68
$GPGSV,3,1,10,02,37,105,,03,02,355,21,06,28,057,,12,74,062,44,6*69
$GPGSV,3,2,10,19,07,044,,24,34,152,40,25,67,285,46,29,32,209,42,6*63
$GPGSV,3,3,10,31,14,310,40,32,33,273,42,6*62
$GAGSV,3,1,10,01,54,088,42,04,08,210,10,05,20,314,45,09,27,259,42,7*7C
$GAGSV,3,2,10,13,17,034,28,21,07,096,09,24,17,280,47,26,43,090,37,7*7F
$GAGSV,3,3,10,31,65,292,41,33,29,150,44,7*70
$GAGSV,3,1,10,01,54,088,41,04,08,210,21,05,20,314,42,09,27,259,45,2*78
$GAGSV,3,2,10,13,17,034,26,21,07,096,22,24,17,280,44,26,43,090,38,2*71
$GAGSV,3,3,10,31,65,292,51,33,29,150,46,2*76
$GBGSV,3,1,11,02,04,106,,05,18,128,,10,06,079,23,12,26,189,42,1*7B
$GBGSV,3,2,11,13,27,089,13,24,73,291,44,25,16,299,48,26,54,125,43,1*71
$GBGSV,3,3,11,29,12,040,,33,03,261,37,35,54,075,43,1*4A
$GBGSV,3,1,11,02,04,106,,05,18,128,,10,06,079,,12,26,189,49,3*73
$GBGSV,3,2,11,13,27,089,,24,73,291,,25,16,299,,26,54,125,,3*7A
$GBGSV,3,3,11,29,12,040,,33,03,261,,35,54,075,,3*4B
$GNGLL,5025.4446904,N,01411.3816833,E,211920.00,A,D*77
$GNRMC,211921.00,A,5025.4446903,N,01411.3816830,E,0.001,,241021,,,R,V*02
$GNVTG,,T,,M,0.001,N,0.002,K,D*3B
$GNGGA,211921.00,5025.4446903,N,01411.3816830,E,4,12,0.65,218.100,M,44.078,M,1.0,0084*61
$GNGSA,A,3,24,25,29,31,32,12,02,,,,,,1.21,0.65,1.02,1*0B
$GNGSA,A,3,33,31,26,01,24,05,09,13,,,,,1.21,0.65,1.02,3*0E
$GNGSA,A,3,12,35,26,13,24,25,,,,,,,1.21,0.65,1.02,4*04
$GPGSV,3,1,10,02,37,105,27,03,02,355,,06,28,057,,12,74,062,47,1*6B
$GPGSV,3,2,10,19,07,044,26,24,34,152,44,25,67,285,42,29,32,209,46,1*64
$GPGSV,3,3,10,31,14,310,46,32,33,273,49,1*68
$GPGSV,3,1,10,02,37,105,,03,02,355,21,06,28,057,,12,74,062,44,6*69
$GPGSV,3,2,10,19,07,044,,24,34,152,41,25,67,285,46,29,32,209,42,6*62
$GPGSV,3,3,10,31,14,310,40,32,33,273,42,6*62
$GAGSV,3,1,10,01,54,088,42,04,08,210,07,05,20,314,45,09,27,259,42,7*7A
$GAGSV,3,2,10,13,17,034,28,21,07,096,09,24,17,280,47,26,43,090,37,7*7F
$GAGSV,3,3,10,31,65,292,41,33,29,150,44,7*70
$GAGSV,3,1,10,01,54,088,41,04,08,210,22,05,20,314,42,09,27,259,45,2*7B
$GAGSV,3,2,10,13,17,034,26,21,07,096,23,24,17,280,44,26,43,090,38,2*70
$GAGSV,3,3,10,31,65,292,51,33,29,150,46,2*76
$GBGSV,3,1,11,02,04,106,,05,18,128,,10,06,079,22,12,26,189,42,1*7A
$GBGSV,3,2,11,13,27,089,13,24,73,291,43,25,16,299,48,26,54,125,44,1*71
$GBGSV,3,3,11,29,12,040,24,33,03,261,36,35,54,075,43,1*4D
$GBGSV,3,1,11,02,04,106,,05,18,128,,10,06,079,,12,26,189,49,3*73
$GBGSV,3,2,11,13,27,089,,24,73,291,,25,16,299,,26,54,125,,3*7A
$GBGSV,3,3,11,29,12,040,,33,03,261,,35,54,075,,3*4B
$GNGLL,5025.4446903,N,01411.3816830,E,211921.00,A,D*72
$GNRMC,211922.00,A,5025.4446912,N,01411.3816861,E,0.010,,241021,,,R,V*05
$GNVTG,,T,,M,0.010,N,0.019,K,D*31
$GNGGA,211922.00,5025.4446912,N,01411.3816861,E,4,12,0.65,218.097,M,44.078,M,1.0,0084*69
$GNGSA,A,3,24,25,29,31,32,12,02,,,,,,1.21,0.65,1.02,1*0B
$GNGSA,A,3,33,31,26,01,24,05,09,13,,,,,1.21,0.65,1.02,3*0E
$GNGSA,A,3,12,35,26,13,24,25,,,,,,,1.21,0.65,1.02,4*04
$GPGSV,3,1,10,02,37,105,28,03,02,355,,06,28,057,,12,74,062,47,1*64
$GPGSV,3,2,10,19,07,044,26,24,34,152,44,25,67,285,42,29,32,209,46,1*64
$GPGSV,3,3,10,31,14,310,46,32,33,273,49,1*68
$GPGSV,3,1,10,02,37,105,,03,02,355,21,06,28,057,,12,74,062,44,6*69
$GPGSV,3,2,10,19,07,044,,24,34,152,40,25,67,285,46,29,32,209,42,6*63
$GPGSV,3,3,10,31,14,310,40,32,33,273,42,6*62
$GAGSV,3,1,10,01,54,088,42,04,08,210,10,05,20,314,45,09,27,259,42,7*7C
$GAGSV,3,2,10,13,17,034,27,21,07,096,09,24,17,280,47,26,43,090,37,7*70
$GAGSV,3,3,10,31,65,292,41,33,29,150,44,7*70
$GAGSV,3,1,10,01,54,088,41,04,08,210,23,05,20,314,42,09,27,259,45,2*7A
$GAGSV,3,2,10,13,17,034,26,21,07,096,23,24,17,280,44,26,43,090,39,2*71
$GAGSV,3,3,10,31,65,292,51,33,29,150,46,2*76
$GBGSV,3,1,11,02,04,106,,05,18,128,,10,06,079,23,12,27,189,42,1*7A
$GBGSV,3,2,11,13,27,089,14,24,73,291,44,25,16,299,48,26,54,125,44,1*71
$GBGSV,3,3,11,29,12,040,23,33,03,261,37,35,54,075,43,1*4B
$GBGSV,3,1,11,02,04,106,,05,18,128,,10,06,079,,12,27,189,49,3*72
$GBGSV,3,2,11,13,27,089,,24,73,291,,25,16,299,,26,54,125,,3*7A
$GBGSV,3,3,11,29,12,040,,33,03,261,,35,54,075,,3*4B
$GNGLL,5025.4446912,N,01411.3816861,E,211922.00,A,D*75
$GNRMC,211923.00,A,5025.4446913,N,01411.3816841,E,0.006,,241021,,,R,V*00
$GNVTG,,T,,M,0.006,N,0.012,K,D*3D
$GNGGA,211923.00,5025.4446913,N,01411.3816841,E,4,12,0.65,218.099,M,44.078,M,1.0,0084*65
$GNGSA,A,3,24,25,29,31,32,12,02,,,,,,1.21,0.65,1.02,1*0B
$GNGSA,A,3,33,31,26,01,24,05,09,13,,,,,1.21,0.65,1.02,3*0E
$GNGSA,A,3,12,35,29,26,13,24,25,,,,,,1.21,0.65,1.02,4*0F
$GPGSV,3,1,10,02,37,105,27,03,02,355,,06,28,057,,12,74,062,47,1*6B
$GPGSV,3,2,10,19,07,044,25,24,34,152,44,25,67,285,42,29,32,209,45,1*64
$GPGSV,3,3,10,31,14,310,47,32,33,273,49,1*69
$GPGSV,3,1,10,02,37,105,,03,02,355,20,06,28,057,,12,74,062,44,6*68
$GPGSV,3,2,10,19,07,044,,24,34,152,41,25,67,285,46,29,32,209,42,6*62
$GPGSV,3,3,10,31,14,310,40,32,33,273,42,6*62
$GAGSV,3,1,10,01,54,088,42,04,08,210,10,05,20,313,45,09,27,259,42,7*7B
$GAGSV,3,2,10,13,17,034,27,21,07,096,09,24,17,280,47,26,43,090,36,7*71
$GAGSV,3,3,10,31,65,292,41,33,29,150,44,7*70
$GAGSV,3,1,10,01,54,088,41,04,08,210,24,05,20,313,42,09,27,259,45,2*7A
$GAGSV,3,2,10,13,17,034,26,21,07,096,23,24,17,280,44,26,43,090,38,2*70
$GAGSV,3,3,10,31,65,292,51,33,29,150,46,2*76
$GBGSV,3,1,11,02,04,106,,05,18,128,,10,06,079,23,12,27,189,42,1*7A
$GBGSV,3,2,11,13,28,088,13,24,73,291,43,25,16,299,48,26,54,125,44,1*7F
$GBGSV,3,3,11,29,12,040,23,33,03,261,36,35,54,075,43,1*4A
$GBGSV,3,1,11,02,04,106,,05,18,128,,10,06,079,,12,27,189,49,3*72
$GBGSV,3,2,11,13,28,088,,24,73,291,,25,16,299,,26,54,125,,3*74
$GBGSV,3,3,11,29,12,040,,33,03,261,,35,54,075,,3*4B
$GNGLL,5025.4446913,N,01411.3816841,E,211923.00,A,D*77
$GNRMC,211924.00,A,5025.4446909,N,01411.3816838,E,0.003,,241021,,,R,V*07
$GNVTG,,T,,M,0.003,N,0.005,K,D*3E
