$GNGGA,213353.00,5025.4447596,N,01411.3818086,E,4,12,0.88,217.778,M,44.078,M,1.0,0084*63
$GNGSA,A,3,33,26,05,31,01,24,13,09,,,,,1.76,0.88,1.52,3*0A
$GNGSA,A,3,12,13,25,24,26,35,,,,,,,1.76,0.88,1.52,4*00
$GAGSV,3,1,10,01,50,093,34,04,03,208,20,05,21,309,45,09,24,255,45,7*77
$GAGSV,3,2,10,13,13,031,24,21,03,099,09,24,21,284,47,26,44,082,41,7*7D
$GAGSV,3,3,10,31,70,298,43,33,34,148,45,7*78
$GAGSV,3,1,10,01,50,093,42,04,03,208,18,05,21,309,44,09,24,255,48,2*74
$GAGSV,3,2,10,13,13,031,21,21,03,099,19,24,21,284,49,26,44,082,37,2*73
$GAGSV,3,3,10,31,70,298,47,33,34,148,38,2*73
$GBGSV,3,1,10,02,04,106,,05,18,128,,10,05,081,20,12,33,190,43,1*70
$GBGSV,3,2,10,13,30,087,32,24,78,281,38,25,21,301,47,26,48,129,42,1*71
$GBGSV,3,3,10,29,06,039,25,35,50,066,41,1*71
$GBGSV,3,1,10,02,04,106,,05,18,128,,10,05,081,,12,33,190,48,3*7B
$GBGSV,3,2,10,13,30,087,28,24,78,281,,25,21,301,,26,48,129,,3*76
$GBGSV,3,3,10,29,06,039,,35,50,066,,3*71
$GNGLL,5025.4447596,N,01411.3818086,E,213353.00,A,D*75
$GNTXT,01,01,02,Starting GNSS*5A
$GNRMC,213353.15,V,,,,,,,241021,,,N,V*1C
$GNVTG,,,,,,,,,N*2E
$GNGGA,213353.15,,,,,0,00,99.99,,,,,,*79
$GNGSA,A,1,,,,,,,,,,,,,99.99,99.99,99.99,1*33
$GNGSA,A,1,,,,,,,,,,,,,99.99,99.99,99.99,2*30
$GNGSA,A,1,,,,,,,,,,,,,99.99,99.99,99.99,4*36
$GPGSV,1,1,00,1*64
$GPGSV,1,1,00,6*63
$GLGSV,1,1,00,1*78
$GLGSV,1,1,00,3*7A
$GBGSV,1,1,00,1*76
$GBGSV,1,1,00,3*74
$GNGLL,,,,,213353.15,V,N*55
$GNRMC,213354.00,A,5025.4463980,N,01411.3781185,E,0.066,,241021,,,A,V*10
$GNVTG,,T,,M,0.066,N,0.122,K,A*3C
$GNGGA,213354.00,5025.4463980,N,01411.3781185,E,1,12,0.64,228.241,M,44.078,M,,*43
$GNGSA,A,3,24,31,32,29,12,25,02,06,,,,,1.25,0.64,1.07,1*0D
$GNGSA,A,3,81,87,88,69,79,78,,,,,,,1.25,0.64,1.07,2*08
$GNGSA,A,3,12,13,24,25,26,35,,,,,,,1.25,0.64,1.07,4*04
$GPGSV,3,1,10,02,40,097,39,03,01,349,,06,26,050,34,12,68,072,45,1*60
$GPGSV,3,2,10,19,01,044,26,24,27,154,46,25,74,294,36,29,39,211,44,1*65
$GPGSV,3,3,10,31,20,310,44,32,30,265,48,1*68
$GPGSV,3,1,10,02,40,097,,03,01,349,26,06,26,050,22,12,68,072,43,5*6B
$GPGSV,3,2,10,19,01,044,,24,27,154,43,25,74,294,45,29,39,211,39,5*6E
$GPGSV,3,3,10,31,20,310,39,32,30,265,43,5*6D
$GLGSV,3,1,09,68,00,239,,69,18,283,44,70,14,343,25,77,27,111,,1*7F
$GLGSV,3,2,09,78,78,045,49,79,36,308,48,81,20,184,42,87,48,048,40,1*7B
$GLGSV,3,3,09,88,62,133,45,1*45
$GLGSV,3,1,09,68,00,239,,69,18,283,42,70,14,343,,77,27,111,,3*7C
$GLGSV,3,2,09,78,78,045,42,79,36,308,42,81,20,184,40,87,48,048,,3*7E
$GLGSV,3,3,09,88,62,133,39,3*4C
$GBGSV,3,1,10,02,04,106,,05,18,128,,10,05,082,20,12,33,190,43,1*73
$GBGSV,3,2,10,13,31,087,33,24,79,280,38,25,21,301,47,26,48,129,42,1*71
$GBGSV,3,3,10,29,06,039,22,35,50,066,41,1*76
$GBGSV,3,1,10,02,04,106,,05,18,128,,10,05,082,,12,33,190,47,3*77
$GBGSV,3,2,10,13,31,087,27,24,79,280,,25,21,301,,26,48,129,,3*78
$GBGSV,3,3,10,29,06,039,,35,50,066,,3*71
$GNGLL,5025.4463980,N,01411.3781185,E,213354.00,A,A*77
$GNRMC,213355.00,A,5025.4475094,N,01411.3810657,E,0.073,,241021,,,A,V*11
$GNVTG,,T,,M,0.073,N,0.135,K,A*3E
$GNGGA,213355.00,5025.4475094,N,01411.3810657,E,1,12,0.64,222.396,M,44.078,M,,*47
$GNGSA,A,3,24,31,32,29,12,25,02,06,,,,,1.25,0.64,1.07,1*0D
$GNGSA,A,3,81,87,88,69,79,78,,,,,,,1.25,0.64,1.07,2*08
$GNGSA,A,3,12,13,24,25,26,35,,,,,,,1.25,0.64,1.07,4*04
$GPGSV,3,1,10,02,40,097,40,03,01,349,,06,26,050,35,12,68,072,45,1*6F
$GPGSV,3,2,10,19,01,044,26,24,27,154,47,25,74,294,37,29,39,211,45,1*64
$GPGSV,3,3,10,31,20,310,45,32,30,265,48,1*69
$GPGSV,3,1,10,02,40,097,,03,01,349,26,06,26,050,21,12,68,072,43,6*6B
$GPGSV,3,2,10,19,01,044,,24,27,154,43,25,74,294,45,29,39,211,39,6*6D
$GPGSV,3,3,10,31,20,310,39,32,30,265,43,6*6E
$GLGSV,3,1,09,68,00,239,,69,18,283,45,70,14,343,25,77,27,111,,1*7E
$GLGSV,3,2,09,78,78,045,49,79,36,308,49,81,20,184,43,87,48,048,42,1*79
$GLGSV,3,3,09,88,62,133,46,1*46
$GLGSV,3,1,09,68,00,239,,69,18,283,42,70,14,343,,77,27,111,,3*7C
$GLGSV,3,2,09,78,78,045,42,79,36,308,43,81,20,184,41,87,48,048,,3*7E
$GLGSV,3,3,09,88,62,133,40,3*42
$GBGSV,3,1,10,02,04,106,,05,18,128,,10,05,082,20,12,33,190,43,1*73
$GBGSV,3,2,10,13,31,087,32,24,79,280,38,25,21,301,47,26,48,129,42,1*70
$GBGSV,3,3,10,29,06,039,23,35,50,066,41,1*77
$GBGSV,3,1,10,02,04,106,,05,18,128,,10,05,082,,12,33,190,48,3*78
$GBGSV,3,2,10,13,31,087,27,24,79,280,,25,21,301,,26,48,129,,3*78
$GBGSV,3,3,10,29,06,039,,35,50,066,,3*71
$GNGLL,5025.4475094,N,01411.3810657,E,213355.00,A,A*72
$GNRMC,213356.00,A,5025.4470096,N,01411.3810854,E,0.003,,241021,,,A,V*1F
$GNVTG,,T,,M,0.003,N,0.005,K,A*3B
$GNGGA,213356.00,5025.4470096,N,01411.3810854,E,1,12,0.61,221.885,M,44.078,M,,*41
$GNGSA,A,3,24,31,32,29,12,25,02,06,,,,,1.18,0.61,1.01,1*00
$GNGSA,A,3,81,87,88,69,79,70,78,,,,,,1.18,0.61,1.01,2*02
$GNGSA,A,3,12,13,24,25,26,35,,,,,,,1.18,0.61,1.01,4*09
$GPGSV,3,1,10,02,40,097,40,03,01,349,,06,26,050,35,12,68,072,45,1*6F
$GPGSV,3,2,10,19,01,044,26,24,27,154,47,25,74,294,37,29,39,211,45,1*64
$GPGSV,3,3,10,31,20,310,45,32,30,265,48,1*69
$GPGSV,3,1,10,02,40,097,,03,01,349,24,06,26,050,20,12,68,072,43,6*68
$GPGSV,3,2,10,19,01,044,,24,27,154,43,25,74,294,45,29,39,211,39,6*6D
$GPGSV,3,3,10,31,20,310,39,32,30,265,43,6*6E
$GLGSV,3,1,09,68,00,239,,69,18,283,45,70,14,343,25,77,27,111,20,1*7C
$GLGSV,3,2,09,78,78,045,49,79,36,308,49,81,20,184,43,87,48,048,42,1*79
$GLGSV,3,3,09,88,62,133,46,1*46
$GLGSV,3,1,09,68,00,239,,69,18,283,42,70,14,343,,77,27,111,,3*7C
$GLGSV,3,2,09,78,78,045,43,79,36,308,43,81,20,184,41,87,48,048,,3*7F
$GLGSV,3,3,09,88,62,133,40,3*42
$GBGSV,3,1,10,02,04,106,,05,18,128,,10,05,082,21,12,33,190,43,1*72
$GBGSV,3,2,10,13,31,087,32,24,79,280,39,25,21,301,47,26,48,129,42,1*71
$GBGSV,3,3,10,29,06,039,24,35,50,066,41,1*70
$GBGSV,3,1,10,02,04,106,,05,18,128,,10,05,082,,12,33,190,48,3*78
$GBGSV,3,2,10,13,31,087,28,24,79,280,,25,21,301,,26,48,129,,3*77
$GBGSV,3,3,10,29,06,039,,35,50,066,,3*71
$GNGLL,5025.4470096,N,01411.3810854,E,213356.00,A,A*7B
$GNRMC,213357.00,A,5025.4467851,N,01411.3808027,E,0.019,,241021,,,A,V*15
$GNVTG,,T,,M,0.019,N,0.035,K,A*33
$GNGGA,213357.00,5025.4467851,N,01411.3808027,E,1,12,0.61,222.045,M,44.078,M,,*47
$GNGSA,A,3,24,31,32,29,12,25,02,06,,,,,1.18,0.61,1.01,1*00
$GNGSA,A,3,81,87,88,69,79,70,78,,,,,,1.18,0.61,1.01,2*02
$GNGSA,A,3,12,13,24,25,26,35,,,,,,,1.18,0.61,1.01,4*09
$GPGSV,3,1,10,02,40,097,40,03,01,349,,06,26,050,35,12,68,072,45,1*6F
$GPGSV,3,2,10,19,01,044,26,24,27,154,47,25,74,294,37,29,39,211,45,1*64
$GPGSV,3,3,10,31,20,310,45,32,30,265,48,1*69
$GPGSV,3,1,10,02,40,097,,03,01,349,25,06,26,050,20,12,68,072,43,6*69
$GPGSV,3,2,10,19,01,044,,24,27,154,43,25,74,294,45,29,39,211,39,6*6D
$GPGSV,3,3,10,31,20,310,39,32,30,265,43,6*6E
$GLGSV,3,1,09,68,00,239,,69,18,283,45,70,14,343,25,77,27,111,20,1*7C
$GLGSV,3,2,09,78,78,045,49,79,36,308,49,81,20,184,43,87,48,048,43,1*78
$GLGSV,3,3,09,88,62,133,45,1*45
$GLGSV,3,1,09,68,00,239,,69,18,283,43,70,14,343,,77,27,111,,3*7D
$GLGSV,3,2,09,78,78,045,43,79,36,308,44,81,20,184,41,87,48,048,,3*78
$GLGSV,3,3,09,88,62,133,41,3*43
$GBGSV,3,1,10,02,04,106,,05,18,128,,10,05,082,20,12,33,190,42,1*72
$GBGSV,3,2,10,13,31,087,31,24,79,280,39,25,21,301,46,26,48,129,42,1*73
$GBGSV,3,3,10,29,06,039,23,35,50,066,41,1*77
$GBGSV,3,1,10,02,04,106,,05,18,128,,10,05,082,,12,33,190,48,3*78
$GBGSV,3,2,10,13,31,087,28,24,79,280,,25,21,301,,26,48,129,,3*77
$GBGSV,3,3,10,29,06,039,,35,50,066,,3*71
$GNGLL,5025.4467851,N,01411.3808027,E,213357.00,A,A*7A
$GNRMC,213358.00,A,5025.4467323,N,01411.3806737,E,0.009,,241021,,,A,V*1D
$GNVTG,,T,,M,0.009,N,0.016,K,A*33
$GNGGA,213358.00,5025.4467323,N,01411.3806737,E,1,12,0.61,222.063,M,44.078,M,,*4A
$GNGSA,A,3,24,31,32,29,12,25,02,06,,,,,1.18,0.61,1.01,1*00
$GNGSA,A,3,81,87,88,69,79,70,78,,,,,,1.18,0.61,1.01,2*02
$GNGSA,A,3,12,13,24,25,26,35,,,,,,,1.18,0.61,1.01,4*09
$GPGSV,3,1,10,02,40,097,40,03,01,349,,06,26,050,35,12,68,072,45,1*6F
$GPGSV,3,2,10,19,01,044,26,24,27,154,47,25,74,294,37,29,39,211,44,1*65
$GPGSV,3,3,10,31,20,310,45,32,30,265,48,1*69
$GPGSV,3,1,10,02,40,097,,03,01,349,25,06,26,050,20,12,68,072,43,6*69
$GPGSV,3,2,10,19,01,044,,24,27,154,43,25,74,294,45,29,39,211,39,6*6D
$GPGSV,3,3,10,31,20,310,39,32,30,265,43,6*6E
$GLGSV,3,1,09,68,00,239,,69,18,283,45,70,14,343,25,77,27,111,20,1*7C
$GLGSV,3,2,09,78,78,045,49,79,36,308,49,81,20,184,43,87,48,048,43,1*78
$GLGSV,3,3,09,88,62,133,46,1*46
$GLGSV,3,1,09,68,00,239,,69,18,283,43,70,14,343,,77,27,111,,3*7D
$GLGSV,3,2,09,78,78,045,43,79,36,308,44,81,20,184,41,87,48,048,,3*78
$GLGSV,3,3,09,88,62,133,41,3*43
$GBGSV,3,1,10,02,04,106,,05,18,128,,10,05,082,21,12,33,190,43,1*72
$GBGSV,3,2,10,13,31,087,32,24,79,280,39,25,21,301,46,26,48,129,42,1*70
$GBGSV,3,3,10,29,06,039,23,35,50,066,41,1*77
$GBGSV,3,1,10,02,04,106,,05,18,128,,10,05,082,,12,33,190,48,3*78
$GBGSV,3,2,10,13,31,087,27,24,79,280,,25,21,301,,26,48,129,,3*78
$GBGSV,3,3,10,29,06,039,,35,50,066,,3*71
$GNGLL,5025.4467323,N,01411.3806737,E,213358.00,A,A*73
$GNRMC,213359.00,A,5025.4466556,N,01411.3806892,E,0.026,,241021,,,A,V*14
$GNVTG,,T,,M,0.026,N,0.048,K,A*35
$GNGGA,213359.00,5025.4466556,N,01411.3806892,E,1,12,0.59,221.869,M,44.078,M,,*44
$GNGSA,A,3,24,31,32,29,12,25,02,06,,,,,1.13,0.59,0.97,1*0E
$GNGSA,A,3,81,87,88,69,79,77,70,78,,,,,1.13,0.59,0.97,2*0C
$GNGSA,A,3,12,13,24,25,26,35,,,,,,,1.13,0.59,0.97,4*07
$GPGSV,3,1,10,02,40,097,40,03,01,349,,06,26,050,35,12,68,072,45,1*6F
$GPGSV,3,2,10,19,01,044,26,24,27,154,46,25,74,294,38,29,39,211,44,1*6B
$GPGSV,3,3,10,31,20,310,45,32,30,265,48,1*69
$GPGSV,3,1,10,02,40,097,,03,01,349,25,06,26,050,19,12,68,072,43,6*63
$GPGSV,3,2,10,19,01,044,,24,27,154,43,25,74,294,45,29,39,211,39,6*6D
$GPGSV,3,3,10,31,20,310,39,32,30,265,43,6*6E
$GLGSV,3,1,09,68,00,239,,69,18,283,45,70,14,343,26,77,27,111,20,1*7F
$GLGSV,3,2,09,78,78,045,49,79,36,308,50,81,20,184,44,87,48,048,43,1*77
$GLGSV,3,3,09,88,62,133,46,1*46
$GLGSV,3,1,09,68,00,239,,69,18,283,43,70,14,343,,77,27,111,,3*7D
$GLGSV,3,2,09,78,78,045,43,79,36,308,44,81,20,184,41,87,48,048,,3*78
$GLGSV,3,3,09,88,62,133,41,3*43
$GBGSV,3,1,10,02,04,106,,05,18,128,,10,05,082,21,12,33,190,43,1*72
$GBGSV,3,2,10,13,31,087,31,24,79,280,39,25,21,301,47,26,48,129,42,1*72
$GBGSV,3,3,10,29,06,039,23,35,50,066,41,1*77
$GBGSV,3,1,10,02,04,106,,05,18,128,,10,05,082,,12,33,190,48,3*78
$GBGSV,3,2,10,13,31,087,28,24,79,280,,25,21,301,,26,48,129,,3*77
$GBGSV,3,3,10,29,06,039,,35,50,066,,3*71
$GNGLL,5025.4466556,N,01411.3806892,E,213359.00,A,A*77
$GNRMC,213400.00,A,5025.4465317,N,01411.3807457,E,0.019,,241021,,,A,V*17
$GNVTG,,T,,M,0.019,N,0.036,K,A*30
$GNGGA,213400.00,5025.4465317,N,01411.3807457,E,1,12,0.61,221.369,M,44.078,M,,*4B
$GNGSA,A,3,24,31,32,29,12,25,02,06,,,,,1.18,0.61,1.01,1*00
$GNGSA,A,3,81,87,88,69,79,77,70,78,,,,,1.18,0.61,1.01,2*02
$GNGSA,A,3,12,13,24,25,26,35,,,,,,,1.18,0.61,1.01,4*09
$GPGSV,3,1,10,02,40,097,40,03,01,349,,06,26,050,35,12,68,072,45,1*6F
$GPGSV,3,2,10,19,01,044,26,24,27,154,46,25,74,294,38,29,39,211,45,1*6A
$GPGSV,3,3,10,31,20,310,45,32,30,265,48,1*69
$GPGSV,3,1,10,02,40,097,,03,01,349,25,06,26,050,19,12,68,072,43,6*63
$GPGSV,3,2,10,19,01,044,,24,27,154,43,25,74,294,45,29,39,211,39,6*6D
$GPGSV,3,3,10,31,20,310,39,32,30,265,43,6*6E
$GLGSV,3,1,09,68,00,239,,69,18,283,46,70,14,343,26,77,27,111,20,1*7C
$GLGSV,3,2,09,78,78,045,49,79,36,308,50,81,20,184,44,87,48,048,43,1*77
$GLGSV,3,3,09,88,62,133,46,1*46
$GLGSV,3,1,09,68,00,239,,69,18,283,43,70,14,343,,77,27,111,,3*7D
$GLGSV,3,2,09,78,78,045,43,79,36,308,44,81,20,184,41,87,48,048,,3*78
$GLGSV,3,3,09,88,62,133,41,3*43
$GBGSV,3,1,10,02,04,106,,05,18,128,,10,05,082,21,12,33,190,42,1*73
$GBGSV,3,2,10,13,31,087,31,24,79,280,40,25,21,301,47,26,48,129,42,1*7C
$GBGSV,3,3,10,29,06,039,24,35,50,066,41,1*70
$GBGSV,3,1,10,02,04,106,,05,18,128,,10,05,082,,12,33,190,48,3*78
$GBGSV,3,2,10,13,31,087,27,24,79,280,,25,21,301,,26,48,129,,3*78
$GBGSV,3,3,10,29,06,039,,35,50,066,,3*71
$GNGLL,5025.4465317,N,01411.3807457,E,213400.00,A,A*78
$GNRMC,213401.00,A,5025.4464247,N,01411.3808312,E,0.008,,241021,,,A,V*1A
$GNVTG,,T,,M,0.008,N,0.014,K,A*30
$GNGGA,213401.00,5025.4464247,N,01411.3808312,E,1,12,0.61,220.882,M,44.078,M,,*49
$GNGSA,A,3,24,31,32,29,12,25,02,06,,,,,1.18,0.61,1.01,1*00
$GNGSA,A,3,81,87,88,69,79,77,70,78,,,,,1.18,0.61,1.01,2*02
$GNGSA,A,3,12,13,24,25,26,35,,,,,,,1.18,0.61,1.01,4*09
$GPGSV,3,1,10,02,40,097,39,03,01,349,,06,26,050,35,12,68,072,45,1*61
$GPGSV,3,2,10,19,01,044,26,24,27,154,46,25,74,294,37,29,39,211,45,1*65
$GPGSV,3,3,10,31,20,310,45,32,30,265,48,1*69
$GPGSV,3,1,10,02,40,097,,03,01,349,25,06,26,050,19,12,68,072,43,6*63
$GPGSV,3,2,10,19,01,044,,24,27,154,43,25,74,294,45,29,39,211,39,6*6D
$GPGSV,3,3,10,31,20,310,39,32,30,265,43,6*6E
$GLGSV,3,1,09,68,00,239,,69,18,283,46,70,14,343,25,77,27,111,21,1*7E
$GLGSV,3,2,09,78,78,045,49,79,36,308,50,81,20,184,44,87,48,048,43,1*77
$GLGSV,3,3,09,88,62,133,46,1*46
$GLGSV,3,1,09,68,00,239,,69,18,283,43,70,14,343,,77,27,111,,3*7D
$GLGSV,3,2,09,78,78,045,43,79,36,308,44,81,20,184,42,87,48,048,,3*7B
$GLGSV,3,3,09,88,62,133,41,3*43
$GBGSV,3,1,10,02,04,106,,05,18,128,,10,05,082,20,12,33,190,42,1*72
$GBGSV,3,2,10,13,31,087,32,24,79,280,40,25,21,301,47,26,48,129,42,1*7F
$GBGSV,3,3,10,29,06,039,23,35,50,066,41,1*77
$GBGSV,3,1,10,02,04,106,,05,18,128,,10,05,082,,12,33,190,48,3*78
$GBGSV,3,2,10,13,31,087,27,24,79,280,,25,21,301,,26,48,129,,3*78
$GBGSV,3,3,10,29,06,039,,35,50,066,,3*71
$GNGLL,5025.4464247,N,01411.3808312,E,213401.00,A,A*75
$GNRMC,213402.00,A,5025.4463457,N,01411.3809004,E,0.006,,241021,,,A,V*12
$GNVTG,,T,,M,0.006,N,0.010,K,A*3A
$GNGGA,213402.00,5025.4463457,N,01411.3809004,E,1,12,0.61,220.535,M,44.078,M,,*4E
$GNGSA,A,3,24,31,32,29,12,25,02,06,,,,,1.18,0.61,1.01,1*00
$GNGSA,A,3,81,87,88,69,79,77,70,78,,,,,1.18,0.61,1.01,2*02
$GNGSA,A,3,12,13,24,25,26,35,,,,,,,1.18,0.61,1.01,4*09
$GPGSV,3,1,10,02,40,097,39,03,01,349,,06,26,050,35,12,68,072,45,1*61
$GPGSV,3,2,10,19,01,044,26,24,27,154,46,25,74,294,37,29,39,211,45,1*65
$GPGSV,3,3,10,31,20,310,45,32,30,265,48,1*69
$GPGSV,3,1,10,02,40,097,,03,01,349,24,06,26,050,19,12,68,072,43,6*62
$GPGSV,3,2,10,19,01,044,,24,27,154,43,25,74,294,45,29,39,211,39,6*6D
$GPGSV,3,3,10,31,20,310,39,32,30,265,43,6*6E
$GLGSV,3,1,09,68,00,239,,69,18,283,46,70,14,343,25,77,27,111,21,1*7E
$GLGSV,3,2,09,78,78,045,49,79,36,308,50,81,20,184,44,87,48,048,43,1*77
$GLGSV,3,3,09,88,62,133,46,1*46
$GLGSV,3,1,09,68,00,239,,69,18,283,43,70,14,343,,77,27,111,,3*7D
$GLGSV,3,2,09,78,78,045,43,79,36,308,44,81,20,184,42,87,48,048,,3*7B
$GLGSV,3,3,09,88,62,133,41,3*43
$GBGSV,3,1,10,02,04,106,,05,18,128,,10,05,082,21,12,33,190,42,1*73
$GBGSV,3,2,10,13,31,087,32,24,79,280,40,25,21,301,47,26,48,129,42,1*7F
$GBGSV,3,3,10,29,06,039,24,35,50,066,41,1*70
$GBGSV,3,1,10,02,04,106,,05,18,128,,10,05,082,,12,33,190,48,3*78
$GBGSV,3,2,10,13,31,087,27,24,79,280,,25,21,301,,26,48,129,,3*78
$GBGSV,3,3,10,29,06,039,,35,50,066,,3*71
$GNGLL,5025.4463457,N,01411.3809004,E,213402.00,A,A*73
$GNRMC,213403.00,A,5025.4462965,N,01411.3809534,E,0.006,,241021,,,A,V*18
$GNVTG,,T,,M,0.006,N,0.011,K,A*3B
$GNGGA,213403.00,5025.4462965,N,01411.3809534,E,1,12,0.61,220.276,M,44.078,M,,*44
$GNGSA,A,3,24,31,32,29,12,25,02,06,,,,,1.18,0.61,1.01,1*00
$GNGSA,A,3,81,87,88,69,79,77,70,78,,,,,1.18,0.61,1.01,2*02
$GNGSA,A,3,12,13,24,25,26,35,,,,,,,1.18,0.61,1.01,4*09
$GPGSV,3,1,10,02,40,097,39,03,01,349,,06,26,050,35,12,68,072,45,1*61
$GPGSV,3,2,10,19,01,044,26,24,27,154,46,25,74,294,37,29,39,211,45,1*65
$GPGSV,3,3,10,31,20,310,45,32,30,265,48,1*69
$GPGSV,3,1,10,02,40,097,,03,01,349,24,06,26,050,18,12,68,072,43,6*63
$GPGSV,3,2,10,19,01,044,,24,27,154,43,25,74,294,45,29,39,211,38,6*6C
$GPGSV,3,3,10,31,20,310,39,32,30,265,43,6*6E
$GLGSV,3,1,09,68,00,239,,69,18,283,46,70,14,343,25,77,27,111,21,1*7E
$GLGSV,3,2,09,78,78,045,49,79,36,308,50,81,20,184,44,87,48,048,43,1*77
$GLGSV,3,3,09,88,62,133,46,1*46
$GLGSV,3,1,09,68,00,239,,69,18,283,44,70,14,343,,77,27,111,,3*7A
$GLGSV,3,2,09,78,78,045,43,79,36,308,44,81,20,184,42,87,48,048,,3*7B
$GLGSV,3,3,09,88,62,133,41,3*43
$GBGSV,3,1,10,02,04,106,,05,18,128,,10,05,082,20,12,33,190,42,1*72
$GBGSV,3,2,10,13,31,087,32,24,79,280,40,25,21,301,47,26,48,129,41,1*7C
$GBGSV,3,3,10,29,06,039,24,35,50,066,41,1*70
$GBGSV,3,1,10,02,04,106,,05,18,128,,10,05,082,,12,33,190,48,3*78
$GBGSV,3,2,10,13,31,087,27,24,79,280,,25,21,301,,26,48,129,,3*78
$GBGSV,3,3,10,29,06,039,,35,50,066,,3*71
$GNGLL,5025.4462965,N,01411.3809534,E,213403.00,A,A*79
$GNRMC,213404.00,A,5025.4462518,N,01411.3809975,E,0.008,,241021,,,A,V*1E
$GNVTG,,T,,M,0.008,N,0.014,K,A*30
$GNGGA,213404.00,5025.4462518,N,01411.3809975,E,1,12,0.61,220.058,M,44.078,M,,*42
$GNGSA,A,3,24,31,32,29,12,25,02,06,,,,,1.18,0.61,1.01,1*00
$GNGSA,A,3,81,87,88,69,79,77,70,78,,,,,1.18,0.61,1.01,2*02
$GNGSA,A,3,12,13,24,25,26,35,,,,,,,1.18,0.61,1.01,4*09
$GPGSV,3,1,10,02,40,097,39,03,01,349,,06,26,050,35,12,68,072,45,1*61
$GPGSV,3,2,10,19,01,044,25,24,27,154,46,25,74,294,37,29,39,211,45,1*66
$GPGSV,3,3,10,31,20,310,45,32,30,265,48,1*69
$GPGSV,3,1,10,02,40,097,,03,01,349,24,06,26,050,19,12,68,072,43,6*62
$GPGSV,3,2,10,19,01,044,,24,27,154,44,25,74,294,45,29,39,211,39,6*6A
$GPGSV,3,3,10,31,20,310,39,32,30,265,43,6*6E
$GLGSV,3,1,09,68,00,239,,69,18,283,46,70,14,343,25,77,27,111,20,1*7F
$GLGSV,3,2,09,78,78,045,49,79,36,308,50,81,20,184,44,87,48,048,43,1*77
$GLGSV,3,3,09,88,62,133,45,1*45
$GLGSV,3,1,09,68,00,239,,69,18,283,44,70,14,343,,77,27,111,,3*7A
$GLGSV,3,2,09,78,78,045,43,79,36,308,44,81,20,184,42,87,48,048,,3*7B
$GLGSV,3,3,09,88,62,133,41,3*43
$GBGSV,3,1,10,02,04,106,,05,18,128,,10,05,082,21,12,33,190,42,1*73
$GBGSV,3,2,10,13,31,087,31,24,79,280,40,25,21,301,47,26,48,129,41,1*7F
$GBGSV,3,3,10,29,06,039,24,35,50,066,41,1*70
$GBGSV,3,1,10,02,04,106,,05,18,128,,10,05,082,,12,33,190,48,3*78
$GBGSV,3,2,10,13,31,087,27,24,79,280,,25,21,301,,26,48,129,,3*78
$GBGSV,3,3,10,29,06,039,,35,50,066,,3*71
$GNGLL,5025.4462518,N,01411.3809975,E,213404.00,A,A*71
$GNRMC,213405.00,A,5025.4462150,N,01411.3810361,E,0.006,,241021,,,A,V*1E
$GNVTG,,T,,M,0.006,N,0.011,K,A*3B
$GNGGA,213405.00,5025.4462150,N,01411.3810361,E,1,12,0.61,219.892,M,44.078,M,,*48
$GNGSA,A,3,24,31,32,29,12,25,02,06,,,,,1.18,0.61,1.01,1*00
$GNGSA,A,3,81,87,88,69,79,77,70,78,,,,,1.18,0.61,1.01,2*02
$GNGSA,A,3,12,13,24,25,26,35,,,,,,,1.18,0.61,1.01,4*09
$GPGSV,3,1,10,02,40,097,39,03,01,349,,06,26,050,35,12,68,072,45,1*61
$GPGSV,3,2,10,19,01,044,25,24,27,154,46,25,74,294,37,29,39,211,45,1*66
$GPGSV,3,3,10,31,20,310,45,32,30,265,48,1*69
$GPGSV,3,1,10,02,40,097,,03,01,349,23,06,26,050,19,12,68,072,43,6*65
$GPGSV,3,2,10,19,01,044,,24,27,154,44,25,74,294,45,29,39,211,38,6*6B
$GPGSV,3,3,10,31,20,310,39,32,30,265,43,6*6E
$GLGSV,3,1,09,68,00,239,,69,18,283,46,70,14,343,25,77,27,111,19,1*75
$GLGSV,3,2,09,78,78,045,49,79,36,308,50,81,20,184,44,87,48,048,43,1*77
$GLGSV,3,3,09,88,62,133,45,1*45
$GLGSV,3,1,09,68,00,239,,69,18,283,44,70,14,343,,77,27,111,,3*7A
$GLGSV,3,2,09,78,78,045,43,79,36,308,44,81,20,184,42,87,48,048,,3*7B
$GLGSV,3,3,09,88,62,133,41,3*43
$GBGSV,3,1,10,02,04,106,,05,18,128,,10,05,082,21,12,33,190,42,1*73
$GBGSV,3,2,10,13,31,087,31,24,79,280,40,25,21,301,47,26,48,129,41,1*7F
$GBGSV,3,3,10,29,06,039,24,35,50,066,41,1*70
$GBGSV,3,1,10,02,04,106,,05,18,128,,10,05,082,,12,33,190,48,3*78
$GBGSV,3,2,10,13,31,087,27,24,79,280,,25,21,301,,26,48,129,,3*78
$GBGSV,3,3,10,29,06,039,,35,50,066,,3*71
$GNGLL,5025.4462150,N,01411.3810361,E,213405.00,A,A*7F
$GNRMC,213406.00,A,5025.4461904,N,01411.3810703,E,0.003,,241021,,,A,V*12
$GNVTG,,T,,M,0.003,N,0.006,K,A*38
$GNGGA,213406.00,5025.4461904,N,01411.3810703,E,1,12,0.61,219.740,M,44.078,M,,*41
$GNGSA,A,3,24,31,32,29,12,25,02,06,,,,,1.18,0.61,1.01,1*00
$GNGSA,A,3,81,87,88,69,79,77,70,78,,,,,1.18,0.61,1.01,2*02
$GNGSA,A,3,12,13,24,25,26,35,,,,,,,1.18,0.61,1.01,4*09
$GPGSV,3,1,10,02,40,097,39,03,01,349,,06,26,050,34,12,68,072,45,1*60
$GPGSV,3,2,10,19,01,044,24,24,27,154,46,25,74,294,37,29,39,211,45,1*67
$GPGSV,3,3,10,31,20,310,45,32,30,265,48,1*69
$GPGSV,3,1,10,02,40,097,,03,01,349,23,06,26,050,20,12,68,072,43,6*6F
$GPGSV,3,2,10,19,01,044,,24,27,154,44,25,74,294,45,29,39,211,38,6*6B
$GPGSV,3,3,10,31,20,310,39,32,30,265,43,6*6E
$GLGSV,3,1,09,68,00,239,,69,18,283,46,70,14,343,25,77,27,111,18,1*74
$GLGSV,3,2,09,78,78,045,49,79,36,308,50,81,20,184,44,87,48,048,43,1*77
$GLGSV,3,3,09,88,62,133,45,1*45
$GLGSV,3,1,09,68,00,239,,69,18,283,44,70,14,343,,77,27,111,,3*7A
$GLGSV,3,2,09,78,78,045,43,79,36,308,44,81,20,184,42,87,48,048,,3*7B
$GLGSV,3,3,09,88,62,133,41,3*43
$GBGSV,3,1,10,02,04,106,,05,18,128,,10,05,082,20,12,33,190,42,1*72
$GBGSV,3,2,10,13,31,087,31,24,79,280,40,25,21,301,47,26,48,129,41,1*7F
$GBGSV,3,3,10,29,06,039,24,35,50,066,41,1*70
$GBGSV,3,1,10,02,04,106,,05,18,128,,10,05,082,,12,33,190,48,3*78
$GBGSV,3,2,10,13,31,087,27,24,79,280,,25,21,301,,26,48,129,,3*78
$GBGSV,3,3,10,29,06,039,,35,50,066,,3*71
$GNGLL,5025.4461904,N,01411.3810703,E,213406.00,A,A*76
$GNRMC,213407.00,A,5025.4461694,N,01411.3810993,E,0.019,,241021,,,A,V*19
$GNVTG,,T,,M,0.019,N,0.035,K,A*33
$GNGGA,213407.00,5025.4461694,N,01411.3810993,E,1,12,0.61,219.613,M,44.078,M,,*46
$GNGSA,A,3,24,31,32,29,12,25,02,06,,,,,1.18,0.61,1.01,1*00
$GNGSA,A,3,81,87,88,69,79,77,70,78,,,,,1.18,0.61,1.01,2*02
$GNGSA,A,3,12,13,24,25,26,35,,,,,,,1.18,0.61,1.01,4*09
$GPGSV,3,1,10,02,40,097,39,03,01,349,,06,26,050,34,12,68,072,45,1*60
$GPGSV,3,2,10,19,01,044,23,24,27,154,46,25,74,294,37,29,39,211,45,1*60
$GPGSV,3,3,10,31,20,310,45,32,30,265,48,1*69
$GPGSV,3,1,10,02,40,097,,03,01,349,22,06,26,050,20,12,68,072,43,6*6E
$GPGSV,3,2,10,19,01,044,,24,27,154,44,25,74,294,45,29,39,211,38,6*6B
$GPGSV,3,3,10,31,20,310,39,32,30,265,43,6*6E
$GLGSV,3,1,09,68,00,239,,69,18,283,46,70,14,343,25,77,27,111,18,1*74
$GLGSV,3,2,09,78,78,045,49,79,36,308,50,81,20,184,44,87,48,048,43,1*77
$GLGSV,3,3,09,88,62,133,45,1*45
$GLGSV,3,1,09,68,00,239,,69,18,283,44,70,14,343,,77,27,111,,3*7A
$GLGSV,3,2,09,78,78,045,43,79,36,308,44,81,20,184,42,87,48,048,,3*7B
$GLGSV,3,3,09,88,62,133,41,3*43
$GBGSV,3,1,10,02,04,106,,05,18,128,,10,05,082,20,12,33,190,42,1*72
$GBGSV,3,2,10,13,31,087,31,24,79,280,40,25,21,301,46,26,48,129,41,1*7E
$GBGSV,3,3,10,29,06,039,23,35,50,066,41,1*77
$GBGSV,3,1,10,02,04,106,,05,18,128,,10,05,082,,12,33,190,48,3*78
$GBGSV,3,2,10,13,31,087,27,24,79,280,,25,21,301,,26,48,129,,3*78
$GBGSV,3,3,10,29,06,039,,35,50,066,,3*71
$GNGLL,5025.4461694,N,01411.3810993,E,213407.00,A,A*76
$GNRMC,213408.00,A,5025.4461455,N,01411.3811146,E,0.006,,241021,,,A,V*16
$GNVTG,,T,,M,0.006,N,0.010,K,A*3A
$GNGGA,213408.00,5025.4461455,N,01411.3811146,E,1,12,0.61,219.512,M,44.078,M,,*45
$GNGSA,A,3,24,31,32,29,12,25,02,06,,,,,1.18,0.61,1.01,1*00
$GNGSA,A,3,81,87,88,69,79,77,70,78,,,,,1.18,0.61,1.01,2*02
$GNGSA,A,3,12,13,24,25,26,35,,,,,,,1.18,0.61,1.01,4*09
$GPGSV,3,1,10,02,40,097,39,03,01,349,,06,26,050,35,12,68,072,46,1*62
$GPGSV,3,2,10,19,01,044,22,24,27,154,46,25,74,294,37,29,39,211,45,1*61
$GPGSV,3,3,10,31,20,310,45,32,30,265,48,1*69
$GPGSV,3,1,10,02,40,097,,03,01,349,22,06,26,050,21,12,68,072,43,6*6F
$GPGSV,3,2,10,19,01,044,,24,27,154,44,25,74,294,45,29,39,211,38,6*6B
$GPGSV,3,3,10,31,20,310,39,32,30,265,43,6*6E
$GLGSV,3,1,09,68,00,239,,69,18,283,46,70,14,343,25,77,27,111,17,1*7B
$GLGSV,3,2,09,78,78,045,49,79,36,308,50,81,20,184,44,87,48,048,44,1*70
$GLGSV,3,3,09,88,62,133,45,1*45
$GLGSV,3,1,09,68,00,239,,69,18,283,43,70,14,343,,77,27,111,,3*7D
$GLGSV,3,2,09,78,78,045,43,79,36,308,44,81,20,184,42,87,48,048,,3*7B
$GLGSV,3,3,09,88,62,133,41,3*43
$GBGSV,3,1,10,02,04,106,,05,18,128,,10,05,082,20,12,33,190,42,1*72
$GBGSV,3,2,10,13,31,087,31,24,79,280,40,25,21,301,46,26,48,129,41,1*7E
$GBGSV,3,3,10,29,06,039,22,35,50,066,41,1*76
$GBGSV,3,1,10,02,04,106,,05,18,128,,10,05,082,,12,33,190,48,3*78
$GBGSV,3,2,10,13,31,087,27,24,79,280,,25,21,301,,26,48,129,,3*78
$GBGSV,3,3,10,29,06,039,,35,50,066,,3*71
$GNGLL,5025.4461455,N,01411.3811146,E,213408.00,A,A*77
$GNRMC,213409.00,A,5025.4461523,N,01411.3811672,E,0.083,,241021,,,A,V*1A
$GNVTG,,T,,M,0.083,N,0.154,K,A*36
$GNGGA,213409.00,5025.4461523,N,01411.3811672,E,1,12,0.61,219.444,M,44.078,M,,*46
$GNGSA,A,3,24,31,32,29,12,25,02,06,,,,,1.18,0.61,1.01,1*00
$GNGSA,A,3,81,87,88,69,79,77,70,78,,,,,1.18,0.61,1.01,2*02
$GNGSA,A,3,12,13,24,25,26,35,,,,,,,1.18,0.61,1.01,4*09
$GPGSV,3,1,10,02,40,097,39,03,01,349,,06,26,050,35,12,68,072,46,1*62
$GPGSV,3,2,10,19,01,044,21,24,27,154,46,25,74,294,37,29,39,211,45,1*62
$GPGSV,3,3,10,31,20,310,45,32,30,265,48,1*69
$GPGSV,3,1,10,02,40,097,,03,01,349,21,06,26,050,21,12,68,072,43,6*6C
$GPGSV,3,2,10,19,01,044,,24,27,154,44,25,74,294,45,29,39,211,38,6*6B
$GPGSV,3,3,10,31,20,310,39,32,30,265,43,6*6E
$GLGSV,3,1,09,68,00,239,,69,18,283,46,70,14,343,25,77,27,111,16,1*7A
$GLGSV,3,2,09,78,78,045,49,79,36,308,50,81,20,184,44,87,48,048,44,1*70
$GLGSV,3,3,09,88,62,133,44,1*44
$GLGSV,3,1,09,68,00,239,,69,18,283,43,70,14,343,,77,27,111,,3*7D
$GLGSV,3,2,09,78,78,045,43,79,36,308,44,81,20,184,42,87,48,048,,3*7B
$GLGSV,3,3,09,88,62,133,41,3*43
$GBGSV,3,1,10,02,04,106,,05,18,128,,10,05,082,20,12,33,190,42,1*72
$GBGSV,3,2,10,13,31,087,31,24,79,280,40,25,21,301,46,26,48,129,41,1*7E
$GBGSV,3,3,10,29,06,039,22,35,50,066,41,1*76
$GBGSV,3,1,10,02,04,106,,05,18,128,,10,05,082,,12,33,190,48,3*78
$GBGSV,3,2,10,13,31,087,27,24,79,280,,25,21,301,,26,48,129,,3*78
$GBGSV,3,3,10,29,06,039,,35,50,066,,3*71
$GNGLL,5025.4461523,N,01411.3811672,E,213409.00,A,A*76
$GNRMC,213410.00,A,5025.4461477,N,01411.3812042,E,0.005,,241021,,,A,V*1A
$GNVTG,,T,,M,0.005,N,0.009,K,A*31
$GNGGA,213410.00,5025.4461477,N,01411.3812042,E,1,12,0.61,219.382,M,44.078,M,,*45
$GNGSA,A,3,24,31,32,29,12,25,02,06,,,,,1.18,0.61,1.01,1*00
$GNGSA,A,3,81,87,88,69,79,77,70,78,,,,,1.18,0.61,1.01,2*02
$GNGSA,A,3,12,13,24,25,26,35,,,,,,,1.18,0.61,1.01,4*09
$GPGSV,3,1,10,02,40,097,39,03,01,349,,06,26,050,35,12,68,072,46,1*62
$GPGSV,3,2,10,19,01,044,22,24,27,154,46,25,74,294,38,29,39,211,45,1*6E
$GPGSV,3,3,10,31,20,310,45,32,30,265,48,1*69
$GPGSV,3,1,10,02,40,097,,03,01,349,20,06,26,050,22,12,68,072,43,6*6E
$GPGSV,3,2,10,19,01,044,,24,27,154,44,25,74,294,45,29,39,211,38,6*6B
$GPGSV,3,3,10,31,20,310,39,32,30,265,43,6*6E
$GLGSV,3,1,09,68,00,239,,69,18,283,46,70,14,343,25,77,27,111,15,1*79
$GLGSV,3,2,09,78,78,046,49,79,36,308,50,81,20,184,44,87,48,048,44,1*73
$GLGSV,3,3,09,88,62,133,44,1*44
$GLGSV,3,1,09,68,00,239,,69,18,283,43,70,14,343,,77,27,111,,3*7D
$GLGSV,3,2,09,78,78,046,43,79,36,308,44,81,20,184,42,87,48,048,,3*78
$GLGSV,3,3,09,88,62,133,41,3*43
$GBGSV,3,1,10,02,04,106,,05,18,128,,10,05,082,19,12,33,190,42,1*78
$GBGSV,3,2,10,13,31,087,31,24,79,280,40,25,21,301,46,26,48,129,41,1*7E
$GBGSV,3,3,10,29,06,039,21,35,50,066,41,1*75
$GBGSV,3,1,10,02,04,106,,05,18,128,,10,05,082,,12,33,190,48,3*78
$GBGSV,3,2,10,13,31,087,27,24,79,280,,25,21,301,,26,48,129,,3*78
$GBGSV,3,3,10,29,06,039,,35,50,066,,3*71
$GNGLL,5025.4461477,N,01411.3812042,E,213410.00,A,A*78
$GNRMC,213411.00,A,5025.4461604,N,01411.3812701,E,0.013,,241021,,,A,V*1A
$GNVTG,,T,,M,0.013,N,0.024,K,A*39
$GNGGA,213411.00,5025.4461604,N,01411.3812701,E,1,12,0.61,219.280,M,44.078,M,,*41
$GNGSA,A,3,24,31,32,29,12,25,02,06,,,,,1.18,0.61,1.01,1*00
$GNGSA,A,3,81,87,88,69,79,77,70,78,,,,,1.18,0.61,1.01,2*02
$GNGSA,A,3,12,13,24,25,26,35,,,,,,,1.18,0.61,1.01,4*09
$GPGSV,3,1,10,02,40,097,39,03,01,349,,06,26,050,35,12,68,072,46,1*62
$GPGSV,3,2,10,19,01,044,22,24,27,154,46,25,74,294,38,29,39,211,45,1*6E
$GPGSV,3,3,10,31,20,310,45,32,30,265,48,1*69
$GPGSV,3,1,10,02,40,097,,03,01,349,20,06,26,050,22,12,68,072,43,6*6E
$GPGSV,3,2,10,19,01,044,,24,27,154,44,25,74,294,46,29,39,211,38,6*68
$GPGSV,3,3,10,31,20,310,39,32,30,265,43,6*6E
$GLGSV,3,1,09,68,00,239,,69,18,283,47,70,14,343,24,77,27,111,15,1*79
$GLGSV,3,2,09,78,78,046,49,79,36,308,50,81,20,184,44,87,48,048,44,1*73
$GLGSV,3,3,09,88,62,133,44,1*44
$GLGSV,3,1,09,68,00,239,,69,18,283,43,70,14,343,,77,27,111,,3*7D
$GLGSV,3,2,09,78,78,046,43,79,36,308,44,81,20,184,42,87,48,048,,3*78
$GLGSV,3,3,09,88,62,133,41,3*43
$GBGSV,3,1,10,02,04,106,,05,18,128,,10,05,082,19,12,33,190,42,1*78
$GBGSV,3,2,10,13,31,087,31,24,79,280,40,25,21,301,46,26,48,129,41,1*7E
$GBGSV,3,3,10,29,06,039,22,35,50,066,41,1*76
$GBGSV,3,1,10,02,04,106,,05,18,128,,10,05,082,,12,33,190,48,3*78
$GBGSV,3,2,10,13,31,087,27,24,79,280,,25,21,301,,26,48,129,,3*78
$GBGSV,3,3,10,29,06,039,,35,50,066,,3*71
$GNGLL,5025.4461604,N,01411.3812701,E,213411.00,A,A*7F
$GNRMC,213412.00,A,5025.4461705,N,01411.3813307,E,0.010,,241021,,,A,V*19
$GNVTG,,T,,M,0.010,N,0.018,K,A*35
$GNGGA,213412.00,5025.4461705,N,01411.3813307,E,1,12,0.61,219.183,M,44.078,M,,*41
$GNGSA,A,3,24,31,32,29,12,25,02,06,,,,,1.18,0.61,1.01,1*00
$GNGSA,A,3,81,87,88,69,79,77,70,78,,,,,1.18,0.61,1.01,2*02
$GNGSA,A,3,12,13,24,25,26,35,,,,,,,1.18,0.61,1.01,4*09
$GPGSV,3,1,10,02,40,097,39,03,01,349,,06,26,050,35,12,68,072,46,1*62
$GPGSV,3,2,10,19,01,044,23,24,27,154,46,25,74,294,38,29,39,211,44,1*6E
$GPGSV,3,3,10,31,20,310,45,32,30,265,48,1*69
$GPGSV,3,1,10,02,40,097,,03,01,349,19,06,26,050,22,12,68,072,44,6*63
$GPGSV,3,2,10,19,01,044,,24,27,154,44,25,74,294,46,29,39,211,38,6*68
$GPGSV,3,3,10,31,20,310,40,32,30,265,43,6*60
$GLGSV,3,1,09,68,00,239,,69,18,283,47,70,14,343,24,77,27,111,14,1*78
$GLGSV,3,2,09,78,78,046,49,79,36,308,50,81,20,184,44,87,48,048,44,1*73
$GLGSV,3,3,09,88,62,133,44,1*44
$GLGSV,3,1,09,68,00,239,,69,18,283,43,70,14,343,,77,27,111,,3*7D
$GLGSV,3,2,09,78,78,046,43,79,36,308,44,81,20,184,42,87,48,048,,3*78
$GLGSV,3,3,09,88,62,133,41,3*43
$GBGSV,3,1,10,02,04,106,,05,18,128,,10,05,082,19,12,33,190,42,1*78
$GBGSV,3,2,10,13,31,087,31,24,79,280,40,25,21,301,47,26,48,129,41,1*7F
$GBGSV,3,3,10,29,06,039,23,35,50,066,41,1*77
$GBGSV,3,1,10,02,04,106,,05,18,128,,10,05,082,,12,33,190,48,3*78
$GBGSV,3,2,10,13,31,087,27,24,79,280,,25,21,301,,26,48,129,,3*78
$GBGSV,3,3,10,29,06,039,,35,50,066,,3*71
$GNGLL,5025.4461705,N,01411.3813307,E,213412.00,A,A*7F
$GNRMC,213413.00,A,5025.4461777,N,01411.3813864,E,0.002,,241021,,,A,V*10
$GNVTG,,T,,M,0.002,N,0.005,K,A*3A
$GNGGA,213413.00,5025.4461777,N,01411.3813864,E,1,12,0.61,219.092,M,44.078,M,,*4A
$GNGSA,A,3,24,31,32,29,12,25,02,06,,,,,1.18,0.61,1.01,1*00
$GNGSA,A,3,81,87,88,69,79,77,70,78,,,,,1.18,0.61,1.01,2*02
$GNGSA,A,3,12,13,24,25,26,35,,,,,,,1.18,0.61,1.01,4*09
$GPGSV,3,1,10,02,40,097,39,03,01,349,,06,26,050,35,12,68,072,46,1*62
$GPGSV,3,2,10,19,01,044,24,24,27,154,46,25,74,294,38,29,39,211,44,1*69
$GPGSV,3,3,10,31,20,310,45,32,30,265,48,1*69
$GPGSV,3,1,10,02,40,097,,03,01,349,19,06,26,050,22,12,68,072,44,6*63
$GPGSV,3,2,10,19,01,044,,24,27,154,44,25,74,294,46,29,39,211,38,6*68
$GPGSV,3,3,10,31,20,310,40,32,30,265,43,6*60
$GLGSV,3,1,09,68,00,239,,69,18,283,47,70,14,343,24,77,27,111,14,1*78
$GLGSV,3,2,09,78,78,046,49,79,36,308,50,81,20,184,44,87,48,048,44,1*73
$GLGSV,3,3,09,88,62,133,44,1*44
$GLGSV,3,1,09,68,00,239,,69,18,283,43,70,14,343,,77,27,111,,3*7D
$GLGSV,3,2,09,78,78,046,43,79,36,308,44,81,20,184,42,87,48,048,,3*78
$GLGSV,3,3,09,88,62,133,41,3*43
$GBGSV,3,1,10,02,04,106,,05,18,128,,10,05,082,19,12,33,190,42,1*78
$GBGSV,3,2,10,13,31,087,31,24,79,280,41,25,21,301,47,26,48,129,40,1*7F
$GBGSV,3,3,10,29,06,039,23,35,50,066,41,1*77
$GBGSV,3,1,10,02,04,106,,05,18,128,,10,05,082,,12,33,190,48,3*78
$GBGSV,3,2,10,13,31,087,27,24,79,280,,25,21,301,,26,48,129,,3*78
$GBGSV,3,3,10,29,06,039,,35,50,066,,3*71
$GNGLL,5025.4461777,N,01411.3813864,E,213413.00,A,A*75
$GNRMC,213414.00,A,5025.4461864,N,01411.3814409,E,0.018,,241021,,,A,V*11
$GNVTG,,T,,M,0.018,N,0.034,K,A*33
$GNGGA,213414.00,5025.4461864,N,01411.3814409,E,1,12,0.61,219.003,M,44.078,M,,*48
$GNGSA,A,3,24,31,32,29,12,25,02,06,,,,,1.18,0.61,1.01,1*00
$GNGSA,A,3,81,87,88,69,79,77,70,78,,,,,1.18,0.61,1.01,2*02
$GNGSA,A,3,12,13,24,25,26,35,,,,,,,1.18,0.61,1.01,4*09
$GPGSV,3,1,10,02,40,097,39,03,01,349,25,06,26,050,35,12,68,072,46,1*65
$GPGSV,3,2,10,19,01,044,24,24,27,154,46,25,74,295,38,29,39,211,44,1*68
$GPGSV,3,3,10,31,20,310,45,32,30,265,48,1*69
$GPGSV,3,1,10,02,40,097,,03,01,349,19,06,26,050,22,12,68,072,44,6*63
$GPGSV,3,2,10,19,01,044,,24,27,154,44,25,74,295,46,29,39,211,38,6*69
$GPGSV,3,3,10,31,20,310,40,32,30,265,43,6*60
$GLGSV,3,1,09,68,00,239,,69,18,283,47,70,14,343,24,77,27,111,13,1*7F
$GLGSV,3,2,09,78,78,046,49,79,36,308,50,81,20,184,44,87,48,048,44,1*73
$GLGSV,3,3,09,88,62,133,44,1*44
$GLGSV,3,1,09,68,00,239,,69,18,283,43,70,14,343,,77,27,111,,3*7D
$GLGSV,3,2,09,78,78,046,43,79,36,308,44,81,20,184,42,87,48,048,,3*78
$GLGSV,3,3,09,88,62,133,41,3*43
$GBGSV,3,1,10,02,04,106,,05,18,128,,10,05,082,19,12,33,190,41,1*7B
$GBGSV,3,2,10,13,31,087,31,24,79,280,41,25,21,301,47,26,48,129,40,1*7F
$GBGSV,3,3,10,29,06,039,23,35,50,066,40,1*76
$GBGSV,3,1,10,02,04,106,,05,18,128,,10,05,082,,12,33,190,48,3*78
$GBGSV,3,2,10,13,31,087,27,24,79,280,,25,21,301,,26,48,129,,3*78
$GBGSV,3,3,10,29,06,039,,35,50,066,,3*71
$GNGLL,5025.4461864,N,01411.3814409,E,213414.00,A,A*7F
$GNRMC,213415.00,A,5025.4462039,N,01411.3815087,E,0.004,,241021,,,A,V*1D
$GNVTG,,T,,M,0.004,N,0.007,K,A*3E
$GNGGA,213415.00,5025.4462039,N,01411.3815087,E,1,12,0.61,218.903,M,44.078,M,,*41
$GNGSA,A,3,24,31,32,29,12,25,02,06,,,,,1.18,0.61,1.01,1*00
$GNGSA,A,3,81,87,88,69,79,77,70,78,,,,,1.18,0.61,1.01,2*02
$GNGSA,A,3,12,13,24,25,26,35,,,,,,,1.18,0.61,1.01,4*09
$GPGSV,3,1,10,02,40,097,39,03,01,349,25,06,26,050,34,12,68,072,46,1*64
$GPGSV,3,2,10,19,01,044,25,24,27,154,46,25,74,295,38,29,39,211,44,1*69
$GPGSV,3,3,10,31,20,310,45,32,30,265,48,1*69
$GPGSV,3,1,10,02,40,097,,03,01,349,20,06,26,050,22,12,68,072,44,6*69
$GPGSV,3,2,10,19,01,044,,24,27,154,44,25,74,295,46,29,39,211,38,6*69
$GPGSV,3,3,10,31,20,310,40,32,30,265,43,6*60
$GLGSV,3,1,09,68,00,239,,69,18,283,47,70,14,343,24,77,27,111,14,1*78
$GLGSV,3,2,09,78,78,046,49,79,36,308,50,81,20,184,44,87,48,048,45,1*72
$GLGSV,3,3,09,88,62,133,43,1*43
$GLGSV,3,1,09,68,00,239,,69,18,283,43,70,14,343,,77,27,111,,3*7D
$GLGSV,3,2,09,78,78,046,43,79,36,308,44,81,20,184,42,87,48,048,,3*78
$GLGSV,3,3,09,88,62,133,41,3*43
$GBGSV,3,1,10,02,04,106,,05,18,128,,10,05,082,20,12,33,190,41,1*71
$GBGSV,3,2,10,13,31,087,31,24,79,280,41,25,21,301,47,26,48,129,40,1*7F
$GBGSV,3,3,10,29,06,039,22,35,50,066,40,1*77
$GBGSV,3,1,10,02,04,106,,05,18,128,,10,05,082,,12,33,190,48,3*78
$GBGSV,3,2,10,13,31,087,27,24,79,280,,25,21,301,,26,48,129,,3*78
$GBGSV,3,3,10,29,06,039,,35,50,066,,3*71
$GNGLL,5025.4462039,N,01411.3815087,E,213415.00,A,A*7E
$GNRMC,213416.00,A,5025.4462208,N,01411.3815687,E,0.003,,241021,,,A,V*1F
$GNVTG,,T,,M,0.003,N,0.006,K,A*38
$GNGGA,213416.00,5025.4462208,N,01411.3815687,E,1,12,0.61,218.818,M,44.078,M,,*4F
$GNGSA,A,3,24,31,32,29,12,25,02,06,,,,,1.18,0.61,1.01,1*00
$GNGSA,A,3,81,87,88,69,79,77,70,78,,,,,1.18,0.61,1.01,2*02
$GNGSA,A,3,12,13,24,25,26,35,,,,,,,1.18,0.61,1.01,4*09
$GPGSV,3,1,10,02,40,097,39,03,01,349,25,06,26,050,34,12,68,072,46,1*64
$GPGSV,3,2,10,19,01,044,25,24,27,154,46,25,74,295,38,29,39,211,44,1*69
$GPGSV,3,3,10,31,20,310,45,32,30,265,48,1*69
$GPGSV,3,1,10,02,40,097,,03,01,349,21,06,26,050,22,12,68,072,44,6*68
$GPGSV,3,2,10,19,01,044,,24,27,154,44,25,74,295,46,29,39,211,38,6*69
$GPGSV,3,3,10,31,20,310,40,32,30,265,43,6*60
$GLGSV,3,1,09,68,00,239,,69,18,283,47,70,14,343,23,77,27,111,16,1*7D
$GLGSV,3,2,09,78,78,046,49,79,36,308,50,81,20,184,44,87,48,048,45,1*72
$GLGSV,3,3,09,88,62,133,43,1*43
$GLGSV,3,1,09,68,00,239,,69,18,283,43,70,14,343,,77,27,111,,3*7D
$GLGSV,3,2,09,78,78,046,43,79,36,308,44,81,20,184,42,87,48,048,,3*78
$GLGSV,3,3,09,88,62,133,41,3*43
$GBGSV,3,1,10,02,04,106,,05,18,128,,10,05,082,20,12,33,190,41,1*71
$GBGSV,3,2,10,13,31,087,30,24,79,280,41,25,21,301,47,26,48,129,40,1*7E
$GBGSV,3,3,10,29,06,039,22,35,50,066,40,1*77
$GBGSV,3,1,10,02,04,106,,05,18,128,,10,05,082,,12,33,190,48,3*78
$GBGSV,3,2,10,13,31,087,27,24,79,280,,25,21,301,,26,48,129,,3*78
$GBGSV,3,3,10,29,06,039,,35,50,066,,3*71
$GNGLL,5025.4462208,N,01411.3815687,E,213416.00,A,A*7B
$GNRMC,213417.00,A,5025.4462348,N,01411.3816186,E,0.009,,241021,,,A,V*14
$GNVTG,,T,,M,0.009,N,0.016,K,A*33
$GNGGA,213417.00,5025.4462348,N,01411.3816186,E,1,12,0.61,218.744,M,44.078,M,,*48
$GNGSA,A,3,24,31,32,29,12,25,02,06,,,,,1.18,0.61,1.01,1*00
$GNGSA,A,3,81,87,88,69,79,77,70,78,,,,,1.18,0.61,1.01,2*02
$GNGSA,A,3,12,13,24,25,26,35,,,,,,,1.18,0.61,1.01,4*09
$GPGSV,3,1,10,02,40,097,39,03,01,349,25,06,26,050,33,12,68,072,46,1*63
$GPGSV,3,2,10,19,01,044,25,24,27,154,46,25,74,295,38,29,39,212,44,1*6A
$GPGSV,3,3,10,31,20,310,46,32,30,265,48,1*6A
$GPGSV,3,1,10,02,40,097,,03,01,349,21,06,26,050,22,12,68,072,44,6*68
$GPGSV,3,2,10,19,01,044,,24,27,154,44,25,74,295,46,29,39,212,38,6*6A
$GPGSV,3,3,10,31,20,310,40,32,30,265,43,6*60
$GLGSV,3,1,09,68,00,239,,69,18,283,47,70,14,343,23,77,27,111,16,1*7D
$GLGSV,3,2,09,78,78,046,49,79,36,308,50,81,20,184,44,87,48,048,45,1*72
$GLGSV,3,3,09,88,62,133,43,1*43
$GLGSV,3,1,09,68,00,239,,69,18,283,43,70,14,343,,77,27,111,15,3*79
$GLGSV,3,2,09,78,78,046,43,79,36,308,44,81,20,184,42,87,48,048,,3*78
$GLGSV,3,3,09,88,62,133,41,3*43
$GBGSV,3,1,10,02,04,106,,05,18,128,,10,05,082,21,12,33,190,41,1*70
$GBGSV,3,2,10,13,31,087,30,24,79,280,41,25,21,301,47,26,48,129,40,1*7E
$GBGSV,3,3,10,29,06,039,23,35,50,066,40,1*76
$GBGSV,3,1,10,02,04,106,,05,18,128,,10,05,082,,12,33,190,48,3*78
$GBGSV,3,2,10,13,31,087,27,24,79,280,,25,21,301,,26,48,129,,3*78
$GBGSV,3,3,10,29,06,039,,35,50,066,,3*71
$GNGLL,5025.4462348,N,01411.3816186,E,213417.00,A,A*7A
$GNRMC,213418.00,A,5025.4462457,N,01411.3816663,E,0.011,,241021,,,A,V*17
$GNVTG,,T,,M,0.011,N,0.020,K,A*3F
$GNGGA,213418.00,5025.4462457,N,01411.3816663,E,1,12,0.61,218.670,M,44.078,M,,*44
$GNGSA,A,3,24,31,32,29,12,25,02,06,,,,,1.18,0.61,1.01,1*00
$GNGSA,A,3,81,87,88,69,79,77,70,78,,,,,1.18,0.61,1.01,2*02
$GNGSA,A,3,12,13,24,25,26,35,,,,,,,1.18,0.61,1.01,4*09
$GPGSV,3,1,10,02,40,097,39,03,01,349,25,06,26,050,33,12,68,072,46,1*63
$GPGSV,3,2,10,19,01,044,25,24,27,154,46,25,74,295,38,29,39,212,44,1*6A
$GPGSV,3,3,10,31,20,310,46,32,30,265,48,1*6A
$GPGSV,3,1,10,02,40,097,,03,01,349,22,06,26,050,21,12,68,072,44,6*68
$GPGSV,3,2,10,19,01,044,,24,27,154,44,25,74,295,46,29,39,212,38,6*6A
$GPGSV,3,3,10,31,20,310,40,32,30,265,43,6*60
$GLGSV,3,1,09,68,00,239,,69,18,283,47,70,14,343,23,77,27,111,15,1*7E
$GLGSV,3,2,09,78,78,046,49,79,36,308,50,81,20,184,45,87,48,048,45,1*73
$GLGSV,3,3,09,88,62,133,43,1*43
$GLGSV,3,1,09,68,00,239,,69,18,283,43,70,14,343,,77,27,111,16,3*7A
$GLGSV,3,2,09,78,78,046,42,79,36,308,44,81,20,184,42,87,48,048,,3*79
$GLGSV,3,3,09,88,62,133,41,3*43
$GBGSV,3,1,10,02,04,106,,05,18,128,,10,05,082,20,12,33,190,41,1*71
$GBGSV,3,2,10,13,31,087,30,24,79,280,41,25,21,301,47,26,48,129,40,1*7E
$GBGSV,3,3,10,29,06,039,23,35,50,066,40,1*76
$GBGSV,3,1,10,02,04,106,,05,18,128,,10,05,082,,12,33,190,48,3*78
$GBGSV,3,2,10,13,31,087,27,24,79,280,,25,21,301,,26,48,129,,3*78
$GBGSV,3,3,10,29,06,039,,35,50,066,,3*71
$GNGLL,5025.4462457,N,01411.3816663,E,213418.00,A,A*70
$GNRMC,213419.00,A,5025.4462523,N,01411.3816947,E,0.008,,241021,,,A,V*15
$GNVTG,,T,,M,0.008,N,0.014,K,A*30
$GNGGA,213419.00,5025.4462523,N,01411.3816947,E,1,12,0.61,218.621,M,44.078,M,,*4A
$GNGSA,A,3,24,31,32,29,12,25,02,06,,,,,1.18,0.61,1.01,1*00
$GNGSA,A,3,81,87,88,69,79,77,70,78,,,,,1.18,0.61,1.01,2*02
$GNGSA,A,3,12,13,24,25,26,35,,,,,,,1.18,0.61,1.01,4*09
$GPGSV,3,1,10,02,40,097,40,03,01,349,25,06,26,050,32,12,68,072,46,1*6C
$GPGSV,3,2,10,19,01,044,26,24,27,154,46,25,74,295,39,29,39,212,44,1*68
$GPGSV,3,3,10,31,20,310,46,32,30,265,48,1*6A
$GPGSV,3,1,10,02,40,097,,03,01,349,22,06,26,050,21,12,68,072,44,6*68
$GPGSV,3,2,10,19,01,044,,24,27,154,44,25,74,295,46,29,39,212,38,6*6A
$GPGSV,3,3,10,31,20,310,40,32,30,265,43,6*60
$GLGSV,3,1,09,68,00,239,,69,18,283,47,70,14,343,23,77,27,111,16,1*7D
$GLGSV,3,2,09,78,78,046,49,79,36,308,50,81,20,184,45,87,48,048,45,1*73
$GLGSV,3,3,09,88,62,133,43,1*43
$GLGSV,3,1,09,68,00,239,,69,18,283,43,70,14,343,,77,27,111,17,3*7B
$GLGSV,3,2,09,78,78,046,42,79,36,308,44,81,20,184,42,87,48,048,,3*79
$GLGSV,3,3,09,88,62,133,41,3*43
$GBGSV,3,1,10,02,04,106,,05,18,128,,10,05,082,21,12,33,190,41,1*70
$GBGSV,3,2,10,13,31,087,30,24,79,280,41,25,21,301,47,26,48,129,40,1*7E
$GBGSV,3,3,10,29,06,039,23,35,50,066,40,1*76
$GBGSV,3,1,10,02,04,106,,05,18,128,,10,05,082,,12,33,190,48,3*78
$GBGSV,3,2,10,13,31,087,27,24,79,280,,25,21,301,,26,48,129,,3*78
$GBGSV,3,3,10,29,06,039,,35,50,066,,3*71
$GNGLL,5025.4462523,N,01411.3816947,E,213419.00,A,A*7A
$GNRMC,213420.00,A,5025.4462546,N,01411.3817168,E,0.007,,241021,,,A,V*17
$GNVTG,,T,,M,0.007,N,0.013,K,A*38
$GNGGA,213420.00,5025.4462546,N,01411.3817168,E,1,12,0.61,218.594,M,44.078,M,,*4A
$GNGSA,A,3,24,31,32,29,12,25,02,06,,,,,1.18,0.61,1.01,1*00
$GNGSA,A,3,81,87,88,69,79,77,70,78,,,,,1.18,0.61,1.01,2*02
$GNGSA,A,3,12,13,24,25,26,35,,,,,,,1.18,0.61,1.01,4*09
$GPGSV,3,1,10,02,40,097,40,03,01,349,26,06,26,050,32,12,68,072,46,1*6F
$GPGSV,3,2,10,19,01,044,26,24,27,154,46,25,74,295,39,29,39,212,44,1*68
$GPGSV,3,3,10,31,20,310,45,32,30,265,48,1*69
$GPGSV,3,1,10,02,40,097,,03,01,349,22,06,26,050,20,12,68,072,44,6*69
$GPGSV,3,2,10,19,01,044,,24,27,154,44,25,74,295,46,29,39,212,38,6*6A
$GPGSV,3,3,10,31,20,310,40,32,30,265,44,6*67
$GLGSV,3,1,09,68,00,239,,69,18,283,47,70,14,343,23,77,27,111,16,1*7D
$GLGSV,3,2,09,78,78,046,49,79,36,308,50,81,20,184,45,87,48,048,45,1*73
$GLGSV,3,3,09,88,62,133,43,1*43
$GLGSV,3,1,09,68,00,239,,69,18,283,43,70,14,343,,77,27,111,16,3*7A
$GLGSV,3,2,09,78,78,046,42,79,36,308,44,81,20,184,42,87,48,048,,3*79
$GLGSV,3,3,09,88,62,133,42,3*40
$GBGSV,3,1,10,02,04,106,,05,18,128,,10,05,082,21,12,33,190,41,1*70
$GBGSV,3,2,10,13,31,087,30,24,79,280,41,25,21,301,47,26,48,129,40,1*7E
$GBGSV,3,3,10,29,06,039,22,35,50,066,40,1*77
$GBGSV,3,1,10,02,04,106,,05,18,128,,10,05,082,,12,33,190,48,3*78
$GBGSV,3,2,10,13,31,087,27,24,79,280,,25,21,301,,26,48,129,,3*78
$GBGSV,3,3,10,29,06,039,,35,50,066,,3*71
$GNGLL,5025.4462546,N,01411.3817168,E,213420.00,A,A*77
$GNRMC,213421.00,A,5025.4462542,N,01411.3817310,E,0.016,,241021,,,A,V*1F
$GNVTG,,T,,M,0.016,N,0.030,K,A*39
$GNGGA,213421.00,5025.4462542,N,01411.3817310,E,1,12,0.59,218.587,M,44.078,M,,*4B
$GNGSA,A,3,24,31,32,29,12,25,02,06,,,,,1.14,0.59,0.97,1*09
$GNGSA,A,3,81,87,88,69,79,77,70,78,,,,,1.14,0.59,0.97,2*0B
$GNGSA,A,3,12,13,24,25,26,35,,,,,,,1.14,0.59,0.97,4*00
$GPGSV,3,1,10,02,40,097,40,03,01,349,25,06,26,050,32,12,68,072,46,1*6C
$GPGSV,3,2,10,19,01,044,26,24,27,154,46,25,74,295,39,29,39,212,44,1*68
$GPGSV,3,3,10,31,20,310,45,32,30,265,48,1*69
$GPGSV,3,1,10,02,40,097,,03,01,349,23,06,26,050,20,12,68,072,44,6*68
$GPGSV,3,2,10,19,01,044,,24,27,154,44,25,74,295,45,29,39,212,38,6*69
$GPGSV,3,3,10,31,20,310,40,32,30,265,44,6*67
$GLGSV,3,1,09,68,00,239,,69,18,283,47,70,14,343,22,77,27,111,16,1*7C
$GLGSV,3,2,09,78,78,046,50,79,36,308,50,81,20,184,45,87,48,048,46,1*78
$GLGSV,3,3,09,88,62,133,43,1*43
$GLGSV,3,1,09,68,00,239,,69,18,283,43,70,14,343,,77,27,111,16,3*7A
$GLGSV,3,2,09,78,78,046,42,79,36,308,44,81,20,184,42,87,48,048,,3*79
$GLGSV,3,3,09,88,62,133,42,3*40
$GBGSV,3,1,10,02,04,106,,05,18,128,,10,05,082,21,12,33,190,41,1*70
$GBGSV,3,2,10,13,31,087,30,24,79,280,41,25,21,301,47,26,48,129,40,1*7E
$GBGSV,3,3,10,29,06,039,22,35,50,066,40,1*77
$GBGSV,3,1,10,02,04,106,,05,18,128,,10,05,082,,12,33,190,48,3*78
$GBGSV,3,2,10,13,31,087,27,24,79,280,,25,21,301,,26,48,129,,3*78
$GBGSV,3,3,10,29,06,039,,35,50,066,,3*71
$GNGLL,5025.4462542,N,01411.3817310,E,213421.00,A,A*7F
$GNRMC,213422.00,A,5025.4462533,N,01411.3817419,E,0.016,,241021,,,A,V*14
$GNVTG,,T,,M,0.016,N,0.030,K,A*39
$GNGGA,213422.00,5025.4462533,N,01411.3817419,E,1,12,0.59,218.589,M,44.078,M,,*4E
$GNGSA,A,3,24,31,32,29,12,25,02,06,,,,,1.14,0.59,0.97,1*09
$GNGSA,A,3,81,87,88,69,79,77,70,78,,,,,1.14,0.59,0.97,2*0B
$GNGSA,A,3,12,13,24,25,26,35,,,,,,,1.14,0.59,0.97,4*00
$GPGSV,3,1,10,02,40,097,40,03,01,349,25,06,26,050,32,12,68,072,46,1*6C
$GPGSV,3,2,10,19,01,044,26,24,27,154,46,25,74,295,39,29,39,212,44,1*68
$GPGSV,3,3,10,31,20,310,45,32,30,265,48,1*69
$GPGSV,3,1,10,02,40,097,,03,01,349,23,06,26,050,20,12,68,072,44,6*68
$GPGSV,3,2,10,19,01,044,,24,27,154,44,25,74,295,45,29,39,212,38,6*69
$GPGSV,3,3,10,31,20,310,40,32,30,265,44,6*67
$GLGSV,3,1,09,68,00,239,,69,18,283,47,70,14,343,22,77,27,111,16,1*7C
$GLGSV,3,2,09,78,78,046,50,79,36,308,50,81,20,184,45,87,48,048,46,1*78
$GLGSV,3,3,09,88,62,133,43,1*43
$GLGSV,3,1,09,68,00,239,,69,18,283,43,70,14,343,,77,27,111,16,3*7A
$GLGSV,3,2,09,78,78,046,42,79,36,308,45,81,20,184,42,87,48,048,,3*78
$GLGSV,3,3,09,88,62,133,42,3*40
$GBGSV,3,1,10,02,04,106,,05,18,128,,10,05,082,21,12,33,190,41,1*70
$GBGSV,3,2,10,13,31,087,30,24,79,280,41,25,21,301,47,26,48,129,40,1*7E
$GBGSV,3,3,10,29,06,039,21,35,50,066,40,1*74
$GBGSV,3,1,10,02,04,106,,05,18,128,,10,05,082,,12,33,190,48,3*78
$GBGSV,3,2,10,13,31,087,27,24,79,280,,25,21,301,,26,48,129,,3*78
$GBGSV,3,3,10,29,06,039,,35,50,066,,3*71
$GNGLL,5025.4462533,N,01411.3817419,E,213422.00,A,A*74
$GNRMC,213423.00,A,5025.4462499,N,01411.3817498,E,0.003,,241021,,,A,V*19
$GNVTG,,T,,M,0.003,N,0.006,K,A*38
$GNGGA,213423.00,5025.4462499,N,01411.3817498,E,1,12,0.59,218.594,M,44.078,M,,*4B
$GNGSA,A,3,24,31,32,29,12,25,02,06,,,,,1.14,0.59,0.97,1*09
$GNGSA,A,3,81,87,88,69,79,77,70,78,,,,,1.14,0.59,0.97,2*0B
$GNGSA,A,3,12,13,24,25,26,35,,,,,,,1.14,0.59,0.97,4*00
$GPGSV,3,1,10,02,40,097,40,03,01,349,24,06,26,050,31,12,68,072,46,1*6E
$GPGSV,3,2,10,19,01,044,26,24,27,154,46,25,74,295,39,29,39,212,44,1*68
$GPGSV,3,3,10,31,20,310,45,32,30,265,48,1*69
$GPGSV,3,1,10,02,40,097,,03,01,349,23,06,26,050,21,12,68,072,44,6*69
$GPGSV,3,2,10,19,01,044,,24,27,154,44,25,74,295,45,29,39,212,38,6*69
$GPGSV,3,3,10,31,20,310,40,32,30,265,44,6*67
$GLGSV,3,1,09,68,00,239,,69,18,283,47,70,14,343,22,77,27,111,16,1*7C
$GLGSV,3,2,09,78,78,046,50,79,36,308,50,81,20,184,45,87,48,048,46,1*78
$GLGSV,3,3,09,88,62,133,43,1*43
$GLGSV,3,1,09,68,00,239,,69,18,283,43,70,14,343,,77,27,111,16,3*7A
$GLGSV,3,2,09,78,78,046,42,79,36,308,45,81,20,184,42,87,48,048,,3*78
$GLGSV,3,3,09,88,62,133,42,3*40
$GBGSV,3,1,10,02,04,106,,05,18,128,,10,05,082,21,12,33,190,41,1*70
$GBGSV,3,2,10,13,31,087,29,24,79,280,41,25,21,301,47,26,48,129,40,1*76
$GBGSV,3,3,10,29,06,039,22,35,50,066,40,1*77
$GBGSV,3,1,10,02,04,106,,05,18,128,,10,05,082,,12,33,190,48,3*78
$GBGSV,3,2,10,13,31,087,27,24,79,280,,25,21,301,,26,48,129,,3*78
$GBGSV,3,3,10,29,06,039,,35,50,066,,3*71
$GNGLL,5025.4462499,N,01411.3817498,E,213423.00,A,A*7D
$GNRMC,213424.00,A,5025.4461194,N,01411.3817159,E,0.042,,241021,,,D,V*1D
$GNVTG,,T,,M,0.042,N,0.079,K,D*30
$GNGGA,213424.00,5025.4461194,N,01411.3817159,E,2,12,0.64,218.566,M,44.078,M,1.0,0084*6C
$GNGSA,A,3,24,31,32,29,12,25,02,06,,,,,1.25,0.64,1.07,1*0D
$GNGSA,A,3,81,87,88,69,79,77,70,78,,,,,1.25,0.64,1.07,2*0F
$GNGSA,A,3,12,13,24,25,26,35,,,,,,,1.25,0.64,1.07,4*04
$GPGSV,3,1,10,02,40,097,40,03,01,349,24,06,26,050,31,12,68,072,46,1*6E
$GPGSV,3,2,10,19,01,044,26,24,27,154,46,25,74,295,39,29,39,212,44,1*68
$GPGSV,3,3,10,31,20,310,45,32,30,265,48,1*69
$GPGSV,3,1,10,02,40,097,,03,01,349,23,06,26,050,21,12,68,072,44,6*69
$GPGSV,3,2,10,19,01,044,,24,27,154,44,25,74,295,45,29,39,212,38,6*69
$GPGSV,3,3,10,31,20,310,40,32,30,265,44,6*67
$GLGSV,3,1,09,68,00,239,,69,18,283,47,70,14,343,22,77,27,111,15,1*7F
$GLGSV,3,2,09,78,78,046,50,79,36,308,50,81,20,184,45,87,48,048,45,1*7B
$GLGSV,3,3,09,88,62,133,44,1*44
$GLGSV,3,1,09,68,00,239,,69,18,283,43,70,14,343,,77,27,111,16,3*7A
$GLGSV,3,2,09,78,78,046,42,79,36,308,45,81,20,184,42,87,48,048,,3*78
$GLGSV,3,3,09,88,62,133,42,3*40
$GBGSV,3,1,10,02,04,106,,05,18,128,,10,05,082,21,12,33,190,41,1*70
$GBGSV,3,2,10,13,31,087,30,24,79,280,41,25,21,301,47,26,48,129,40,1*7E
$GBGSV,3,3,10,29,06,039,22,35,50,066,40,1*77
$GBGSV,3,1,10,02,04,106,,05,18,128,,10,05,082,,12,33,190,48,3*78
$GBGSV,3,2,10,13,31,087,27,24,79,280,,25,21,301,,26,48,129,,3*78
$GBGSV,3,3,10,29,06,039,,35,50,066,,3*71
$GNGLL,5025.4461194,N,01411.3817159,E,213424.00,A,D*7C
$GNRMC,213425.00,A,5025.4447567,N,01411.3818038,E,0.010,,241021,,,R,V*08
$GNVTG,,T,,M,0.010,N,0.018,K,D*30
$GNGGA,213425.00,5025.4447567,N,01411.3818038,E,4,12,0.64,217.784,M,44.078,M,1.0,0084*6F
$GNGSA,A,3,24,31,32,29,12,25,02,06,,,,,1.25,0.64,1.07,1*0D
$GNGSA,A,3,81,87,88,69,79,77,70,78,,,,,1.25,0.64,1.07,2*0F
$GNGSA,A,3,12,13,24,25,26,35,,,,,,,1.25,0.64,1.07,4*04
$GPGSV,3,1,10,02,40,097,39,03,01,349,23,06,26,050,31,12,68,072,46,1*67
$GPGSV,3,2,10,19,01,044,27,24,27,154,46,25,74,295,39,29,39,212,44,1*69
$GPGSV,3,3,10,31,20,310,45,32,30,265,48,1*69
$GPGSV,3,1,10,02,40,097,,03,01,349,23,06,26,050,22,12,68,072,44,6*6A
$GPGSV,3,2,10,19,01,044,,24,27,154,44,25,74,295,45,29,39,212,38,6*69
$GPGSV,3,3,10,31,20,310,40,32,30,265,44,6*67
$GLGSV,3,1,09,68,00,239,,69,18,283,47,70,14,343,21,77,27,111,14,1*7D
$GLGSV,3,2,09,78,78,046,50,79,36,308,50,81,20,184,45,87,48,048,45,1*7B
$GLGSV,3,3,09,88,62,133,44,1*44
$GLGSV,3,1,09,68,00,239,,69,18,283,43,70,14,343,,77,27,111,16,3*7A
$GLGSV,3,2,09,78,78,046,43,79,36,308,45,81,20,184,42,87,48,048,,3*79
$GLGSV,3,3,09,88,62,133,42,3*40
$GBGSV,3,1,10,02,04,106,,05,18,128,,10,05,082,22,12,33,190,41,1*73
$GBGSV,3,2,10,13,31,087,29,24,79,280,41,25,21,301,47,26,48,129,40,1*76
$GBGSV,3,3,10,29,06,039,23,35,50,066,40,1*76
$GBGSV,3,1,10,02,04,106,,05,18,128,,10,05,082,,12,33,190,48,3*78
$GBGSV,3,2,10,13,31,087,27,24,79,280,,25,21,301,,26,48,129,,3*78
$GBGSV,3,3,10,29,06,039,,35,50,066,,3*71
$GNGLL,5025.4447567,N,01411.3818038,E,213425.00,A,D*78
$GNRMC,213426.00,A,5025.4447570,N,01411.3818061,E,0.012,,241021,,,R,V*03
$GNVTG,,T,,M,0.012,N,0.023,K,D*3A
$GNGGA,213426.00,5025.4447570,N,01411.3818061,E,4,12,0.65,217.791,M,44.078,M,1.0,0084*63
$GNGSA,A,3,24,31,32,29,12,25,02,06,,,,,1.26,0.65,1.08,1*00
$GNGSA,A,3,81,87,88,69,79,77,70,78,,,,,1.26,0.65,1.08,2*02
$GNGSA,A,3,12,13,24,25,26,35,,,,,,,1.26,0.65,1.08,4*09
$GPGSV,3,1,10,02,40,097,39,03,01,349,23,06,26,050,31,12,68,072,46,1*67
$GPGSV,3,2,10,19,01,044,27,24,27,154,47,25,74,295,40,29,39,212,44,1*66
$GPGSV,3,3,10,31,20,310,45,32,30,265,48,1*69
$GPGSV,3,1,10,02,40,097,,03,01,349,22,06,26,050,21,12,68,072,44,6*68
$GPGSV,3,2,10,19,01,044,,24,27,154,44,25,74,295,45,29,39,212,38,6*69
$GPGSV,3,3,10,31,20,310,40,32,30,265,44,6*67
$GLGSV,3,1,09,68,00,239,,69,18,283,47,70,14,343,22,77,27,111,13,1*79
$GLGSV,3,2,09,78,78,046,50,79,36,308,50,81,20,184,45,87,48,048,45,1*7B
$GLGSV,3,3,09,88,62,133,44,1*44
$GLGSV,3,1,09,68,00,239,,69,18,283,43,70,14,343,,77,27,111,16,3*7A
$GLGSV,3,2,09,78,78,046,43,79,36,308,45,81,20,184,42,87,48,048,,3*79
$GLGSV,3,3,09,88,62,133,42,3*40
$GBGSV,3,1,10,02,04,106,,05,18,128,,10,05,082,21,12,33,190,41,1*70
$GBGSV,3,2,10,13,31,087,29,24,79,280,41,25,21,301,47,26,48,129,40,1*76
$GBGSV,3,3,10,29,06,039,23,35,50,066,41,1*77
$GBGSV,3,1,10,02,04,106,,05,18,128,,10,05,082,,12,33,190,47,3*77
$GBGSV,3,2,10,13,31,087,27,24,79,280,,25,21,301,,26,48,129,,3*78
$GBGSV,3,3,10,29,06,039,,35,50,066,,3*71
$GNGLL,5025.4447570,N,01411.3818061,E,213426.00,A,D*71
$GNRMC,213427.00,A,5025.4447558,N,01411.3818058,E,0.012,,241021,,,R,V*02
$GNVTG,,T,,M,0.012,N,0.023,K,D*3A
$GNGGA,213427.00,5025.4447558,N,01411.3818058,E,4,12,0.64,217.791,M,44.078,M,1.0,0084*63
$GNGSA,A,3,24,31,32,29,12,25,02,06,,,,,1.25,0.64,1.07,1*0D
$GNGSA,A,3,81,87,88,69,79,77,70,78,,,,,1.25,0.64,1.07,2*0F
$GNGSA,A,3,12,13,24,25,26,35,,,,,,,1.25,0.64,1.07,4*04
$GPGSV,3,1,10,02,40,097,39,03,01,349,23,06,26,050,31,12,68,072,46,1*67
$GPGSV,3,2,10,19,01,044,27,24,27,154,47,25,74,295,41,29,39,212,44,1*67
$GPGSV,3,3,10,31,20,310,45,32,30,265,48,1*69
$GPGSV,3,1,10,02,40,097,,03,01,349,22,06,26,050,21,12,68,072,44,6*68
$GPGSV,3,2,10,19,01,044,,24,27,154,44,25,74,295,45,29,39,212,38,6*69
$GPGSV,3,3,10,31,20,310,40,32,30,265,44,6*67
$GLGSV,3,1,09,68,00,239,,69,18,283,47,70,14,343,21,77,27,111,12,1*7B
$GLGSV,3,2,09,78,78,046,50,79,36,308,50,81,20,184,45,87,48,048,45,1*7B
$GLGSV,3,3,09,88,62,133,44,1*44
$GLGSV,3,1,09,68,00,239,,69,18,283,43,70,14,343,,77,27,111,17,3*7B
$GLGSV,3,2,09,78,78,046,43,79,36,308,45,81,20,184,42,87,48,048,,3*79
$GLGSV,3,3,09,88,62,133,42,3*40
$GBGSV,3,1,10,02,04,106,,05,18,128,,10,05,082,21,12,33,190,41,1*70
$GBGSV,3,2,10,13,31,087,29,24,79,280,40,25,21,301,47,26,48,129,41,1*76
$GBGSV,3,3,10,29,06,039,22,35,50,066,41,1*76
$GBGSV,3,1,10,02,04,106,,05,18,128,,10,05,082,,12,33,190,48,3*78
$GBGSV,3,2,10,13,31,087,27,24,79,280,,25,21,301,,26,48,129,,3*78
$GBGSV,3,3,10,29,06,039,,35,50,066,,3*71
$GNGLL,5025.4447558,N,01411.3818058,E,213427.00,A,D*70
$GNRMC,213428.00,A,5025.4447560,N,01411.3818038,E,0.013,,241021,,,R,V*01
$GNVTG,,T,,M,0.013,N,0.023,K,D*3B
$GNGGA,213428.00,5025.4447560,N,01411.3818038,E,4,12,0.64,217.794,M,44.078,M,1.0,0084*64
$GNGSA,A,3,24,31,32,29,12,25,02,06,,,,,1.25,0.64,1.07,1*0D
$GNGSA,A,3,81,87,88,69,79,77,70,78,,,,,1.25,0.64,1.07,2*0F
$GNGSA,A,3,12,13,24,25,26,35,,,,,,,1.25,0.64,1.07,4*04
$GPGSV,3,1,10,02,40,097,39,03,01,349,22,06,26,050,31,12,68,072,46,1*66
$GPGSV,3,2,10,19,01,044,27,24,27,154,47,25,74,295,41,29,39,212,44,1*67
$GPGSV,3,3,10,31,20,310,45,32,30,265,48,1*69
$GPGSV,3,1,10,02,40,097,,03,01,349,21,06,26,050,20,12,68,072,44,6*6A
$GPGSV,3,2,10,19,01,044,,24,27,154,44,25,74,295,45,29,39,212,38,6*69
$GPGSV,3,3,10,31,20,310,40,32,30,265,44,6*67
$GLGSV,3,1,09,68,00,239,,69,18,283,47,70,14,343,21,77,27,111,12,1*7B
$GLGSV,3,2,09,78,78,046,50,79,36,308,50,81,20,184,45,87,48,048,45,1*7B
$GLGSV,3,3,09,88,62,133,44,1*44
$GLGSV,3,1,09,68,00,239,,69,18,283,43,70,14,343,,77,27,111,17,3*7B
$GLGSV,3,2,09,78,78,046,43,79,36,308,45,81,20,184,42,87,48,048,,3*79
$GLGSV,3,3,09,88,62,133,42,3*40
$GBGSV,3,1,10,02,04,106,,05,18,128,,10,05,082,21,12,33,190,41,1*70
$GBGSV,3,2,10,13,31,087,29,24,79,280,40,25,21,301,47,26,48,129,41,1*76
$GBGSV,3,3,10,29,06,039,22,35,50,066,41,1*76
$GBGSV,3,1,10,02,04,106,,05,18,128,,10,05,082,,12,33,190,48,3*78
$GBGSV,3,2,10,13,31,087,27,24,79,280,,25,21,301,,26,48,129,,3*78
$GBGSV,3,3,10,29,06,039,,35,50,066,,3*71
$GNGLL,5025.4447560,N,01411.3818038,E,213428.00,A,D*72
$GNRMC,213429.00,A,5025.4447558,N,01411.3818055,E,0.007,,241021,,,R,V*05
$GNVTG,,T,,M,0.007,N,0.014,K,D*3A
$GNGGA,213429.00,5025.4447558,N,01411.3818055,E,4,12,0.64,217.793,M,44.078,M,1.0,0084*62
$GNGSA,A,3,24,31,32,29,12,25,02,06,,,,,1.25,0.64,1.07,1*0D
$GNGSA,A,3,81,87,88,69,79,77,70,78,,,,,1.25,0.64,1.07,2*0F
$GNGSA,A,3,12,13,24,25,26,35,,,,,,,1.25,0.64,1.07,4*04
$GPGSV,3,1,10,02,40,097,40,03,01,349,22,06,26,050,30,12,68,072,46,1*69
$GPGSV,3,2,10,19,01,044,26,24,27,154,47,25,74,295,41,29,39,212,44,1*66
$GPGSV,3,3,10,31,20,310,45,32,30,265,48,1*69
$GPGSV,3,1,10,02,40,097,,03,01,349,22,06,26,050,20,12,68,072,44,6*69
$GPGSV,3,2,10,19,01,044,,24,27,154,44,25,74,295,45,29,39,212,38,6*69
$GPGSV,3,3,10,31,20,310,40,32,30,265,44,6*67
$GLGSV,3,1,09,68,00,239,,69,18,283,47,70,14,343,21,77,27,111,12,1*7B
$GLGSV,3,2,09,78,78,046,50,79,36,308,50,81,20,184,45,87,48,048,45,1*7B
$GLGSV,3,3,09,88,62,133,44,1*44
$GLGSV,3,1,09,68,00,239,,69,18,283,43,70,14,343,,77,27,111,17,3*7B
$GLGSV,3,2,09,78,78,046,43,79,36,308,45,81,20,184,42,87,48,048,,3*79
$GLGSV,3,3,09,88,62,133,42,3*40
$GBGSV,3,1,10,02,04,106,,05,18,128,,10,05,082,21,12,33,190,41,1*70
$GBGSV,3,2,10,13,31,087,29,24,79,280,40,25,21,301,47,26,48,129,41,1*76
$GBGSV,3,3,10,29,06,039,23,35,50,066,40,1*76
$GBGSV,3,1,10,02,04,106,,05,18,128,,10,05,082,,12,33,190,47,3*77
$GBGSV,3,2,10,13,31,087,27,24,79,280,,25,21,301,,26,48,129,,3*78
$GBGSV,3,3,10,29,06,039,,35,50,066,,3*71
$GNGLL,5025.4447558,N,01411.3818055,E,213429.00,A,D*73
$GNRMC,213430.00,A,5025.4447551,N,01411.3818048,E,0.009,,241021,,,R,V*06
$GNVTG,,T,,M,0.009,N,0.016,K,D*36
$GNGGA,213430.00,5025.4447551,N,01411.3818048,E,4,12,0.65,217.789,M,44.078,M,1.0,0084*65
$GNGSA,A,3,24,31,32,29,12,25,02,06,,,,,1.26,0.65,1.08,1*00
$GNGSA,A,3,81,87,88,69,79,77,70,78,,,,,1.26,0.65,1.08,2*02
$GNGSA,A,3,12,13,24,25,26,35,,,,,,,1.26,0.65,1.08,4*09
$GPGSV,3,1,10,02,40,097,40,03,01,349,21,06,26,050,30,12,68,072,46,1*6A
$GPGSV,3,2,10,19,01,044,26,24,27,154,47,25,74,295,41,29,39,212,44,1*66
$GPGSV,3,3,10,31,20,310,46,32,30,265,48,1*6A
$GPGSV,3,1,10,02,40,097,,03,01,349,22,06,26,050,20,12,68,072,44,6*69
$GPGSV,3,2,10,19,01,044,,24,27,154,44,25,74,295,45,29,39,212,38,6*69
$GPGSV,3,3,10,31,20,310,40,32,30,265,44,6*67
$GLGSV,3,1,09,68,00,239,,69,18,283,47,70,14,343,21,77,27,111,12,1*7B
$GLGSV,3,2,09,78,78,046,50,79,36,308,50,81,20,184,45,87,48,048,45,1*7B
$GLGSV,3,3,09,88,62,133,44,1*44
$GLGSV,3,1,09,68,00,239,,69,18,283,43,70,14,343,,77,27,111,17,3*7B
$GLGSV,3,2,09,78,78,046,42,79,36,308,45,81,20,184,42,87,48,048,,3*78
$GLGSV,3,3,09,88,62,133,42,3*40
$GBGSV,3,1,10,02,04,106,,05,18,128,,10,05,082,21,12,33,190,41,1*70
$GBGSV,3,2,10,13,31,087,29,24,79,280,40,25,21,301,47,26,48,129,41,1*76
$GBGSV,3,3,10,29,06,039,23,35,50,066,41,1*77
$GBGSV,3,1,10,02,04,106,,05,18,128,,10,05,082,,12,33,190,47,3*77
$GBGSV,3,2,10,13,31,087,27,24,79,280,,25,21,301,,26,48,129,,3*78
$GBGSV,3,3,10,29,06,039,,35,50,066,,3*71
$GNGLL,5025.4447551,N,01411.3818048,E,213430.00,A,D*7E
$GNRMC,213431.00,A,5025.4447546,N,01411.3818054,E,0.005,,241021,,,R,V*00
$GNVTG,,T,,M,0.005,N,0.010,K,D*3C
$GNGGA,213431.00,5025.4447546,N,01411.3818054,E,4,12,0.64,217.792,M,44.078,M,1.0,0084*64
$GNGSA,A,3,24,31,32,29,12,25,02,06,,,,,1.25,0.64,1.08,1*02
$GNGSA,A,3,81,87,88,69,79,77,70,78,,,,,1.25,0.64,1.08,2*00
$GNGSA,A,3,12,13,24,25,26,35,,,,,,,1.25,0.64,1.08,4*0B
$GPGSV,3,1,10,02,40,097,40,03,01,349,21,06,26,050,30,12,68,072,46,1*6A
$GPGSV,3,2,10,19,01,044,26,24,27,154,47,25,74,295,41,29,39,212,44,1*66
$GPGSV,3,3,10,31,20,310,46,32,30,265,48,1*6A
$GPGSV,3,1,10,02,40,097,,03,01,349,22,06,26,050,19,12,68,072,44,6*63
$GPGSV,3,2,10,19,01,044,,24,27,154,44,25,74,295,45,29,39,212,38,6*69
$GPGSV,3,3,10,31,20,310,40,32,30,265,44,6*67
$GLGSV,3,1,09,68,00,239,,69,18,283,47,70,14,343,21,77,27,111,13,1*7A
$GLGSV,3,2,09,78,78,046,50,79,36,308,50,81,20,184,45,87,48,048,45,1*7B
$GLGSV,3,3,09,88,62,133,44,1*44
$GLGSV,3,1,09,68,00,239,,69,18,283,43,70,14,343,,77,27,111,17,3*7B
$GLGSV,3,2,09,78,78,046,42,79,36,308,45,81,20,184,42,87,48,048,,3*78
$GLGSV,3,3,09,88,62,133,42,3*40
$GBGSV,3,1,10,02,04,106,,05,18,128,,10,05,082,21,12,33,190,41,1*70
$GBGSV,3,2,10,13,31,087,29,24,79,280,40,25,21,301,47,26,48,129,41,1*76
$GBGSV,3,3,10,29,06,039,23,35,50,066,41,1*77
$GBGSV,3,1,10,02,04,106,,05,18,128,,10,05,082,,12,33,190,48,3*78
$GBGSV,3,2,10,13,31,087,27,24,79,280,,25,21,301,,26,48,129,,3*78
$GBGSV,3,3,10,29,06,039,,35,50,066,,3*71
$GNGLL,5025.4447546,N,01411.3818054,E,213431.00,A,D*74
$GNRMC,213432.00,A,5025.4447553,N,01411.3818029,E,0.007,,241021,,,R,V*0F
$GNVTG,,T,,M,0.007,N,0.014,K,D*3A
$GNGGA,213432.00,5025.4447553,N,01411.3818029,E,4,12,0.64,217.794,M,44.078,M,1.0,0084*6F
$GNGSA,A,3,24,31,32,29,12,25,02,06,,,,,1.25,0.64,1.08,1*02
$GNGSA,A,3,81,87,88,69,79,77,70,78,,,,,1.25,0.64,1.08,2*00
$GNGSA,A,3,12,13,24,25,26,35,,,,,,,1.25,0.64,1.08,4*0B
$GPGSV,3,1,10,02,40,097,40,03,01,349,,06,26,050,31,12,68,072,46,1*68
$GPGSV,3,2,10,19,01,044,26,24,27,154,47,25,74,295,41,29,39,212,44,1*66
$GPGSV,3,3,10,31,20,310,45,32,30,265,48,1*69
$GPGSV,3,1,10,02,40,097,,03,01,349,22,06,26,050,19,12,68,072,44,6*63
$GPGSV,3,2,10,19,01,044,,24,27,154,44,25,74,295,45,29,39,212,38,6*69
$GPGSV,3,3,10,31,20,310,40,32,30,265,44,6*67
$GLGSV,3,1,09,68,00,239,,69,18,283,47,70,14,343,21,77,27,111,13,1*7A
$GLGSV,3,2,09,78,78,046,50,79,36,308,50,81,20,184,46,87,48,048,45,1*78
$GLGSV,3,3,09,88,62,133,44,1*44
$GLGSV,3,1,09,68,00,239,,69,18,283,43,70,14,343,,77,27,111,17,3*7B
$GLGSV,3,2,09,78,78,046,42,79,36,308,45,81,20,184,42,87,48,048,,3*78
$GLGSV,3,3,09,88,62,133,42,3*40
$GBGSV,3,1,10,02,04,106,,05,18,128,,10,05,082,21,12,33,190,41,1*70
$GBGSV,3,2,10,13,31,087,28,24,79,280,40,25,21,301,47,26,48,129,41,1*77
$GBGSV,3,3,10,29,06,039,22,35,50,066,40,1*77
$GBGSV,3,1,10,02,04,106,,05,18,128,,10,05,082,,12,33,190,47,3*77
$GBGSV,3,2,10,13,31,087,27,24,79,280,,25,21,301,,26,48,129,,3*78
$GBGSV,3,3,10,29,06,039,,35,50,066,,3*71
$GNGLL,5025.4447553,N,01411.3818029,E,213432.00,A,D*79
$GNRMC,213433.00,A,5025.4447558,N,01411.3818061,E,0.011,,241021,,,R,V*0E
$GNVTG,,T,,M,0.011,N,0.020,K,D*3A
$GNGGA,213433.00,5025.4447558,N,01411.3818061,E,4,12,0.64,217.792,M,44.078,M,1.0,0084*6F
$GNGSA,A,3,24,31,32,29,12,25,02,06,,,,,1.25,0.64,1.08,1*02
$GNGSA,A,3,81,87,88,69,79,77,70,78,,,,,1.25,0.64,1.08,2*00
$GNGSA,A,3,12,13,24,25,26,35,,,,,,,1.25,0.64,1.08,4*0B
$GPGSV,3,1,10,02,40,097,40,03,01,349,,06,26,050,30,12,68,072,46,1*69
$GPGSV,3,2,10,19,01,044,26,24,27,154,47,25,74,295,42,29,39,212,44,1*65
$GPGSV,3,3,10,31,20,310,46,32,30,265,48,1*6A
$GPGSV,3,1,10,02,40,097,,03,01,349,23,06,26,050,18,12,68,072,44,6*63
$GPGSV,3,2,10,19,01,044,,24,27,154,44,25,74,295,45,29,39,212,38,6*69
$GPGSV,3,3,10,31,20,310,40,32,30,265,44,6*67
$GLGSV,3,1,09,68,00,239,,69,18,283,47,70,14,343,21,77,27,111,13,1*7A
$GLGSV,3,2,09,78,78,046,50,79,36,308,50,81,20,184,46,87,48,048,45,1*78
